[
    {
        "id": "7882227667479213385",
        "title": "公共厕所",
        "address": "安徽省黄山市屯溪区湖边路与滨江东路交叉口东北方向66米左右",
        "tel": "",
        "category": "基础设施:公共设施:公共厕所",
        "type": 0,
        "location": {
            "lat": 29.723746,
            "lng": 118.351748
        },
        "ad_info": {
            "adcode": 341002,
            "province": "安徽省",
            "city": "黄山市",
            "district": "屯溪区"
        }
    },
    {
        "id": "2876787730684081060",
        "title": "公共厕所",
        "address": "安徽省黄山市屯溪区仙人洞北路与徽商街交叉口西南方向65米左右",
        "tel": "",
        "category": "基础设施:公共设施:公共厕所",
        "type": 0,
        "location": {
            "lat": 29.717469,
            "lng": 118.320567
        },
        "ad_info": {
            "adcode": 341002,
            "province": "安徽省",
            "city": "黄山市",
            "district": "屯溪区"
        }
    },
    {
        "id": "10582042076180360174",
        "title": "公共厕所",
        "address": "安徽省黄山市屯溪区横江路与西海路交叉口正东方向125米左右",
        "tel": "",
        "category": "基础设施:公共设施:公共厕所",
        "type": 0,
        "location": {
            "lat": 29.715765,
            "lng": 118.296571
        },
        "ad_info": {
            "adcode": 341002,
            "province": "安徽省",
            "city": "黄山市",
            "district": "屯溪区"
        }
    },
    {
        "id": "9395712924190732082",
        "title": "公共厕所",
        "address": "安徽省黄山市屯溪区东里巷与新黄山商业步行街交叉口正东方向84米左右",
        "tel": "",
        "category": "基础设施:公共设施:公共厕所",
        "type": 0,
        "location": {
            "lat": 29.708584,
            "lng": 118.319085
        },
        "ad_info": {
            "adcode": 341002,
            "province": "安徽省",
            "city": "黄山市",
            "district": "屯溪区"
        }
    },
    {
        "id": "17226462345066138224",
        "title": "公共厕所",
        "address": "安徽省黄山市屯溪区新安南路与阳湖东路交叉口正北方向123米左右",
        "tel": "",
        "category": "基础设施:公共设施:公共厕所",
        "type": 0,
        "location": {
            "lat": 29.703146,
            "lng": 118.312963
        },
        "ad_info": {
            "adcode": 341002,
            "province": "安徽省",
            "city": "黄山市",
            "district": "屯溪区"
        }
    },
    {
        "id": "6371071993397843501",
        "title": "公共厕所",
        "address": "安徽省黄山市屯溪区戴震路与西镇街交叉口正南方向134米左右",
        "tel": "",
        "category": "基础设施:公共设施:公共厕所",
        "type": 0,
        "location": {
            "lat": 29.70647,
            "lng": 118.29979
        },
        "ad_info": {
            "adcode": 341002,
            "province": "安徽省",
            "city": "黄山市",
            "district": "屯溪区"
        }
    },
    {
        "id": "17954330772456594155",
        "title": "公共厕所",
        "address": "安徽省黄山市屯溪区西海路中国石化黎阳加油站",
        "tel": "",
        "category": "基础设施:公共设施:公共厕所",
        "type": 0,
        "location": {
            "lat": 29.711789,
            "lng": 118.291922
        },
        "ad_info": {
            "adcode": 341002,
            "province": "安徽省",
            "city": "黄山市",
            "district": "屯溪区"
        }
    },
    {
        "id": "9005217064865878252",
        "title": "公共厕所",
        "address": "安徽省黄山市屯溪区百鸟亭路3-37号",
        "tel": "",
        "category": "基础设施:公共设施:公共厕所",
        "type": 0,
        "location": {
            "lat": 29.695251,
            "lng": 118.326718
        },
        "ad_info": {
            "adcode": 341002,
            "province": "安徽省",
            "city": "黄山市",
            "district": "屯溪区"
        }
    },
    {
        "id": "6539396970352664522",
        "title": "公共厕所",
        "address": "安徽省黄山市屯溪区梅林大道与绩溪路交叉口东北方向225米左右",
        "tel": "",
        "category": "基础设施:公共设施:公共厕所",
        "type": 0,
        "location": {
            "lat": 29.766242,
            "lng": 118.265396
        },
        "ad_info": {
            "adcode": 341002,
            "province": "安徽省",
            "city": "黄山市",
            "district": "屯溪区"
        }
    },
    {
        "id": "5658494485744296930",
        "title": "公共厕所",
        "address": "安徽省黄山市屯溪区梅林大道与约山路交叉口东北方向129米左右",
        "tel": "",
        "category": "基础设施:公共设施:公共厕所",
        "type": 0,
        "location": {
            "lat": 29.763161,
            "lng": 118.264668
        },
        "ad_info": {
            "adcode": 341002,
            "province": "安徽省",
            "city": "黄山市",
            "district": "屯溪区"
        }
    },
    {
        "id": "17378564701762670314",
        "title": "公共厕所",
        "address": "安徽省黄山市屯溪区上马路与滨江西路交叉口正北方向30米左右",
        "tel": "",
        "category": "基础设施:公共设施:公共厕所",
        "type": 0,
        "location": {
            "lat": 29.707991,
            "lng": 118.303416
        },
        "ad_info": {
            "adcode": 341002,
            "province": "安徽省",
            "city": "黄山市",
            "district": "屯溪区"
        }
    },
    {
        "id": "15972974899989921164",
        "title": "公共厕所",
        "address": "安徽省黄山市屯溪区碧阳路与齐云大道辅路交叉口正北方向159米左右",
        "tel": "",
        "category": "基础设施:公共设施:公共厕所",
        "type": 0,
        "location": {
            "lat": 29.736552,
            "lng": 118.285006
        },
        "ad_info": {
            "adcode": 341002,
            "province": "安徽省",
            "city": "黄山市",
            "district": "屯溪区"
        }
    },
    {
        "id": "2781395730418111815",
        "title": "公共厕所",
        "address": "安徽省黄山市屯溪区徽山路与苹果山路交叉口正东方向301米左右",
        "tel": "",
        "category": "基础设施:公共设施:公共厕所",
        "type": 0,
        "location": {
            "lat": 29.71758,
            "lng": 118.316614
        },
        "ad_info": {
            "adcode": 341002,
            "province": "安徽省",
            "city": "黄山市",
            "district": "屯溪区"
        }
    },
    {
        "id": "5279348096893300044",
        "title": "公共厕所",
        "address": "安徽省黄山市屯溪区滨江中路22-4号",
        "tel": "",
        "category": "基础设施:公共设施:公共厕所",
        "type": 0,
        "location": {
            "lat": 29.706057,
            "lng": 118.327029
        },
        "ad_info": {
            "adcode": 341002,
            "province": "安徽省",
            "city": "黄山市",
            "district": "屯溪区"
        }
    },
    {
        "id": "5970370162126757875",
        "title": "公共厕所",
        "address": "安徽省黄山市屯溪区北海路与雀山路交叉口正东方向76米左右",
        "tel": "",
        "category": "基础设施:公共设施:公共厕所",
        "type": 0,
        "location": {
            "lat": 29.721072,
            "lng": 118.330023
        },
        "ad_info": {
            "adcode": 341002,
            "province": "安徽省",
            "city": "黄山市",
            "district": "屯溪区"
        }
    },
    {
        "id": "546003818387557209",
        "title": "公共厕所",
        "address": "安徽省黄山市屯溪区北海路与苹果山路交叉口正东方向153米左右",
        "tel": "",
        "category": "基础设施:公共设施:公共厕所",
        "type": 0,
        "location": {
            "lat": 29.720469,
            "lng": 118.31338
        },
        "ad_info": {
            "adcode": 341002,
            "province": "安徽省",
            "city": "黄山市",
            "district": "屯溪区"
        }
    },
    {
        "id": "18010196538983397051",
        "title": "公共厕所(宏村景区广场)",
        "address": "安徽省黄山市黟县宏村景区077号",
        "tel": "",
        "category": "基础设施:公共设施:公共厕所",
        "type": 0,
        "location": {
            "lat": 30.00374,
            "lng": 117.989304
        },
        "ad_info": {
            "adcode": 341023,
            "province": "安徽省",
            "city": "黄山市",
            "district": "黟县"
        }
    },
    {
        "id": "8566722978559418988",
        "title": "公共厕所",
        "address": "安徽省黄山市祁门县新兴西路与甲子岭路交叉口东北方向193米左右",
        "tel": "",
        "category": "基础设施:公共设施:公共厕所",
        "type": 0,
        "location": {
            "lat": 29.855374,
            "lng": 117.704556
        },
        "ad_info": {
            "adcode": 341024,
            "province": "安徽省",
            "city": "黄山市",
            "district": "祁门县"
        }
    },
    {
        "id": "10218945758112568281",
        "title": "公共厕所",
        "address": "安徽省黄山市祁门县G237与新兴东路交叉口正南方向124米左右",
        "tel": "",
        "category": "基础设施:公共设施:公共厕所",
        "type": 0,
        "location": {
            "lat": 29.846692,
            "lng": 117.729803
        },
        "ad_info": {
            "adcode": 341024,
            "province": "安徽省",
            "city": "黄山市",
            "district": "祁门县"
        }
    },
    {
        "id": "4504993368562067230",
        "title": "公共厕所",
        "address": "安徽省黄山市黄山区汤川路与G3京台高速出口交叉口东北150米",
        "tel": "",
        "category": "基础设施:公共设施:公共厕所",
        "type": 0,
        "location": {
            "lat": 30.066199,
            "lng": 118.178168
        },
        "ad_info": {
            "adcode": 341003,
            "province": "安徽省",
            "city": "黄山市",
            "district": "黄山区"
        }
    },
    {
        "id": "4904776943245732439",
        "title": "公共厕所",
        "address": "安徽省黄山市祁门县中心北路与学前街交叉口西北方向145米左右",
        "tel": "",
        "category": "基础设施:公共设施:公共厕所",
        "type": 0,
        "location": {
            "lat": 29.854824,
            "lng": 117.716693
        },
        "ad_info": {
            "adcode": 341024,
            "province": "安徽省",
            "city": "黄山市",
            "district": "祁门县"
        }
    },
    {
        "id": "16995745301148170862",
        "title": "公共厕所",
        "address": "安徽省黄山市歙县新安路与紫云路交叉口正北方向122米左右",
        "tel": "",
        "category": "基础设施:公共设施:公共厕所",
        "type": 0,
        "location": {
            "lat": 29.866186,
            "lng": 118.41161
        },
        "ad_info": {
            "adcode": 341021,
            "province": "安徽省",
            "city": "黄山市",
            "district": "歙县"
        }
    },
    {
        "id": "156900458148190222",
        "title": "公共厕所",
        "address": "安徽省黄山市祁门县S234与S480交叉口东北方向766米左右",
        "tel": "",
        "category": "基础设施:公共设施:公共厕所",
        "type": 0,
        "location": {
            "lat": 29.859191,
            "lng": 117.370604
        },
        "ad_info": {
            "adcode": 341024,
            "province": "安徽省",
            "city": "黄山市",
            "district": "祁门县"
        }
    },
    {
        "id": "7815247672393504401",
        "title": "公共厕所",
        "address": "安徽省黄山市黄山区汤川路与G3京台高速入口交叉口西150米",
        "tel": "",
        "category": "基础设施:公共设施:公共厕所",
        "type": 0,
        "location": {
            "lat": 30.064239,
            "lng": 118.175662
        },
        "ad_info": {
            "adcode": 341003,
            "province": "安徽省",
            "city": "黄山市",
            "district": "黄山区"
        }
    },
    {
        "id": "15746759686053177214",
        "title": "公共厕所",
        "address": "安徽省黄山市黟县西递街与郭门街交叉口正西方向180米左右",
        "tel": "",
        "category": "基础设施:公共设施:公共厕所",
        "type": 0,
        "location": {
            "lat": 29.923158,
            "lng": 117.940843
        },
        "ad_info": {
            "adcode": 341023,
            "province": "安徽省",
            "city": "黄山市",
            "district": "黟县"
        }
    },
    {
        "id": "6443523261271316675",
        "title": "公共厕所",
        "address": "安徽省黄山市歙县黄山中路161号",
        "tel": "",
        "category": "基础设施:公共设施:公共厕所",
        "type": 0,
        "location": {
            "lat": 29.871687,
            "lng": 118.430585
        },
        "ad_info": {
            "adcode": 341021,
            "province": "安徽省",
            "city": "黄山市",
            "district": "歙县"
        }
    },
    {
        "id": "15451735022188841377",
        "title": "公共厕所",
        "address": "安徽省黄山市黄山区黄山风景区内",
        "tel": "",
        "category": "基础设施:公共设施:公共厕所",
        "type": 0,
        "location": {
            "lat": 30.065926,
            "lng": 118.175385
        },
        "ad_info": {
            "adcode": 341003,
            "province": "安徽省",
            "city": "黄山市",
            "district": "黄山区"
        }
    },
    {
        "id": "10219794639915660789",
        "title": "公共厕所",
        "address": "安徽省黄山市休宁县G237与S214交叉口正东方向450米左右",
        "tel": "",
        "category": "基础设施:公共设施:公共厕所",
        "type": 0,
        "location": {
            "lat": 29.788415,
            "lng": 118.120169
        },
        "ad_info": {
            "adcode": 341022,
            "province": "安徽省",
            "city": "黄山市",
            "district": "休宁县"
        }
    },
    {
        "id": "3123753154712525781",
        "title": "长春巷公共厕所",
        "address": "安徽省黄山市屯溪区康乐一路与延安路交叉口正北方向44米左右",
        "tel": "",
        "category": "基础设施:公共设施:公共厕所",
        "type": 0,
        "location": {
            "lat": 29.710613,
            "lng": 118.311338
        },
        "ad_info": {
            "adcode": 341002,
            "province": "安徽省",
            "city": "黄山市",
            "district": "屯溪区"
        }
    },
    {
        "id": "7985011959239314404",
        "title": "公共厕所",
        "address": "安徽省黄山市徽州区徽州绿道与徽州绿道文伊线交叉口正南方向655米左右",
        "tel": "",
        "category": "基础设施:公共设施:公共厕所",
        "type": 0,
        "location": {
            "lat": 29.841629,
            "lng": 118.286665
        },
        "ad_info": {
            "adcode": 341004,
            "province": "安徽省",
            "city": "黄山市",
            "district": "徽州区"
        }
    },
    {
        "id": "10482322135001767969",
        "title": "公共厕所",
        "address": "安徽省黄山市祁门县S226与X025交叉口东北方向85米左右",
        "tel": "",
        "category": "基础设施:公共设施:公共厕所",
        "type": 0,
        "location": {
            "lat": 29.703936,
            "lng": 117.513128
        },
        "ad_info": {
            "adcode": 341024,
            "province": "安徽省",
            "city": "黄山市",
            "district": "祁门县"
        }
    },
    {
        "id": "9785611898451172157",
        "title": "公共厕所",
        "address": "安徽省黄山市祁门县祁门县党员活动中心北侧",
        "tel": "",
        "category": "基础设施:公共设施:公共厕所",
        "type": 0,
        "location": {
            "lat": 30.051741,
            "lng": 117.693419
        },
        "ad_info": {
            "adcode": 341024,
            "province": "安徽省",
            "city": "黄山市",
            "district": "祁门县"
        }
    },
    {
        "id": "7099850956895244601",
        "title": "公共厕所",
        "address": "安徽省黄山市徽州区求是职业培训学校东侧80米",
        "tel": "",
        "category": "基础设施:公共设施:公共厕所",
        "type": 0,
        "location": {
            "lat": 29.838362,
            "lng": 118.335196
        },
        "ad_info": {
            "adcode": 341004,
            "province": "安徽省",
            "city": "黄山市",
            "district": "徽州区"
        }
    },
    {
        "id": "7025112506208234399",
        "title": "公共厕所",
        "address": "安徽省黄山市祁门县G237与S477交叉口正东方向118米左右",
        "tel": "",
        "category": "基础设施:公共设施:公共厕所",
        "type": 0,
        "location": {
            "lat": 29.844587,
            "lng": 117.819894
        },
        "ad_info": {
            "adcode": 341024,
            "province": "安徽省",
            "city": "黄山市",
            "district": "祁门县"
        }
    },
    {
        "id": "2562622396301527512",
        "title": "公共厕所",
        "address": "安徽省黄山市休宁县县前河路与榜眼坊交叉口正南方向37米左右",
        "tel": "",
        "category": "基础设施:公共设施:公共厕所",
        "type": 0,
        "location": {
            "lat": 29.782932,
            "lng": 118.184724
        },
        "ad_info": {
            "adcode": 341022,
            "province": "安徽省",
            "city": "黄山市",
            "district": "休宁县"
        }
    },
    {
        "id": "5559787974458729166",
        "title": "旅游公共厕所",
        "address": "安徽省黄山市屯溪区滨江东路6号",
        "tel": "",
        "category": "基础设施:公共设施:公共厕所",
        "type": 0,
        "location": {
            "lat": 29.711205,
            "lng": 118.33755
        },
        "ad_info": {
            "adcode": 341002,
            "province": "安徽省",
            "city": "黄山市",
            "district": "屯溪区"
        }
    },
    {
        "id": "15044176162749259264",
        "title": "公共厕所",
        "address": "安徽省黄山市祁门县X024与平芦路交叉口正东方向135米左右",
        "tel": "",
        "category": "基础设施:公共设施:公共厕所",
        "type": 0,
        "location": {
            "lat": 29.732205,
            "lng": 117.61389
        },
        "ad_info": {
            "adcode": 341024,
            "province": "安徽省",
            "city": "黄山市",
            "district": "祁门县"
        }
    },
    {
        "id": "2422926610076558253",
        "title": "公共厕所",
        "address": "安徽省黄山市黄山区G3京台高速出口与G3京台高速入口交叉口东北340米",
        "tel": "",
        "category": "基础设施:公共设施:公共厕所",
        "type": 0,
        "location": {
            "lat": 30.070249,
            "lng": 118.180591
        },
        "ad_info": {
            "adcode": 341003,
            "province": "安徽省",
            "city": "黄山市",
            "district": "黄山区"
        }
    },
    {
        "id": "9336762416397257117",
        "title": "公共厕所",
        "address": "安徽省黄山市祁门县S326与梅城大道交叉口正北方向442米左右",
        "tel": "",
        "category": "基础设施:公共设施:公共厕所",
        "type": 0,
        "location": {
            "lat": 29.855113,
            "lng": 117.696285
        },
        "ad_info": {
            "adcode": 341024,
            "province": "安徽省",
            "city": "黄山市",
            "district": "祁门县"
        }
    },
    {
        "id": "2579803472021054910",
        "title": "公共厕所",
        "address": "安徽省黄山市祁门县S222与Y022交叉口西南方向157米左右",
        "tel": "",
        "category": "基础设施:公共设施:公共厕所",
        "type": 0,
        "location": {
            "lat": 29.744895,
            "lng": 117.835707
        },
        "ad_info": {
            "adcode": 341024,
            "province": "安徽省",
            "city": "黄山市",
            "district": "祁门县"
        }
    },
    {
        "id": "8022019904694131063",
        "title": "公共厕所",
        "address": "安徽省黄山市歙县滨江路与练江路交叉口东北方向220米左右",
        "tel": "",
        "category": "基础设施:公共设施:公共厕所",
        "type": 0,
        "location": {
            "lat": 29.86834,
            "lng": 118.43157
        },
        "ad_info": {
            "adcode": 341021,
            "province": "安徽省",
            "city": "黄山市",
            "district": "歙县"
        }
    },
    {
        "id": "13353851096865236972",
        "title": "公共厕所",
        "address": "安徽省黄山市屯溪区北海路与安东路交叉口正南方向59米左右",
        "tel": "",
        "category": "基础设施:公共设施:公共厕所",
        "type": 0,
        "location": {
            "lat": 29.720729,
            "lng": 118.33109
        },
        "ad_info": {
            "adcode": 341002,
            "province": "安徽省",
            "city": "黄山市",
            "district": "屯溪区"
        }
    },
    {
        "id": "11188276220694476081",
        "title": "公共厕所",
        "address": "安徽省黄山市祁门县新兴中路与滨江北路交叉口正南方向249米左右",
        "tel": "",
        "category": "基础设施:公共设施:公共厕所",
        "type": 0,
        "location": {
            "lat": 29.850848,
            "lng": 117.720963
        },
        "ad_info": {
            "adcode": 341024,
            "province": "安徽省",
            "city": "黄山市",
            "district": "祁门县"
        }
    },
    {
        "id": "5802675938888732050",
        "title": "公共厕所",
        "address": "安徽省黄山市歙县新安江大道与经春路交叉口正南方向89米左右",
        "tel": "",
        "category": "基础设施:公共设施:公共厕所",
        "type": 0,
        "location": {
            "lat": 29.897592,
            "lng": 118.460412
        },
        "ad_info": {
            "adcode": 341021,
            "province": "安徽省",
            "city": "黄山市",
            "district": "歙县"
        }
    },
    {
        "id": "14863817582989895054",
        "title": "徽骆驼文化广场公共厕所",
        "address": "安徽省黄山市屯溪区横江路与西海路交叉口正东方向96米左右",
        "tel": "",
        "category": "基础设施:公共设施:公共厕所",
        "type": 0,
        "location": {
            "lat": 29.715869,
            "lng": 118.296289
        },
        "ad_info": {
            "adcode": 341002,
            "province": "安徽省",
            "city": "黄山市",
            "district": "屯溪区"
        }
    },
    {
        "id": "5240240918357256400",
        "title": "公共厕所",
        "address": "安徽省黄山市歙县S348与歙州大道交叉口正西方向215米左右",
        "tel": "",
        "category": "基础设施:公共设施:公共厕所",
        "type": 0,
        "location": {
            "lat": 29.854776,
            "lng": 118.409611
        },
        "ad_info": {
            "adcode": 341021,
            "province": "安徽省",
            "city": "黄山市",
            "district": "歙县"
        }
    },
    {
        "id": "5963396047663966616",
        "title": "公共厕所",
        "address": "安徽省黄山市黄山区八甲路与谭家桥北路交叉口正北方向39米左右",
        "tel": "",
        "category": "基础设施:公共设施:公共厕所",
        "type": 0,
        "location": {
            "lat": 30.170887,
            "lng": 118.271456
        },
        "ad_info": {
            "adcode": 341003,
            "province": "安徽省",
            "city": "黄山市",
            "district": "黄山区"
        }
    },
    {
        "id": "5905859880342893573",
        "title": "公共厕所",
        "address": "安徽省黄山市休宁县横江路与齐云山西大道交叉口正东方向58米左右",
        "tel": "",
        "category": "基础设施:公共设施:公共厕所",
        "type": 0,
        "location": {
            "lat": 29.790134,
            "lng": 118.185513
        },
        "ad_info": {
            "adcode": 341022,
            "province": "安徽省",
            "city": "黄山市",
            "district": "休宁县"
        }
    },
    {
        "id": "1886920547482925483",
        "title": "公共厕所",
        "address": "安徽省黄山市休宁县文昌坊与玉宁街交叉口东南方向176米左右",
        "tel": "",
        "category": "基础设施:公共设施:公共厕所",
        "type": 0,
        "location": {
            "lat": 29.778427,
            "lng": 118.184231
        },
        "ad_info": {
            "adcode": 341022,
            "province": "安徽省",
            "city": "黄山市",
            "district": "休宁县"
        }
    },
    {
        "id": "2926984883915000454",
        "title": "公共厕所",
        "address": "安徽省黄山市徽州区黄山路与龙井大道交叉口西北方向119米左右",
        "tel": "",
        "category": "基础设施:公共设施:公共厕所",
        "type": 0,
        "location": {
            "lat": 29.827136,
            "lng": 118.33411
        },
        "ad_info": {
            "adcode": 341004,
            "province": "安徽省",
            "city": "黄山市",
            "district": "徽州区"
        }
    },
    {
        "id": "10385628418913866464",
        "title": "公共厕所",
        "address": "安徽省黄山市休宁县G205与儒村隧道交叉口正东方向128米左右",
        "tel": "",
        "category": "基础设施:公共设施:公共厕所",
        "type": 0,
        "location": {
            "lat": 29.961156,
            "lng": 118.085603
        },
        "ad_info": {
            "adcode": 341022,
            "province": "安徽省",
            "city": "黄山市",
            "district": "休宁县"
        }
    },
    {
        "id": "7176154432615543510",
        "title": "公共厕所",
        "address": "安徽省黄山市屯溪区栗园路18-6号",
        "tel": "",
        "category": "基础设施:公共设施:公共厕所",
        "type": 0,
        "location": {
            "lat": 29.709284,
            "lng": 118.315037
        },
        "ad_info": {
            "adcode": 341002,
            "province": "安徽省",
            "city": "黄山市",
            "district": "屯溪区"
        }
    },
    {
        "id": "17159596905878384865",
        "title": "公共厕所",
        "address": "安徽省黄山市休宁县休宁中学东南侧230米",
        "tel": "",
        "category": "基础设施:公共设施:公共厕所",
        "type": 0,
        "location": {
            "lat": 29.791345,
            "lng": 118.219457
        },
        "ad_info": {
            "adcode": 341022,
            "province": "安徽省",
            "city": "黄山市",
            "district": "休宁县"
        }
    },
    {
        "id": "16092332786741337350",
        "title": "公共厕所",
        "address": "安徽省黄山市休宁县G205与钱江源1号隧道交叉口西北方向1499米左右",
        "tel": "",
        "category": "基础设施:公共设施:公共厕所",
        "type": 0,
        "location": {
            "lat": 29.431027,
            "lng": 118.305591
        },
        "ad_info": {
            "adcode": 341022,
            "province": "安徽省",
            "city": "黄山市",
            "district": "休宁县"
        }
    },
    {
        "id": "11007504649492267134",
        "title": "公共厕所",
        "address": "安徽省黄山市休宁县枧潭景区东侧60米",
        "tel": "",
        "category": "基础设施:公共设施:公共厕所",
        "type": 0,
        "location": {
            "lat": 29.989612,
            "lng": 118.073486
        },
        "ad_info": {
            "adcode": 341022,
            "province": "安徽省",
            "city": "黄山市",
            "district": "休宁县"
        }
    },
    {
        "id": "1260685685462581950",
        "title": "公共厕所",
        "address": "安徽省黄山市黟县S219与S222交叉口正东方向1938米左右",
        "tel": "",
        "category": "基础设施:公共设施:公共厕所",
        "type": 0,
        "location": {
            "lat": 30.085182,
            "lng": 117.819076
        },
        "ad_info": {
            "adcode": 341023,
            "province": "安徽省",
            "city": "黄山市",
            "district": "黟县"
        }
    },
    {
        "id": "9110100365315065054",
        "title": "公共厕所",
        "address": "安徽省黄山市祁门县G237与X027交叉口正西方向916米左右",
        "tel": "",
        "category": "基础设施:公共设施:公共厕所",
        "type": 0,
        "location": {
            "lat": 29.89656,
            "lng": 117.501355
        },
        "ad_info": {
            "adcode": 341024,
            "province": "安徽省",
            "city": "黄山市",
            "district": "祁门县"
        }
    },
    {
        "id": "11610530377853714706",
        "title": "公共厕所",
        "address": "安徽省黄山市黟县G237与楠玛路交叉口正西方向581米左右",
        "tel": "",
        "category": "基础设施:公共设施:公共厕所",
        "type": 0,
        "location": {
            "lat": 29.84026,
            "lng": 117.962555
        },
        "ad_info": {
            "adcode": 341023,
            "province": "安徽省",
            "city": "黄山市",
            "district": "黟县"
        }
    },
    {
        "id": "6703518444808193964",
        "title": "公共厕所",
        "address": "安徽省黄山市休宁县G205与钱江源1号隧道交叉口正西方向772米左右",
        "tel": "",
        "category": "基础设施:公共设施:公共厕所",
        "type": 0,
        "location": {
            "lat": 29.424716,
            "lng": 118.311257
        },
        "ad_info": {
            "adcode": 341022,
            "province": "安徽省",
            "city": "黄山市",
            "district": "休宁县"
        }
    },
    {
        "id": "3162111598578246093",
        "title": "公共厕所",
        "address": "安徽省黄山市黄山区芙蓉路与莲花路交叉口正北方向36米左右",
        "tel": "",
        "category": "基础设施:公共设施:公共厕所",
        "type": 0,
        "location": {
            "lat": 30.288087,
            "lng": 118.127734
        },
        "ad_info": {
            "adcode": 341003,
            "province": "安徽省",
            "city": "黄山市",
            "district": "黄山区"
        }
    },
    {
        "id": "3296788094128403148",
        "title": "公共厕所",
        "address": "安徽省黄山市黄山区京台高速",
        "tel": "",
        "category": "基础设施:公共设施:公共厕所",
        "type": 0,
        "location": {
            "lat": 30.106854,
            "lng": 118.231879
        },
        "ad_info": {
            "adcode": 341003,
            "province": "安徽省",
            "city": "黄山市",
            "district": "黄山区"
        }
    },
    {
        "id": "14394724622448039300",
        "title": "公共厕所",
        "address": "安徽省黄山市黟县打鼓岭景区出口",
        "tel": "",
        "category": "基础设施:公共设施:公共厕所",
        "type": 0,
        "location": {
            "lat": 30.066372,
            "lng": 117.82651
        },
        "ad_info": {
            "adcode": 341023,
            "province": "安徽省",
            "city": "黄山市",
            "district": "黟县"
        }
    },
    {
        "id": "2464889727871725285",
        "title": "公共厕所",
        "address": "安徽省黄山市休宁县黄山北路7号",
        "tel": "",
        "category": "基础设施:公共设施:公共厕所",
        "type": 0,
        "location": {
            "lat": 29.797552,
            "lng": 118.195438
        },
        "ad_info": {
            "adcode": 341022,
            "province": "安徽省",
            "city": "黄山市",
            "district": "休宁县"
        }
    },
    {
        "id": "10743147063472836462",
        "title": "公共厕所",
        "address": "安徽省黄山市歙县新安江大道与汪华大道交叉口西南方向288米左右",
        "tel": "",
        "category": "基础设施:公共设施:公共厕所",
        "type": 0,
        "location": {
            "lat": 29.877147,
            "lng": 118.430097
        },
        "ad_info": {
            "adcode": 341021,
            "province": "安徽省",
            "city": "黄山市",
            "district": "歙县"
        }
    },
    {
        "id": "13608665914799880383",
        "title": "公共厕所",
        "address": "安徽省黄山市黄山区G330与仙三线交叉口正西方向1379米左右",
        "tel": "",
        "category": "基础设施:公共设施:公共厕所",
        "type": 0,
        "location": {
            "lat": 30.332057,
            "lng": 118.239565
        },
        "ad_info": {
            "adcode": 341003,
            "province": "安徽省",
            "city": "黄山市",
            "district": "黄山区"
        }
    },
    {
        "id": "17367381443888602242",
        "title": "公共厕所",
        "address": "安徽省黄山市休宁县017县道北50米",
        "tel": "",
        "category": "基础设施:公共设施:公共厕所",
        "type": 0,
        "location": {
            "lat": 29.600204,
            "lng": 117.759521
        },
        "ad_info": {
            "adcode": 341022,
            "province": "安徽省",
            "city": "黄山市",
            "district": "休宁县"
        }
    },
    {
        "id": "2114876759869364707",
        "title": "公共厕所",
        "address": "安徽省黄山市休宁县G205与S476交叉口东北方向1006米左右",
        "tel": "",
        "category": "基础设施:公共设施:公共厕所",
        "type": 0,
        "location": {
            "lat": 29.974664,
            "lng": 118.087959
        },
        "ad_info": {
            "adcode": 341022,
            "province": "安徽省",
            "city": "黄山市",
            "district": "休宁县"
        }
    },
    {
        "id": "7399647203303484224",
        "title": "公共厕所",
        "address": "安徽省黄山市歙县X001",
        "tel": "",
        "category": "基础设施:公共设施:公共厕所",
        "type": 0,
        "location": {
            "lat": 29.6523,
            "lng": 118.541232
        },
        "ad_info": {
            "adcode": 341021,
            "province": "安徽省",
            "city": "黄山市",
            "district": "歙县"
        }
    },
    {
        "id": "4303738161369984632",
        "title": "公共厕所",
        "address": "安徽省黄山市黟县G530与S479交叉口正东方向576米左右",
        "tel": "",
        "category": "基础设施:公共设施:公共厕所",
        "type": 0,
        "location": {
            "lat": 29.892123,
            "lng": 117.966811
        },
        "ad_info": {
            "adcode": 341023,
            "province": "安徽省",
            "city": "黄山市",
            "district": "黟县"
        }
    },
    {
        "id": "11803440591974041946",
        "title": "宏村公共厕所",
        "address": "安徽省黄山市黟县G530与宏福路交叉口正东方向108米左右",
        "tel": "",
        "category": "基础设施:公共设施:公共厕所",
        "type": 0,
        "location": {
            "lat": 29.998196,
            "lng": 117.98606
        },
        "ad_info": {
            "adcode": 341023,
            "province": "安徽省",
            "city": "黄山市",
            "district": "黟县"
        }
    },
    {
        "id": "9578926962980849831",
        "title": "公共厕所",
        "address": "安徽省黄山市歙县大华路与新安路交叉口正东方向143米左右",
        "tel": "",
        "category": "基础设施:公共设施:公共厕所",
        "type": 0,
        "location": {
            "lat": 29.868305,
            "lng": 118.424752
        },
        "ad_info": {
            "adcode": 341021,
            "province": "安徽省",
            "city": "黄山市",
            "district": "歙县"
        }
    },
    {
        "id": "7265754216196932436",
        "title": "公共厕所",
        "address": "安徽省黄山市歙县大山公墓管理处东北侧",
        "tel": "",
        "category": "基础设施:公共设施:公共厕所",
        "type": 0,
        "location": {
            "lat": 29.876369,
            "lng": 118.460439
        },
        "ad_info": {
            "adcode": 341021,
            "province": "安徽省",
            "city": "黄山市",
            "district": "歙县"
        }
    },
    {
        "id": "7275932366978350342",
        "title": "公共厕所",
        "address": "安徽省黄山市黄山区322省道西50米",
        "tel": "",
        "category": "基础设施:公共设施:公共厕所",
        "type": 0,
        "location": {
            "lat": 30.294323,
            "lng": 118.25115
        },
        "ad_info": {
            "adcode": 341003,
            "province": "安徽省",
            "city": "黄山市",
            "district": "黄山区"
        }
    },
    {
        "id": "9283855391660844195",
        "title": "公共厕所",
        "address": "安徽省黄山市黟县S222与美溪桥交叉口东南方向421米左右",
        "tel": "",
        "category": "基础设施:公共设施:公共厕所",
        "type": 0,
        "location": {
            "lat": 30.097609,
            "lng": 117.79518
        },
        "ad_info": {
            "adcode": 341023,
            "province": "安徽省",
            "city": "黄山市",
            "district": "黟县"
        }
    },
    {
        "id": "6452996730781674049",
        "title": "公共厕所",
        "address": "安徽省黄山市歙县城东路与长青路交叉口正东方向535米左右",
        "tel": "",
        "category": "基础设施:公共设施:公共厕所",
        "type": 0,
        "location": {
            "lat": 29.857928,
            "lng": 118.450682
        },
        "ad_info": {
            "adcode": 341021,
            "province": "安徽省",
            "city": "黄山市",
            "district": "歙县"
        }
    },
    {
        "id": "14251591112139067113",
        "title": "新安市场公共厕所",
        "address": "安徽省黄山市歙县紫霞路紫霞小区",
        "tel": "",
        "category": "基础设施:公共设施:公共厕所",
        "type": 0,
        "location": {
            "lat": 29.870399,
            "lng": 118.423103
        },
        "ad_info": {
            "adcode": 341021,
            "province": "安徽省",
            "city": "黄山市",
            "district": "歙县"
        }
    },
    {
        "id": "173287751448722867",
        "title": "公共厕所",
        "address": "安徽省黄山市屯溪区塘尾路与新安北路交叉口东北方向137米左右",
        "tel": "",
        "category": "基础设施:公共设施:公共厕所",
        "type": 0,
        "location": {
            "lat": 29.715328,
            "lng": 118.310597
        },
        "ad_info": {
            "adcode": 341002,
            "province": "安徽省",
            "city": "黄山市",
            "district": "屯溪区"
        }
    },
    {
        "id": "6529058155425921148",
        "title": "公共厕所",
        "address": "安徽省黄山市屯溪区滨江东路市民中心",
        "tel": "",
        "category": "基础设施:公共设施:公共厕所",
        "type": 0,
        "location": {
            "lat": 29.716969,
            "lng": 118.343743
        },
        "ad_info": {
            "adcode": 341002,
            "province": "安徽省",
            "city": "黄山市",
            "district": "屯溪区"
        }
    },
    {
        "id": "3708845247370012793",
        "title": "公共厕所",
        "address": "安徽省黄山市屯溪区滨江中路19-1号",
        "tel": "",
        "category": "基础设施:公共设施:公共厕所",
        "type": 0,
        "location": {
            "lat": 29.705671,
            "lng": 118.322941
        },
        "ad_info": {
            "adcode": 341002,
            "province": "安徽省",
            "city": "黄山市",
            "district": "屯溪区"
        }
    },
    {
        "id": "8241285275089675993",
        "title": "公共厕所",
        "address": "安徽省黄山市黄山区雍景台南侧210米",
        "tel": "05598531644",
        "category": "基础设施:公共设施:公共厕所",
        "type": 0,
        "location": {
            "lat": 30.300341,
            "lng": 118.114907
        },
        "ad_info": {
            "adcode": 341003,
            "province": "安徽省",
            "city": "黄山市",
            "district": "黄山区"
        }
    },
    {
        "id": "17367381443888602242",
        "title": "公共厕所",
        "address": "安徽省黄山市休宁县017县道北50米",
        "tel": "",
        "category": "基础设施:公共设施:公共厕所",
        "type": 0,
        "location": {
            "lat": 29.600204,
            "lng": 117.759521
        },
        "ad_info": {
            "adcode": 341022,
            "province": "安徽省",
            "city": "黄山市",
            "district": "休宁县"
        }
    },
    {
        "id": "430529395828427589",
        "title": "牯牛降服务区公共厕所",
        "address": "安徽省黄山市祁门县G237与伊渚路交叉口正东方向1341米左右",
        "tel": "",
        "category": "基础设施:公共设施:公共厕所",
        "type": 0,
        "location": {
            "lat": 29.837368,
            "lng": 117.543787
        },
        "ad_info": {
            "adcode": 341024,
            "province": "安徽省",
            "city": "黄山市",
            "district": "祁门县"
        }
    },
    {
        "id": "3708845247370012793",
        "title": "公共厕所",
        "address": "安徽省黄山市屯溪区滨江中路19-1号",
        "tel": "",
        "category": "基础设施:公共设施:公共厕所",
        "type": 0,
        "location": {
            "lat": 29.705671,
            "lng": 118.322941
        },
        "ad_info": {
            "adcode": 341002,
            "province": "安徽省",
            "city": "黄山市",
            "district": "屯溪区"
        }
    },
    {
        "id": "3296788094128403148",
        "title": "公共厕所",
        "address": "安徽省黄山市黄山区京台高速",
        "tel": "",
        "category": "基础设施:公共设施:公共厕所",
        "type": 0,
        "location": {
            "lat": 30.106854,
            "lng": 118.231879
        },
        "ad_info": {
            "adcode": 341003,
            "province": "安徽省",
            "city": "黄山市",
            "district": "黄山区"
        }
    },
    {
        "id": "10830138434882645931",
        "title": "旅游公共厕所",
        "address": "安徽省黄山市黄山区乌石乡桃源村卫生室东侧150米",
        "tel": "",
        "category": "基础设施:公共设施:公共厕所",
        "type": 0,
        "location": {
            "lat": 30.194869,
            "lng": 117.940346
        },
        "ad_info": {
            "adcode": 341003,
            "province": "安徽省",
            "city": "黄山市",
            "district": "黄山区"
        }
    },
    {
        "id": "13608665914799880383",
        "title": "公共厕所",
        "address": "安徽省黄山市黄山区G330与仙三线交叉口正西方向1379米左右",
        "tel": "",
        "category": "基础设施:公共设施:公共厕所",
        "type": 0,
        "location": {
            "lat": 30.332057,
            "lng": 118.239565
        },
        "ad_info": {
            "adcode": 341003,
            "province": "安徽省",
            "city": "黄山市",
            "district": "黄山区"
        }
    },
    {
        "id": "9283855391660844195",
        "title": "公共厕所",
        "address": "安徽省黄山市黟县S222与美溪桥交叉口东南方向421米左右",
        "tel": "",
        "category": "基础设施:公共设施:公共厕所",
        "type": 0,
        "location": {
            "lat": 30.097609,
            "lng": 117.79518
        },
        "ad_info": {
            "adcode": 341023,
            "province": "安徽省",
            "city": "黄山市",
            "district": "黟县"
        }
    },
    {
        "id": "2332480701428244772",
        "title": "公共厕所",
        "address": "安徽省黄山市祁门县文峰南路与新兴中路交叉口西北方向129米左右",
        "tel": "",
        "category": "基础设施:公共设施:公共厕所",
        "type": 0,
        "location": {
            "lat": 29.85388,
            "lng": 117.71486
        },
        "ad_info": {
            "adcode": 341024,
            "province": "安徽省",
            "city": "黄山市",
            "district": "祁门县"
        }
    },
    {
        "id": "9123319711065839399",
        "title": "牯牛降服务区公共厕所",
        "address": "安徽省黄山市祁门县渚口乡黄祁高速公路牯牛降服务区",
        "tel": "",
        "category": "基础设施:公共设施:公共厕所",
        "type": 0,
        "location": {
            "lat": 29.835818,
            "lng": 117.544146
        },
        "ad_info": {
            "adcode": 341024,
            "province": "安徽省",
            "city": "黄山市",
            "district": "祁门县"
        }
    },
    {
        "id": "7275932366978350342",
        "title": "公共厕所",
        "address": "安徽省黄山市黄山区322省道西50米",
        "tel": "",
        "category": "基础设施:公共设施:公共厕所",
        "type": 0,
        "location": {
            "lat": 30.294323,
            "lng": 118.25115
        },
        "ad_info": {
            "adcode": 341003,
            "province": "安徽省",
            "city": "黄山市",
            "district": "黄山区"
        }
    },
    {
        "id": "13927247914650458110",
        "title": "公共厕所",
        "address": "安徽省黄山市徽州区永佳大道与黄山路交叉口东北方向88米左右",
        "tel": "",
        "category": "基础设施:公共设施:公共厕所",
        "type": 0,
        "location": {
            "lat": 29.818752,
            "lng": 118.344338
        },
        "ad_info": {
            "adcode": 341004,
            "province": "安徽省",
            "city": "黄山市",
            "district": "徽州区"
        }
    },
    {
        "id": "7967874407905134827",
        "title": "齐云山服务区公共厕所",
        "address": "安徽省黄山市休宁县海阳镇黄祁高速公路齐云山服务区",
        "tel": "",
        "category": "基础设施:公共设施:公共厕所",
        "type": 0,
        "location": {
            "lat": 29.751742,
            "lng": 118.137743
        },
        "ad_info": {
            "adcode": 341022,
            "province": "安徽省",
            "city": "黄山市",
            "district": "休宁县"
        }
    },
    {
        "id": "8241285275089675993",
        "title": "公共厕所",
        "address": "安徽省黄山市黄山区雍景台南侧210米",
        "tel": "05598531644",
        "category": "基础设施:公共设施:公共厕所",
        "type": 0,
        "location": {
            "lat": 30.300341,
            "lng": 118.114907
        },
        "ad_info": {
            "adcode": 341003,
            "province": "安徽省",
            "city": "黄山市",
            "district": "黄山区"
        }
    },
    {
        "id": "173287751448722867",
        "title": "公共厕所",
        "address": "安徽省黄山市屯溪区塘尾路与新安北路交叉口东北方向137米左右",
        "tel": "",
        "category": "基础设施:公共设施:公共厕所",
        "type": 0,
        "location": {
            "lat": 29.715328,
            "lng": 118.310597
        },
        "ad_info": {
            "adcode": 341002,
            "province": "安徽省",
            "city": "黄山市",
            "district": "屯溪区"
        }
    },
    {
        "id": "13680355860257763492",
        "title": "公共厕所",
        "address": "安徽省黄山市歙县S348与忠堡桥交叉口正西方向1003米左右",
        "tel": "",
        "category": "基础设施:公共设施:公共厕所",
        "type": 0,
        "location": {
            "lat": 29.844759,
            "lng": 118.515084
        },
        "ad_info": {
            "adcode": 341021,
            "province": "安徽省",
            "city": "黄山市",
            "district": "歙县"
        }
    },
    {
        "id": "16876215759771487674",
        "title": "公共厕所",
        "address": "安徽省黄山市歙县X012",
        "tel": "",
        "category": "基础设施:公共设施:公共厕所",
        "type": 0,
        "location": {
            "lat": 29.884899,
            "lng": 118.707764
        },
        "ad_info": {
            "adcode": 341021,
            "province": "安徽省",
            "city": "黄山市",
            "district": "歙县"
        }
    },
    {
        "id": "14647768586076649771",
        "title": "公共厕所",
        "address": "安徽省黄山市黟县Y034与九都路交叉口正东方向19米左右",
        "tel": "",
        "category": "基础设施:公共设施:公共厕所",
        "type": 0,
        "location": {
            "lat": 29.935591,
            "lng": 117.973948
        },
        "ad_info": {
            "adcode": 341023,
            "province": "安徽省",
            "city": "黄山市",
            "district": "黟县"
        }
    },
    {
        "id": "8534473434798399810",
        "title": "三阳服务区公共厕所",
        "address": "安徽省黄山市歙县S102与杭瑞高速交叉口正北方向93米左右",
        "tel": "",
        "category": "基础设施:公共设施:公共厕所",
        "type": 0,
        "location": {
            "lat": 30.033026,
            "lng": 118.818053
        },
        "ad_info": {
            "adcode": 341021,
            "province": "安徽省",
            "city": "黄山市",
            "district": "歙县"
        }
    },
    {
        "id": "583433067537592902",
        "title": "凤湖烟柳度假酒店-洗手间",
        "address": "安徽省黄山市休宁县齐云山西大道(黄山动物园正对面)",
        "tel": "",
        "category": "基础设施:公共设施:公共厕所",
        "type": 0,
        "location": {
            "lat": 29.788821,
            "lng": 118.168371
        },
        "ad_info": {
            "adcode": 341022,
            "province": "安徽省",
            "city": "黄山市",
            "district": "休宁县"
        }
    },
    {
        "id": "10464089546576008194",
        "title": "公共厕所",
        "address": "安徽省黄山市徽州区南山路与滨河南路交叉口西南方向433米左右",
        "tel": "",
        "category": "基础设施:公共设施:公共厕所",
        "type": 0,
        "location": {
            "lat": 29.814919,
            "lng": 118.3296
        },
        "ad_info": {
            "adcode": 341004,
            "province": "安徽省",
            "city": "黄山市",
            "district": "徽州区"
        }
    },
    {
        "id": "16048970028125291812",
        "title": "公共厕所",
        "address": "安徽省黄山市黄山区G530与浦园大道交叉口正西方向106米左右",
        "tel": "",
        "category": "基础设施:公共设施:公共厕所",
        "type": 0,
        "location": {
            "lat": 30.284907,
            "lng": 118.107086
        },
        "ad_info": {
            "adcode": 341003,
            "province": "安徽省",
            "city": "黄山市",
            "district": "黄山区"
        }
    },
    {
        "id": "11019671457763102511",
        "title": "公共厕所",
        "address": "安徽省黄山市黄山区桃源路黄山太平茶业科学技术研究所",
        "tel": "",
        "category": "基础设施:公共设施:公共厕所",
        "type": 0,
        "location": {
            "lat": 30.296153,
            "lng": 118.131376
        },
        "ad_info": {
            "adcode": 341003,
            "province": "安徽省",
            "city": "黄山市",
            "district": "黄山区"
        }
    },
    {
        "id": "15629908725373829972",
        "title": "黄山-公共厕所",
        "address": "安徽省黄山市黄山区汤口镇黄山风景区玉屏景区",
        "tel": "",
        "category": "基础设施:公共设施:公共厕所",
        "type": 0,
        "location": {
            "lat": 30.122572,
            "lng": 118.175407
        },
        "ad_info": {
            "adcode": 341003,
            "province": "安徽省",
            "city": "黄山市",
            "district": "黄山区"
        }
    },
    {
        "id": "609603596068117859",
        "title": "公共厕所",
        "address": "安徽省黄山市黟县S476与Y066交叉口正北方向121米左右",
        "tel": "",
        "category": "基础设施:公共设施:公共厕所",
        "type": 0,
        "location": {
            "lat": 30.000762,
            "lng": 117.991668
        },
        "ad_info": {
            "adcode": 341023,
            "province": "安徽省",
            "city": "黄山市",
            "district": "黟县"
        }
    },
    {
        "id": "6662593005915624411",
        "title": "休宁服务区公共厕所",
        "address": "安徽省黄山市休宁县京台高速附近",
        "tel": "",
        "category": "基础设施:公共设施:公共厕所",
        "type": 0,
        "location": {
            "lat": 29.640062,
            "lng": 118.231624
        },
        "ad_info": {
            "adcode": 341022,
            "province": "安徽省",
            "city": "黄山市",
            "district": "休宁县"
        }
    },
    {
        "id": "583433067537592902",
        "title": "凤湖烟柳度假酒店-洗手间",
        "address": "安徽省黄山市休宁县齐云山西大道(黄山动物园正对面)",
        "tel": "",
        "category": "基础设施:公共设施:公共厕所",
        "type": 0,
        "location": {
            "lat": 29.788821,
            "lng": 118.168371
        },
        "ad_info": {
            "adcode": 341022,
            "province": "安徽省",
            "city": "黄山市",
            "district": "休宁县"
        }
    },
    {
        "id": "430529395828427589",
        "title": "牯牛降服务区公共厕所",
        "address": "安徽省黄山市祁门县G237与伊渚路交叉口正东方向1341米左右",
        "tel": "",
        "category": "基础设施:公共设施:公共厕所",
        "type": 0,
        "location": {
            "lat": 29.837368,
            "lng": 117.543787
        },
        "ad_info": {
            "adcode": 341024,
            "province": "安徽省",
            "city": "黄山市",
            "district": "祁门县"
        }
    },
    {
        "id": "16876215759771487674",
        "title": "公共厕所",
        "address": "安徽省黄山市歙县X012",
        "tel": "",
        "category": "基础设施:公共设施:公共厕所",
        "type": 0,
        "location": {
            "lat": 29.884899,
            "lng": 118.707764
        },
        "ad_info": {
            "adcode": 341021,
            "province": "安徽省",
            "city": "黄山市",
            "district": "歙县"
        }
    },
    {
        "id": "10386198731424016329",
        "title": "黄山-女洗手间",
        "address": "安徽省黄山市黄山区汤口镇黄山风景区内(北侧)",
        "tel": "",
        "category": "基础设施:公共设施:公共厕所",
        "type": 0,
        "location": {
            "lat": 30.181299,
            "lng": 118.151545
        },
        "ad_info": {
            "adcode": 341003,
            "province": "安徽省",
            "city": "黄山市",
            "district": "黄山区"
        }
    },
    {
        "id": "7994315171105653968",
        "title": "旅游公共厕所",
        "address": "安徽省黄山市黄山区S103与沈家湾隧道交叉口正南方向1474米左右",
        "tel": "",
        "category": "基础设施:公共设施:公共厕所",
        "type": 0,
        "location": {
            "lat": 30.35843,
            "lng": 118.124368
        },
        "ad_info": {
            "adcode": 341003,
            "province": "安徽省",
            "city": "黄山市",
            "district": "黄山区"
        }
    },
    {
        "id": "10830138434882645931",
        "title": "旅游公共厕所",
        "address": "安徽省黄山市黄山区乌石乡桃源村卫生室东侧150米",
        "tel": "",
        "category": "基础设施:公共设施:公共厕所",
        "type": 0,
        "location": {
            "lat": 30.194869,
            "lng": 117.940346
        },
        "ad_info": {
            "adcode": 341003,
            "province": "安徽省",
            "city": "黄山市",
            "district": "黄山区"
        }
    },
    {
        "id": "9123319711065839399",
        "title": "牯牛降服务区公共厕所",
        "address": "安徽省黄山市祁门县渚口乡黄祁高速公路牯牛降服务区",
        "tel": "",
        "category": "基础设施:公共设施:公共厕所",
        "type": 0,
        "location": {
            "lat": 29.835818,
            "lng": 117.544146
        },
        "ad_info": {
            "adcode": 341024,
            "province": "安徽省",
            "city": "黄山市",
            "district": "祁门县"
        }
    },
    {
        "id": "8534473434798399810",
        "title": "三阳服务区公共厕所",
        "address": "安徽省黄山市歙县S102与杭瑞高速交叉口正北方向93米左右",
        "tel": "",
        "category": "基础设施:公共设施:公共厕所",
        "type": 0,
        "location": {
            "lat": 30.033026,
            "lng": 118.818053
        },
        "ad_info": {
            "adcode": 341021,
            "province": "安徽省",
            "city": "黄山市",
            "district": "歙县"
        }
    },
    {
        "id": "15425163454703517880",
        "title": "文昌路公共厕所",
        "address": "安徽省黄山市休宁县文昌坊与淳化巷交叉口正西方向155米左右",
        "tel": "",
        "category": "基础设施:公共设施:公共厕所",
        "type": 0,
        "location": {
            "lat": 29.78032,
            "lng": 118.185217
        },
        "ad_info": {
            "adcode": 341022,
            "province": "安徽省",
            "city": "黄山市",
            "district": "休宁县"
        }
    },
    {
        "id": "7967874407905134827",
        "title": "齐云山服务区公共厕所",
        "address": "安徽省黄山市休宁县海阳镇黄祁高速公路齐云山服务区",
        "tel": "",
        "category": "基础设施:公共设施:公共厕所",
        "type": 0,
        "location": {
            "lat": 29.751742,
            "lng": 118.137743
        },
        "ad_info": {
            "adcode": 341022,
            "province": "安徽省",
            "city": "黄山市",
            "district": "休宁县"
        }
    },
    {
        "id": "3747188691147787310",
        "title": "叶村公共厕所",
        "address": "安徽省黄山市歙县S347",
        "tel": "",
        "category": "基础设施:公共设施:公共厕所",
        "type": 0,
        "location": {
            "lat": 30.027159,
            "lng": 118.813626
        },
        "ad_info": {
            "adcode": 341021,
            "province": "安徽省",
            "city": "黄山市",
            "district": "歙县"
        }
    },
    {
        "id": "9266846922000560453",
        "title": "公共厕所管理间",
        "address": "安徽省黄山市祁门县御龙湾西北侧200米",
        "tel": "",
        "category": "基础设施:公共设施:公共厕所",
        "type": 0,
        "location": {
            "lat": 29.868349,
            "lng": 117.691984
        },
        "ad_info": {
            "adcode": 341024,
            "province": "安徽省",
            "city": "黄山市",
            "district": "祁门县"
        }
    },
    {
        "id": "8935129748352627066",
        "title": "呈坎服务区公共厕所",
        "address": "安徽省黄山市徽州区呈坎服务区超市(京台高速公路东)",
        "tel": "",
        "category": "基础设施:公共设施:公共厕所",
        "type": 0,
        "location": {
            "lat": 29.934966,
            "lng": 118.287282
        },
        "ad_info": {
            "adcode": 341004,
            "province": "安徽省",
            "city": "黄山市",
            "district": "徽州区"
        }
    },
    {
        "id": "15460540131053802548",
        "title": "呈坎服务区公共厕所",
        "address": "安徽省黄山市徽州区呈坎服务区北(京台高速公路西)",
        "tel": "",
        "category": "基础设施:公共设施:公共厕所",
        "type": 0,
        "location": {
            "lat": 29.934967,
            "lng": 118.285226
        },
        "ad_info": {
            "adcode": 341004,
            "province": "安徽省",
            "city": "黄山市",
            "district": "徽州区"
        }
    },
    {
        "id": "15581462268195200729",
        "title": "公共厕所",
        "address": "安徽省黄山市休宁县松萝路与萝宁街交叉口正北方向93米左右",
        "tel": "",
        "category": "基础设施:公共设施:公共厕所",
        "type": 0,
        "location": {
            "lat": 29.790843,
            "lng": 118.181309
        },
        "ad_info": {
            "adcode": 341022,
            "province": "安徽省",
            "city": "黄山市",
            "district": "休宁县"
        }
    },
    {
        "id": "4638601174054258902",
        "title": "公共厕所",
        "address": "安徽省黄山市黄山区太平东路10号",
        "tel": "",
        "category": "基础设施:公共设施:公共厕所",
        "type": 0,
        "location": {
            "lat": 30.295898,
            "lng": 118.138705
        },
        "ad_info": {
            "adcode": 341003,
            "province": "安徽省",
            "city": "黄山市",
            "district": "黄山区"
        }
    },
    {
        "id": "17174615351247985681",
        "title": "公共厕所",
        "address": "安徽省黄山市休宁县海阳镇中国石化休宁杨村加油站",
        "tel": "",
        "category": "基础设施:公共设施:公共厕所",
        "type": 0,
        "location": {
            "lat": 29.785835,
            "lng": 118.153289
        },
        "ad_info": {
            "adcode": 341022,
            "province": "安徽省",
            "city": "黄山市",
            "district": "休宁县"
        }
    },
    {
        "id": "7971413722599925613",
        "title": "黄山白云宾馆洗手间",
        "address": "安徽省黄山市黄山区黄山风景区白云宾馆内",
        "tel": "",
        "category": "基础设施:公共设施:公共厕所",
        "type": 0,
        "location": {
            "lat": 30.130096,
            "lng": 118.168355
        },
        "ad_info": {
            "adcode": 341003,
            "province": "安徽省",
            "city": "黄山市",
            "district": "黄山区"
        }
    },
    {
        "id": "16011728014091166314",
        "title": "公共厕所",
        "address": "安徽省黄山市徽州区G233与永佳大道交叉口西南方向160米左右",
        "tel": "",
        "category": "基础设施:公共设施:公共厕所",
        "type": 0,
        "location": {
            "lat": 29.83744,
            "lng": 118.364318
        },
        "ad_info": {
            "adcode": 341004,
            "province": "安徽省",
            "city": "黄山市",
            "district": "徽州区"
        }
    },
    {
        "id": "9531354105237913155",
        "title": "公共厕所",
        "address": "安徽省黄山市黄山区清溪路41号",
        "tel": "",
        "category": "基础设施:公共设施:公共厕所",
        "type": 0,
        "location": {
            "lat": 30.291376,
            "lng": 118.134721
        },
        "ad_info": {
            "adcode": 341003,
            "province": "安徽省",
            "city": "黄山市",
            "district": "黄山区"
        }
    },
    {
        "id": "14018481344319797133",
        "title": "公共厕所",
        "address": "安徽省黄山市屯溪区X045与机场大道交叉口西北方向236米左右",
        "tel": "",
        "category": "基础设施:公共设施:公共厕所",
        "type": 0,
        "location": {
            "lat": 29.726571,
            "lng": 118.261911
        },
        "ad_info": {
            "adcode": 341002,
            "province": "安徽省",
            "city": "黄山市",
            "district": "屯溪区"
        }
    },
    {
        "id": "12606565848562204275",
        "title": "公共厕所",
        "address": "安徽省黄山市徽州区捷达路与永佳大道交叉口正东方向65米左右",
        "tel": "",
        "category": "基础设施:公共设施:公共厕所",
        "type": 0,
        "location": {
            "lat": 29.829967,
            "lng": 118.354917
        },
        "ad_info": {
            "adcode": 341004,
            "province": "安徽省",
            "city": "黄山市",
            "district": "徽州区"
        }
    },
    {
        "id": "5732697103951445586",
        "title": "公共厕所",
        "address": "安徽省黄山市歙县S348与歙州大道交叉口正西方向234米左右",
        "tel": "",
        "category": "基础设施:公共设施:公共厕所",
        "type": 0,
        "location": {
            "lat": 29.854566,
            "lng": 118.40948
        },
        "ad_info": {
            "adcode": 341021,
            "province": "安徽省",
            "city": "黄山市",
            "district": "歙县"
        }
    },
    {
        "id": "2118464551334979981",
        "title": "公共厕所",
        "address": "安徽省黄山市屯溪区戴震路与西镇街交叉口正南方向63米左右",
        "tel": "",
        "category": "基础设施:公共设施:公共厕所",
        "type": 0,
        "location": {
            "lat": 29.707107,
            "lng": 118.29983
        },
        "ad_info": {
            "adcode": 341002,
            "province": "安徽省",
            "city": "黄山市",
            "district": "屯溪区"
        }
    },
    {
        "id": "3746798228592320097",
        "title": "公共厕所",
        "address": "安徽省黄山市黟县沿河东路与碧阳大道交叉口正东方向181米左右",
        "tel": "",
        "category": "基础设施:公共设施:公共厕所",
        "type": 0,
        "location": {
            "lat": 29.924275,
            "lng": 117.945979
        },
        "ad_info": {
            "adcode": 341023,
            "province": "安徽省",
            "city": "黄山市",
            "district": "黟县"
        }
    },
    {
        "id": "14415975248570582333",
        "title": "公共厕所",
        "address": "安徽省黄山市黟县下东街与北街交叉口正南方向107米左右",
        "tel": "",
        "category": "基础设施:公共设施:公共厕所",
        "type": 0,
        "location": {
            "lat": 29.92531,
            "lng": 117.940382
        },
        "ad_info": {
            "adcode": 341023,
            "province": "安徽省",
            "city": "黄山市",
            "district": "黟县"
        }
    },
    {
        "id": "8339995793500300867",
        "title": "肯德基(黄山新园路餐厅)-洗手间",
        "address": "安徽省黄山市屯溪区新黄山商业步行街与跃进路交叉口西南方向28米左右",
        "tel": "",
        "category": "基础设施:公共设施:公共厕所",
        "type": 0,
        "location": {
            "lat": 29.70912,
            "lng": 118.32116
        },
        "ad_info": {
            "adcode": 341002,
            "province": "安徽省",
            "city": "黄山市",
            "district": "屯溪区"
        }
    },
    {
        "id": "10496671996615188431",
        "title": "公共厕所",
        "address": "安徽省黄山市屯溪区桑园街与滨江东路交叉口正北方向211米左右",
        "tel": "",
        "category": "基础设施:公共设施:公共厕所",
        "type": 0,
        "location": {
            "lat": 29.732334,
            "lng": 118.356828
        },
        "ad_info": {
            "adcode": 341002,
            "province": "安徽省",
            "city": "黄山市",
            "district": "屯溪区"
        }
    },
    {
        "id": "324845838724332703",
        "title": "公共厕所",
        "address": "安徽省黄山市屯溪区G56杭瑞高速与G56杭瑞高速入口交叉口东北480米",
        "tel": "",
        "category": "基础设施:公共设施:公共厕所",
        "type": 0,
        "location": {
            "lat": 29.688273,
            "lng": 118.301057
        },
        "ad_info": {
            "adcode": 341002,
            "province": "安徽省",
            "city": "黄山市",
            "district": "屯溪区"
        }
    },
    {
        "id": "10927342314092886380",
        "title": "公共厕所",
        "address": "安徽省黄山市歙县朱陈中心小学西侧280米",
        "tel": "",
        "category": "基础设施:公共设施:公共厕所",
        "type": 0,
        "location": {
            "lat": 29.703143,
            "lng": 118.470114
        },
        "ad_info": {
            "adcode": 341021,
            "province": "安徽省",
            "city": "黄山市",
            "district": "歙县"
        }
    },
    {
        "id": "4012844989402123218",
        "title": "公共厕所",
        "address": "安徽省黄山市祁门县S226与X025交叉口正南方向1285米左右",
        "tel": "",
        "category": "基础设施:公共设施:公共厕所",
        "type": 0,
        "location": {
            "lat": 29.691811,
            "lng": 117.512391
        },
        "ad_info": {
            "adcode": 341024,
            "province": "安徽省",
            "city": "黄山市",
            "district": "祁门县"
        }
    },
    {
        "id": "4165158915795943886",
        "title": "黄山同聚楼新安宴大酒店-洗手间",
        "address": "安徽省黄山市屯溪区长干东路165号",
        "tel": "",
        "category": "基础设施:公共设施:公共厕所",
        "type": 0,
        "location": {
            "lat": 29.712696,
            "lng": 118.334868
        },
        "ad_info": {
            "adcode": 341002,
            "province": "安徽省",
            "city": "黄山市",
            "district": "屯溪区"
        }
    },
    {
        "id": "4789574173816634782",
        "title": "公共厕所",
        "address": "安徽省黄山市歙县中和街与城东路交叉口正南方向40米左右",
        "tel": "",
        "category": "基础设施:公共设施:公共厕所",
        "type": 0,
        "location": {
            "lat": 29.866063,
            "lng": 118.440149
        },
        "ad_info": {
            "adcode": 341021,
            "province": "安徽省",
            "city": "黄山市",
            "district": "歙县"
        }
    },
    {
        "id": "16178326579759494900",
        "title": "公共厕所",
        "address": "安徽省黄山市祁门县Y023与箬历公路交叉口东南方向214米左右",
        "tel": "",
        "category": "基础设施:公共设施:公共厕所",
        "type": 0,
        "location": {
            "lat": 29.979871,
            "lng": 117.498522
        },
        "ad_info": {
            "adcode": 341024,
            "province": "安徽省",
            "city": "黄山市",
            "district": "祁门县"
        }
    },
    {
        "id": "543880345782593452",
        "title": "旅游公厕",
        "address": "安徽省黄山市黄山区205国道",
        "tel": "",
        "category": "基础设施:公共设施:公共厕所",
        "type": 0,
        "location": {
            "lat": 30.122533,
            "lng": 118.17546
        },
        "ad_info": {
            "adcode": 341003,
            "province": "安徽省",
            "city": "黄山市",
            "district": "黄山区"
        }
    },
    {
        "id": "343233285005653981",
        "title": "金村公厕",
        "address": "安徽省黄山市歙县X012",
        "tel": "",
        "category": "基础设施:公共设施:公共厕所",
        "type": 0,
        "location": {
            "lat": 29.884205,
            "lng": 118.722642
        },
        "ad_info": {
            "adcode": 341021,
            "province": "安徽省",
            "city": "黄山市",
            "district": "歙县"
        }
    },
    {
        "id": "16464686640711727397",
        "title": "徽州古城服务区公共厕所",
        "address": "安徽省黄山市歙县雄村乡杭瑞高速公路朱村服务区",
        "tel": "",
        "category": "基础设施:公共设施:公共厕所",
        "type": 0,
        "location": {
            "lat": 29.825635,
            "lng": 118.45307
        },
        "ad_info": {
            "adcode": 341021,
            "province": "安徽省",
            "city": "黄山市",
            "district": "歙县"
        }
    },
    {
        "id": "9875691080349586538",
        "title": "公共厕所",
        "address": "安徽省黄山市休宁县237国道与G56杭瑞高速出口交叉口北80米",
        "tel": "",
        "category": "基础设施:公共设施:公共厕所",
        "type": 0,
        "location": {
            "lat": 29.494418,
            "lng": 118.158522
        },
        "ad_info": {
            "adcode": 341022,
            "province": "安徽省",
            "city": "黄山市",
            "district": "休宁县"
        }
    },
    {
        "id": "13231059942419536297",
        "title": "公共厕所",
        "address": "安徽省黄山市徽州区环城北路与环城西路交叉口东南方向253米左右",
        "tel": "",
        "category": "基础设施:公共设施:公共厕所",
        "type": 0,
        "location": {
            "lat": 29.828448,
            "lng": 118.332612
        },
        "ad_info": {
            "adcode": 341004,
            "province": "安徽省",
            "city": "黄山市",
            "district": "徽州区"
        }
    },
    {
        "id": "15330084539400175706",
        "title": "公共厕所",
        "address": "安徽省黄山市屯溪区天都大道与滨江东路交叉口东南方向99米左右",
        "tel": "",
        "category": "基础设施:公共设施:公共厕所",
        "type": 0,
        "location": {
            "lat": 29.714033,
            "lng": 118.340301
        },
        "ad_info": {
            "adcode": 341002,
            "province": "安徽省",
            "city": "黄山市",
            "district": "屯溪区"
        }
    },
    {
        "id": "8412160325329610155",
        "title": "公共厕所",
        "address": "安徽省黄山市黟县S326与红花滩交叉口正东方向41米左右",
        "tel": "",
        "category": "基础设施:公共设施:公共厕所",
        "type": 0,
        "location": {
            "lat": 29.829094,
            "lng": 117.998949
        },
        "ad_info": {
            "adcode": 341023,
            "province": "安徽省",
            "city": "黄山市",
            "district": "黟县"
        }
    },
    {
        "id": "14182820949536124028",
        "title": "公共厕所",
        "address": "安徽省黄山市黄山区太平东路与平湖东路交叉口东北方向52米左右",
        "tel": "",
        "category": "基础设施:公共设施:公共厕所",
        "type": 0,
        "location": {
            "lat": 30.295462,
            "lng": 118.148106
        },
        "ad_info": {
            "adcode": 341003,
            "province": "安徽省",
            "city": "黄山市",
            "district": "黄山区"
        }
    },
    {
        "id": "17250750982061198578",
        "title": "周家村村公厕",
        "address": "安徽省黄山市歙县X012",
        "tel": "",
        "category": "基础设施:公共设施:公共厕所",
        "type": 0,
        "location": {
            "lat": 29.882612,
            "lng": 118.746374
        },
        "ad_info": {
            "adcode": 341021,
            "province": "安徽省",
            "city": "黄山市",
            "district": "歙县"
        }
    },
    {
        "id": "13486195947992006567",
        "title": "公共厕所",
        "address": "安徽省黄山市徽州区S103与百米桥交叉口正西方向1852米左右",
        "tel": "",
        "category": "基础设施:公共设施:公共厕所",
        "type": 0,
        "location": {
            "lat": 30.007228,
            "lng": 118.15939
        },
        "ad_info": {
            "adcode": 341004,
            "province": "安徽省",
            "city": "黄山市",
            "district": "徽州区"
        }
    },
    {
        "id": "16742230922403294292",
        "title": "公共厕所",
        "address": "安徽省黄山市屯溪区梅林南路与迎宾大道交叉口正西方向173米左右",
        "tel": "",
        "category": "基础设施:公共设施:公共厕所",
        "type": 0,
        "location": {
            "lat": 29.718837,
            "lng": 118.274281
        },
        "ad_info": {
            "adcode": 341002,
            "province": "安徽省",
            "city": "黄山市",
            "district": "屯溪区"
        }
    },
    {
        "id": "13913056528004743361",
        "title": "公共厕所",
        "address": "安徽省黄山市屯溪区清凉峰路与齐云大道交叉口西北方向400米左右",
        "tel": "",
        "category": "基础设施:公共设施:公共厕所",
        "type": 0,
        "location": {
            "lat": 29.76408,
            "lng": 118.246706
        },
        "ad_info": {
            "adcode": 341002,
            "province": "安徽省",
            "city": "黄山市",
            "district": "屯溪区"
        }
    },
    {
        "id": "3069599236438791464",
        "title": "公共厕所(红光村村史馆)",
        "address": "安徽省黄山市黟县S222与X033交叉口东南方向848米左右",
        "tel": "",
        "category": "基础设施:公共设施:公共厕所",
        "type": 0,
        "location": {
            "lat": 29.996179,
            "lng": 117.852921
        },
        "ad_info": {
            "adcode": 341023,
            "province": "安徽省",
            "city": "黄山市",
            "district": "黟县"
        }
    },
    {
        "id": "7922914876886418855",
        "title": "琳村公厕",
        "address": "安徽省黄山市歙县昌歙线",
        "tel": "",
        "category": "基础设施:公共设施:公共厕所",
        "type": 0,
        "location": {
            "lat": 29.855508,
            "lng": 118.459271
        },
        "ad_info": {
            "adcode": 341021,
            "province": "安徽省",
            "city": "黄山市",
            "district": "歙县"
        }
    },
    {
        "id": "11348958147627903911",
        "title": "公共厕所",
        "address": "安徽省黄山市黄山区新三路",
        "tel": "",
        "category": "基础设施:公共设施:公共厕所",
        "type": 0,
        "location": {
            "lat": 30.260959,
            "lng": 118.211857
        },
        "ad_info": {
            "adcode": 341003,
            "province": "安徽省",
            "city": "黄山市",
            "district": "黄山区"
        }
    },
    {
        "id": "1253370942439349522",
        "title": "长标口旅游公厕",
        "address": "安徽省黄山市歙县X001",
        "tel": "",
        "category": "基础设施:公共设施:公共厕所",
        "type": 0,
        "location": {
            "lat": 29.693108,
            "lng": 118.586314
        },
        "ad_info": {
            "adcode": 341021,
            "province": "安徽省",
            "city": "黄山市",
            "district": "歙县"
        }
    },
    {
        "id": "3192567228312578332",
        "title": "太平湖停车区公共厕所",
        "address": "安徽省黄山市黄山区G3京台高速入口与330国道交叉口西南120米",
        "tel": "",
        "category": "基础设施:公共设施:公共厕所",
        "type": 0,
        "location": {
            "lat": 30.321814,
            "lng": 117.981409
        },
        "ad_info": {
            "adcode": 341003,
            "province": "安徽省",
            "city": "黄山市",
            "district": "黄山区"
        }
    },
    {
        "id": "14574591480558369890",
        "title": "公共厕所",
        "address": "安徽省黄山市屯溪区京徽·翡翠滨江西北侧120米",
        "tel": "",
        "category": "基础设施:公共设施:公共厕所",
        "type": 0,
        "location": {
            "lat": 29.702682,
            "lng": 118.327055
        },
        "ad_info": {
            "adcode": 341002,
            "province": "安徽省",
            "city": "黄山市",
            "district": "屯溪区"
        }
    },
    {
        "id": "13855091456471768480",
        "title": "公共厕所",
        "address": "安徽省黄山市黟县S222与X033交叉口正东方向778米左右",
        "tel": "",
        "category": "基础设施:公共设施:公共厕所",
        "type": 0,
        "location": {
            "lat": 29.997264,
            "lng": 117.85265
        },
        "ad_info": {
            "adcode": 341023,
            "province": "安徽省",
            "city": "黄山市",
            "district": "黟县"
        }
    },
    {
        "id": "10960493280809283764",
        "title": "公共厕所",
        "address": "安徽省黄山市歙县扬之五路与歙州大道交叉口正南方向68米左右",
        "tel": "",
        "category": "基础设施:公共设施:公共厕所",
        "type": 0,
        "location": {
            "lat": 29.881029,
            "lng": 118.452305
        },
        "ad_info": {
            "adcode": 341021,
            "province": "安徽省",
            "city": "黄山市",
            "district": "歙县"
        }
    },
    {
        "id": "13609362012045754952",
        "title": "公共厕所",
        "address": "安徽省黄山市黄山区205国道",
        "tel": "",
        "category": "基础设施:公共设施:公共厕所",
        "type": 0,
        "location": {
            "lat": 30.124536,
            "lng": 118.170702
        },
        "ad_info": {
            "adcode": 341003,
            "province": "安徽省",
            "city": "黄山市",
            "district": "黄山区"
        }
    },
    {
        "id": "14300450782814417458",
        "title": "公共厕所",
        "address": "安徽省黄山市黟县宏村滑翔机三角翼飞机航空飞行营地西南侧",
        "tel": "",
        "category": "基础设施:公共设施:公共厕所",
        "type": 0,
        "location": {
            "lat": 30.018119,
            "lng": 117.991264
        },
        "ad_info": {
            "adcode": 341023,
            "province": "安徽省",
            "city": "黄山市",
            "district": "黟县"
        }
    },
    {
        "id": "12758198980225795965",
        "title": "公共厕所",
        "address": "安徽省黄山市歙县新安路与紫云路交叉口东北方向124米左右",
        "tel": "",
        "category": "基础设施:公共设施:公共厕所",
        "type": 0,
        "location": {
            "lat": 29.866109,
            "lng": 118.411947
        },
        "ad_info": {
            "adcode": 341021,
            "province": "安徽省",
            "city": "黄山市",
            "district": "歙县"
        }
    },
    {
        "id": "11180339210759938767",
        "title": "公共厕所",
        "address": "安徽省黄山市休宁县塔山巷与玉宁街交叉口东北方向73米左右",
        "tel": "",
        "category": "基础设施:公共设施:公共厕所",
        "type": 0,
        "location": {
            "lat": 29.774029,
            "lng": 118.184484
        },
        "ad_info": {
            "adcode": 341022,
            "province": "安徽省",
            "city": "黄山市",
            "district": "休宁县"
        }
    },
    {
        "id": "18183876184687906955",
        "title": "公共厕所",
        "address": "安徽省黄山市徽州区Y046与滨河北路交叉口正北方向18米左右",
        "tel": "",
        "category": "基础设施:公共设施:公共厕所",
        "type": 0,
        "location": {
            "lat": 29.82723,
            "lng": 118.31637
        },
        "ad_info": {
            "adcode": 341004,
            "province": "安徽省",
            "city": "黄山市",
            "district": "徽州区"
        }
    },
    {
        "id": "16545419091665796586",
        "title": "齐云山服务区公共厕所",
        "address": "安徽省黄山市休宁县海阳镇黄祁高速公路齐云山服务区",
        "tel": "",
        "category": "基础设施:公共设施:公共厕所",
        "type": 0,
        "location": {
            "lat": 29.751133,
            "lng": 118.131109
        },
        "ad_info": {
            "adcode": 341022,
            "province": "安徽省",
            "city": "黄山市",
            "district": "休宁县"
        }
    },
    {
        "id": "2141253198906977666",
        "title": "公共厕所(金家岭村)",
        "address": "安徽省黄山市黟县金家岭村村委会公共厕所",
        "tel": "",
        "category": "基础设施:公共设施:公共厕所",
        "type": 0,
        "location": {
            "lat": 29.949353,
            "lng": 117.987818
        },
        "ad_info": {
            "adcode": 341023,
            "province": "安徽省",
            "city": "黄山市",
            "district": "黟县"
        }
    },
    {
        "id": "4481114995038682180",
        "title": "旅游厕所",
        "address": "安徽省黄山市黄山区Z104与揽胜桥交叉口正西方向524米左右",
        "tel": "",
        "category": "基础设施:公共设施:公共厕所",
        "type": 0,
        "location": {
            "lat": 30.100606,
            "lng": 118.171058
        },
        "ad_info": {
            "adcode": 341003,
            "province": "安徽省",
            "city": "黄山市",
            "district": "黄山区"
        }
    },
    {
        "id": "13035318300692341503",
        "title": "公共厕所",
        "address": "安徽省黄山市歙县石潭景区西南侧280米",
        "tel": "",
        "category": "基础设施:公共设施:公共厕所",
        "type": 0,
        "location": {
            "lat": 29.93278,
            "lng": 118.667591
        },
        "ad_info": {
            "adcode": 341021,
            "province": "安徽省",
            "city": "黄山市",
            "district": "歙县"
        }
    },
    {
        "id": "13618603176853165543",
        "title": "公共厕所",
        "address": "安徽省黄山市屯溪区率水路7号",
        "tel": "",
        "category": "基础设施:公共设施:公共厕所",
        "type": 0,
        "location": {
            "lat": 29.706833,
            "lng": 118.29865
        },
        "ad_info": {
            "adcode": 341002,
            "province": "安徽省",
            "city": "黄山市",
            "district": "屯溪区"
        }
    },
    {
        "id": "6841335174615072648",
        "title": "三阳服务区公共厕所",
        "address": "安徽省黄山市歙县杭瑞高速(三阳停车区)",
        "tel": "",
        "category": "基础设施:公共设施:公共厕所",
        "type": 0,
        "location": {
            "lat": 30.032942,
            "lng": 118.819745
        },
        "ad_info": {
            "adcode": 341021,
            "province": "安徽省",
            "city": "黄山市",
            "district": "歙县"
        }
    },
    {
        "id": "12825020056523213482",
        "title": "公共厕所",
        "address": "安徽省黄山市徽州区二环路与永兴一路交叉口西南方向82米左右",
        "tel": "",
        "category": "基础设施:公共设施:公共厕所",
        "type": 0,
        "location": {
            "lat": 29.835363,
            "lng": 118.316094
        },
        "ad_info": {
            "adcode": 341004,
            "province": "安徽省",
            "city": "黄山市",
            "district": "徽州区"
        }
    },
    {
        "id": "867367903162250570",
        "title": "太平湖停车区公共厕所",
        "address": "安徽省黄山市黄山区G330与S219交叉口西南方向1515米左右",
        "tel": "",
        "category": "基础设施:公共设施:公共厕所",
        "type": 0,
        "location": {
            "lat": 30.319751,
            "lng": 117.981818
        },
        "ad_info": {
            "adcode": 341003,
            "province": "安徽省",
            "city": "黄山市",
            "district": "黄山区"
        }
    },
    {
        "id": "12582525044474089144",
        "title": "公共厕所",
        "address": "安徽省黄山市黄山区S217与Y044交叉口正南方向1746米左右",
        "tel": "",
        "category": "基础设施:公共设施:公共厕所",
        "type": 0,
        "location": {
            "lat": 30.218333,
            "lng": 118.148677
        },
        "ad_info": {
            "adcode": 341003,
            "province": "安徽省",
            "city": "黄山市",
            "district": "黄山区"
        }
    },
    {
        "id": "17395902359018328963",
        "title": "公共厕所",
        "address": "安徽省黄山市休宁县蓝田路中国石化(岩休公路)",
        "tel": "",
        "category": "基础设施:公共设施:公共厕所",
        "type": 0,
        "location": {
            "lat": 29.791359,
            "lng": 118.198404
        },
        "ad_info": {
            "adcode": 341022,
            "province": "安徽省",
            "city": "黄山市",
            "district": "休宁县"
        }
    },
    {
        "id": "5303111359906905176",
        "title": "公共厕所",
        "address": "安徽省黄山市徽州区富饶路与环城北路交叉口正南方向66米左右",
        "tel": "",
        "category": "基础设施:公共设施:公共厕所",
        "type": 0,
        "location": {
            "lat": 29.83069,
            "lng": 118.34328
        },
        "ad_info": {
            "adcode": 341004,
            "province": "安徽省",
            "city": "黄山市",
            "district": "徽州区"
        }
    },
    {
        "id": "11578867567339723003",
        "title": "公共厕所",
        "address": "安徽省黄山市休宁县率水东路与黄山南路交叉口西北方向44米左右",
        "tel": "",
        "category": "基础设施:公共设施:公共厕所",
        "type": 0,
        "location": {
            "lat": 29.7882,
            "lng": 118.194623
        },
        "ad_info": {
            "adcode": 341022,
            "province": "安徽省",
            "city": "黄山市",
            "district": "休宁县"
        }
    },
    {
        "id": "15750067980556731441",
        "title": "公共厕所",
        "address": "安徽省黄山市祁门县祁山路与阊江北路交叉口正南方向63米左右",
        "tel": "",
        "category": "基础设施:公共设施:公共厕所",
        "type": 0,
        "location": {
            "lat": 29.856722,
            "lng": 117.720274
        },
        "ad_info": {
            "adcode": 341024,
            "province": "安徽省",
            "city": "黄山市",
            "district": "祁门县"
        }
    },
    {
        "id": "13769254751608671660",
        "title": "黄山歙县饭店-洗手间",
        "address": "安徽省黄山市歙县紫薇路5号",
        "tel": "",
        "category": "基础设施:公共设施:公共厕所",
        "type": 0,
        "location": {
            "lat": 29.865856,
            "lng": 118.425335
        },
        "ad_info": {
            "adcode": 341021,
            "province": "安徽省",
            "city": "黄山市",
            "district": "歙县"
        }
    },
    {
        "id": "15090405180082844249",
        "title": "大梅口村公厕",
        "address": "安徽省黄山市歙县G56",
        "tel": "",
        "category": "基础设施:公共设施:公共厕所",
        "type": 0,
        "location": {
            "lat": 29.846794,
            "lng": 118.488742
        },
        "ad_info": {
            "adcode": 341021,
            "province": "安徽省",
            "city": "黄山市",
            "district": "歙县"
        }
    },
    {
        "id": "6950389991555014966",
        "title": "岔口村公厕",
        "address": "安徽省黄山市歙县X012",
        "tel": "",
        "category": "基础设施:公共设施:公共厕所",
        "type": 0,
        "location": {
            "lat": 29.883064,
            "lng": 118.706211
        },
        "ad_info": {
            "adcode": 341021,
            "province": "安徽省",
            "city": "黄山市",
            "district": "歙县"
        }
    },
    {
        "id": "12619487012790231671",
        "title": "深渡服务区公共厕所",
        "address": "安徽省黄山市歙县深渡服务区与G4012溧宁高速交叉口东北180米",
        "tel": "",
        "category": "基础设施:公共设施:公共厕所",
        "type": 0,
        "location": {
            "lat": 29.873182,
            "lng": 118.61728
        },
        "ad_info": {
            "adcode": 341021,
            "province": "安徽省",
            "city": "黄山市",
            "district": "歙县"
        }
    },
    {
        "id": "6772789321834805767",
        "title": "公共厕所",
        "address": "安徽省黄山市黄山区太平东路与平湖东路交叉口东北方向88米左右",
        "tel": "",
        "category": "基础设施:公共设施:公共厕所",
        "type": 0,
        "location": {
            "lat": 30.29569,
            "lng": 118.148364
        },
        "ad_info": {
            "adcode": 341003,
            "province": "安徽省",
            "city": "黄山市",
            "district": "黄山区"
        }
    },
    {
        "id": "9647179399144799696",
        "title": "旅游厕所",
        "address": "安徽省黄山市徽州区蜀源优云谷景区东南侧140米",
        "tel": "",
        "category": "基础设施:公共设施:公共厕所",
        "type": 0,
        "location": {
            "lat": 29.905688,
            "lng": 118.337484
        },
        "ad_info": {
            "adcode": 341004,
            "province": "安徽省",
            "city": "黄山市",
            "district": "徽州区"
        }
    },
    {
        "id": "2405887680577400097",
        "title": "公共厕所",
        "address": "安徽省黄山市休宁县玉宁街7号",
        "tel": "",
        "category": "基础设施:公共设施:公共厕所",
        "type": 0,
        "location": {
            "lat": 29.781699,
            "lng": 118.182546
        },
        "ad_info": {
            "adcode": 341022,
            "province": "安徽省",
            "city": "黄山市",
            "district": "休宁县"
        }
    },
    {
        "id": "2478044619692809291",
        "title": "旅游公共厕所",
        "address": "安徽省黄山市黟县沿河东路与翼然东路交叉口正南方向106米左右",
        "tel": "",
        "category": "基础设施:公共设施:公共厕所",
        "type": 0,
        "location": {
            "lat": 29.92118,
            "lng": 117.951459
        },
        "ad_info": {
            "adcode": 341023,
            "province": "安徽省",
            "city": "黄山市",
            "district": "黟县"
        }
    },
    {
        "id": "11242771211381769690",
        "title": "公共厕所",
        "address": "安徽省黄山市徽州区前街与塘鸭路交叉口正南方向251米左右",
        "tel": "",
        "category": "基础设施:公共设施:公共厕所",
        "type": 0,
        "location": {
            "lat": 29.864584,
            "lng": 118.300299
        },
        "ad_info": {
            "adcode": 341004,
            "province": "安徽省",
            "city": "黄山市",
            "district": "徽州区"
        }
    },
    {
        "id": "598338742615875064",
        "title": "公共厕所",
        "address": "安徽省黄山市黄山区浦溪路冠东服饰斜对面",
        "tel": "",
        "category": "基础设施:公共设施:公共厕所",
        "type": 0,
        "location": {
            "lat": 30.283044,
            "lng": 118.127578
        },
        "ad_info": {
            "adcode": 341003,
            "province": "安徽省",
            "city": "黄山市",
            "district": "黄山区"
        }
    },
    {
        "id": "18134422096627998427",
        "title": "公共厕所",
        "address": "安徽省黄山市屯溪区天都大道与新园东路交叉口正北方向159米左右",
        "tel": "",
        "category": "基础设施:公共设施:公共厕所",
        "type": 0,
        "location": {
            "lat": 29.71921,
            "lng": 118.337864
        },
        "ad_info": {
            "adcode": 341002,
            "province": "安徽省",
            "city": "黄山市",
            "district": "屯溪区"
        }
    },
    {
        "id": "17147903274183569336",
        "title": "公共厕所(AH-HS-0456)",
        "address": "安徽省黄山市黄山区黄山风景区内",
        "tel": "",
        "category": "基础设施:公共设施:公共厕所",
        "type": 0,
        "location": {
            "lat": 30.130188,
            "lng": 118.16776
        },
        "ad_info": {
            "adcode": 341003,
            "province": "安徽省",
            "city": "黄山市",
            "district": "黄山区"
        }
    },
    {
        "id": "10050007709846912889",
        "title": "徽州古城-公共厕所",
        "address": "安徽省黄山市歙县红旗路12号",
        "tel": "",
        "category": "基础设施:公共设施:公共厕所",
        "type": 0,
        "location": {
            "lat": 29.861242,
            "lng": 118.437889
        },
        "ad_info": {
            "adcode": 341021,
            "province": "安徽省",
            "city": "黄山市",
            "district": "歙县"
        }
    },
    {
        "id": "11514821117458056501",
        "title": "天路旅游公厕",
        "address": "安徽省黄山市歙县X049",
        "tel": "",
        "category": "基础设施:公共设施:公共厕所",
        "type": 0,
        "location": {
            "lat": 29.630661,
            "lng": 118.507786
        },
        "ad_info": {
            "adcode": 341021,
            "province": "安徽省",
            "city": "黄山市",
            "district": "歙县"
        }
    },
    {
        "id": "11366444162370700333",
        "title": "公共厕所",
        "address": "安徽省黄山市休宁县苏家巷与萝宁街交叉口正西方向110米左右",
        "tel": "",
        "category": "基础设施:公共设施:公共厕所",
        "type": 0,
        "location": {
            "lat": 29.784625,
            "lng": 118.181319
        },
        "ad_info": {
            "adcode": 341022,
            "province": "安徽省",
            "city": "黄山市",
            "district": "休宁县"
        }
    },
    {
        "id": "8702845417826205237",
        "title": "公共厕所",
        "address": "安徽省黄山市休宁县文昌坊与玉宁街交叉口正东方向199米左右",
        "tel": "",
        "category": "基础设施:公共设施:公共厕所",
        "type": 0,
        "location": {
            "lat": 29.77928,
            "lng": 118.185089
        },
        "ad_info": {
            "adcode": 341022,
            "province": "安徽省",
            "city": "黄山市",
            "district": "休宁县"
        }
    },
    {
        "id": "12194661860327345701",
        "title": "公共厕所",
        "address": "安徽省黄山市休宁县登封街17号",
        "tel": "",
        "category": "基础设施:公共设施:公共厕所",
        "type": 0,
        "location": {
            "lat": 29.818025,
            "lng": 118.049499
        },
        "ad_info": {
            "adcode": 341022,
            "province": "安徽省",
            "city": "黄山市",
            "district": "休宁县"
        }
    },
    {
        "id": "6013346113614086234",
        "title": "黄山公共厕所",
        "address": "安徽省黄山市黄山区汤口镇黄山风景区中心光明顶下天海",
        "tel": "",
        "category": "基础设施:公共设施:公共厕所",
        "type": 0,
        "location": {
            "lat": 30.084203,
            "lng": 118.196142
        },
        "ad_info": {
            "adcode": 341003,
            "province": "安徽省",
            "city": "黄山市",
            "district": "黄山区"
        }
    },
    {
        "id": "10584448569193516821",
        "title": "公共厕所",
        "address": "安徽省黄山市歙县百花路59号",
        "tel": "",
        "category": "基础设施:公共设施:公共厕所",
        "type": 0,
        "location": {
            "lat": 29.864664,
            "lng": 118.412787
        },
        "ad_info": {
            "adcode": 341021,
            "province": "安徽省",
            "city": "黄山市",
            "district": "歙县"
        }
    },
    {
        "id": "12570888327676509575",
        "title": "公共厕所",
        "address": "安徽省黄山市黟县Y090与西屏路交叉口正南方向556米左右",
        "tel": "",
        "category": "基础设施:公共设施:公共厕所",
        "type": 0,
        "location": {
            "lat": 29.893855,
            "lng": 117.885498
        },
        "ad_info": {
            "adcode": 341023,
            "province": "安徽省",
            "city": "黄山市",
            "district": "黟县"
        }
    },
    {
        "id": "2636286117276867783",
        "title": "公共厕所",
        "address": "安徽省黄山市屯溪区桑园街与滨江东路交叉口西北方向150米左右",
        "tel": "",
        "category": "基础设施:公共设施:公共厕所",
        "type": 0,
        "location": {
            "lat": 29.731344,
            "lng": 118.355269
        },
        "ad_info": {
            "adcode": 341002,
            "province": "安徽省",
            "city": "黄山市",
            "district": "屯溪区"
        }
    },
    {
        "id": "5282927876801177429",
        "title": "公共厕所",
        "address": "安徽省黄山市祁门县S326与梅城大道交叉口正东方向128米左右",
        "tel": "",
        "category": "基础设施:公共设施:公共厕所",
        "type": 0,
        "location": {
            "lat": 29.851076,
            "lng": 117.697489
        },
        "ad_info": {
            "adcode": 341024,
            "province": "安徽省",
            "city": "黄山市",
            "district": "祁门县"
        }
    },
    {
        "id": "14026534262560854089",
        "title": "公共厕所",
        "address": "安徽省黄山市徽州区文峰路徽州新时代商贸广场",
        "tel": "",
        "category": "基础设施:公共设施:公共厕所",
        "type": 0,
        "location": {
            "lat": 29.826706,
            "lng": 118.348695
        },
        "ad_info": {
            "adcode": 341004,
            "province": "安徽省",
            "city": "黄山市",
            "district": "徽州区"
        }
    },
    {
        "id": "12619487012790231671",
        "title": "深渡服务区公共厕所",
        "address": "安徽省黄山市歙县深渡服务区与G4012溧宁高速交叉口东北180米",
        "tel": "",
        "category": "基础设施:公共设施:公共厕所",
        "type": 0,
        "location": {
            "lat": 29.873182,
            "lng": 118.61728
        },
        "ad_info": {
            "adcode": 341021,
            "province": "安徽省",
            "city": "黄山市",
            "district": "歙县"
        }
    },
    {
        "id": "6772789321834805767",
        "title": "公共厕所",
        "address": "安徽省黄山市黄山区太平东路与平湖东路交叉口东北方向88米左右",
        "tel": "",
        "category": "基础设施:公共设施:公共厕所",
        "type": 0,
        "location": {
            "lat": 30.29569,
            "lng": 118.148364
        },
        "ad_info": {
            "adcode": 341003,
            "province": "安徽省",
            "city": "黄山市",
            "district": "黄山区"
        }
    },
    {
        "id": "9647179399144799696",
        "title": "旅游厕所",
        "address": "安徽省黄山市徽州区蜀源优云谷景区东南侧140米",
        "tel": "",
        "category": "基础设施:公共设施:公共厕所",
        "type": 0,
        "location": {
            "lat": 29.905688,
            "lng": 118.337484
        },
        "ad_info": {
            "adcode": 341004,
            "province": "安徽省",
            "city": "黄山市",
            "district": "徽州区"
        }
    },
    {
        "id": "2405887680577400097",
        "title": "公共厕所",
        "address": "安徽省黄山市休宁县玉宁街7号",
        "tel": "",
        "category": "基础设施:公共设施:公共厕所",
        "type": 0,
        "location": {
            "lat": 29.781699,
            "lng": 118.182546
        },
        "ad_info": {
            "adcode": 341022,
            "province": "安徽省",
            "city": "黄山市",
            "district": "休宁县"
        }
    },
    {
        "id": "2478044619692809291",
        "title": "旅游公共厕所",
        "address": "安徽省黄山市黟县沿河东路与翼然东路交叉口正南方向106米左右",
        "tel": "",
        "category": "基础设施:公共设施:公共厕所",
        "type": 0,
        "location": {
            "lat": 29.92118,
            "lng": 117.951459
        },
        "ad_info": {
            "adcode": 341023,
            "province": "安徽省",
            "city": "黄山市",
            "district": "黟县"
        }
    },
    {
        "id": "11242771211381769690",
        "title": "公共厕所",
        "address": "安徽省黄山市徽州区前街与塘鸭路交叉口正南方向251米左右",
        "tel": "",
        "category": "基础设施:公共设施:公共厕所",
        "type": 0,
        "location": {
            "lat": 29.864584,
            "lng": 118.300299
        },
        "ad_info": {
            "adcode": 341004,
            "province": "安徽省",
            "city": "黄山市",
            "district": "徽州区"
        }
    },
    {
        "id": "598338742615875064",
        "title": "公共厕所",
        "address": "安徽省黄山市黄山区浦溪路冠东服饰斜对面",
        "tel": "",
        "category": "基础设施:公共设施:公共厕所",
        "type": 0,
        "location": {
            "lat": 30.283044,
            "lng": 118.127578
        },
        "ad_info": {
            "adcode": 341003,
            "province": "安徽省",
            "city": "黄山市",
            "district": "黄山区"
        }
    },
    {
        "id": "18134422096627998427",
        "title": "公共厕所",
        "address": "安徽省黄山市屯溪区天都大道与新园东路交叉口正北方向159米左右",
        "tel": "",
        "category": "基础设施:公共设施:公共厕所",
        "type": 0,
        "location": {
            "lat": 29.71921,
            "lng": 118.337864
        },
        "ad_info": {
            "adcode": 341002,
            "province": "安徽省",
            "city": "黄山市",
            "district": "屯溪区"
        }
    },
    {
        "id": "17147903274183569336",
        "title": "公共厕所(AH-HS-0456)",
        "address": "安徽省黄山市黄山区黄山风景区内",
        "tel": "",
        "category": "基础设施:公共设施:公共厕所",
        "type": 0,
        "location": {
            "lat": 30.130188,
            "lng": 118.16776
        },
        "ad_info": {
            "adcode": 341003,
            "province": "安徽省",
            "city": "黄山市",
            "district": "黄山区"
        }
    },
    {
        "id": "10050007709846912889",
        "title": "徽州古城-公共厕所",
        "address": "安徽省黄山市歙县红旗路12号",
        "tel": "",
        "category": "基础设施:公共设施:公共厕所",
        "type": 0,
        "location": {
            "lat": 29.861242,
            "lng": 118.437889
        },
        "ad_info": {
            "adcode": 341021,
            "province": "安徽省",
            "city": "黄山市",
            "district": "歙县"
        }
    },
    {
        "id": "11514821117458056501",
        "title": "天路旅游公厕",
        "address": "安徽省黄山市歙县X049",
        "tel": "",
        "category": "基础设施:公共设施:公共厕所",
        "type": 0,
        "location": {
            "lat": 29.630661,
            "lng": 118.507786
        },
        "ad_info": {
            "adcode": 341021,
            "province": "安徽省",
            "city": "黄山市",
            "district": "歙县"
        }
    },
    {
        "id": "11366444162370700333",
        "title": "公共厕所",
        "address": "安徽省黄山市休宁县苏家巷与萝宁街交叉口正西方向110米左右",
        "tel": "",
        "category": "基础设施:公共设施:公共厕所",
        "type": 0,
        "location": {
            "lat": 29.784625,
            "lng": 118.181319
        },
        "ad_info": {
            "adcode": 341022,
            "province": "安徽省",
            "city": "黄山市",
            "district": "休宁县"
        }
    },
    {
        "id": "8702845417826205237",
        "title": "公共厕所",
        "address": "安徽省黄山市休宁县文昌坊与玉宁街交叉口正东方向199米左右",
        "tel": "",
        "category": "基础设施:公共设施:公共厕所",
        "type": 0,
        "location": {
            "lat": 29.77928,
            "lng": 118.185089
        },
        "ad_info": {
            "adcode": 341022,
            "province": "安徽省",
            "city": "黄山市",
            "district": "休宁县"
        }
    },
    {
        "id": "12194661860327345701",
        "title": "公共厕所",
        "address": "安徽省黄山市休宁县登封街17号",
        "tel": "",
        "category": "基础设施:公共设施:公共厕所",
        "type": 0,
        "location": {
            "lat": 29.818025,
            "lng": 118.049499
        },
        "ad_info": {
            "adcode": 341022,
            "province": "安徽省",
            "city": "黄山市",
            "district": "休宁县"
        }
    },
    {
        "id": "6013346113614086234",
        "title": "黄山公共厕所",
        "address": "安徽省黄山市黄山区汤口镇黄山风景区中心光明顶下天海",
        "tel": "",
        "category": "基础设施:公共设施:公共厕所",
        "type": 0,
        "location": {
            "lat": 30.084203,
            "lng": 118.196142
        },
        "ad_info": {
            "adcode": 341003,
            "province": "安徽省",
            "city": "黄山市",
            "district": "黄山区"
        }
    },
    {
        "id": "10584448569193516821",
        "title": "公共厕所",
        "address": "安徽省黄山市歙县百花路59号",
        "tel": "",
        "category": "基础设施:公共设施:公共厕所",
        "type": 0,
        "location": {
            "lat": 29.864664,
            "lng": 118.412787
        },
        "ad_info": {
            "adcode": 341021,
            "province": "安徽省",
            "city": "黄山市",
            "district": "歙县"
        }
    },
    {
        "id": "12570888327676509575",
        "title": "公共厕所",
        "address": "安徽省黄山市黟县Y090与西屏路交叉口正南方向556米左右",
        "tel": "",
        "category": "基础设施:公共设施:公共厕所",
        "type": 0,
        "location": {
            "lat": 29.893855,
            "lng": 117.885498
        },
        "ad_info": {
            "adcode": 341023,
            "province": "安徽省",
            "city": "黄山市",
            "district": "黟县"
        }
    },
    {
        "id": "2636286117276867783",
        "title": "公共厕所",
        "address": "安徽省黄山市屯溪区桑园街与滨江东路交叉口西北方向150米左右",
        "tel": "",
        "category": "基础设施:公共设施:公共厕所",
        "type": 0,
        "location": {
            "lat": 29.731344,
            "lng": 118.355269
        },
        "ad_info": {
            "adcode": 341002,
            "province": "安徽省",
            "city": "黄山市",
            "district": "屯溪区"
        }
    },
    {
        "id": "5282927876801177429",
        "title": "公共厕所",
        "address": "安徽省黄山市祁门县S326与梅城大道交叉口正东方向128米左右",
        "tel": "",
        "category": "基础设施:公共设施:公共厕所",
        "type": 0,
        "location": {
            "lat": 29.851076,
            "lng": 117.697489
        },
        "ad_info": {
            "adcode": 341024,
            "province": "安徽省",
            "city": "黄山市",
            "district": "祁门县"
        }
    },
    {
        "id": "14026534262560854089",
        "title": "公共厕所",
        "address": "安徽省黄山市徽州区文峰路徽州新时代商贸广场",
        "tel": "",
        "category": "基础设施:公共设施:公共厕所",
        "type": 0,
        "location": {
            "lat": 29.826706,
            "lng": 118.348695
        },
        "ad_info": {
            "adcode": 341004,
            "province": "安徽省",
            "city": "黄山市",
            "district": "徽州区"
        }
    },
    {
        "id": "12619487012790231671",
        "title": "深渡服务区公共厕所",
        "address": "安徽省黄山市歙县深渡服务区与G4012溧宁高速交叉口东北180米",
        "tel": "",
        "category": "基础设施:公共设施:公共厕所",
        "type": 0,
        "location": {
            "lat": 29.873182,
            "lng": 118.61728
        },
        "ad_info": {
            "adcode": 341021,
            "province": "安徽省",
            "city": "黄山市",
            "district": "歙县"
        }
    },
    {
        "id": "6772789321834805767",
        "title": "公共厕所",
        "address": "安徽省黄山市黄山区太平东路与平湖东路交叉口东北方向88米左右",
        "tel": "",
        "category": "基础设施:公共设施:公共厕所",
        "type": 0,
        "location": {
            "lat": 30.29569,
            "lng": 118.148364
        },
        "ad_info": {
            "adcode": 341003,
            "province": "安徽省",
            "city": "黄山市",
            "district": "黄山区"
        }
    },
    {
        "id": "9647179399144799696",
        "title": "旅游厕所",
        "address": "安徽省黄山市徽州区蜀源优云谷景区东南侧140米",
        "tel": "",
        "category": "基础设施:公共设施:公共厕所",
        "type": 0,
        "location": {
            "lat": 29.905688,
            "lng": 118.337484
        },
        "ad_info": {
            "adcode": 341004,
            "province": "安徽省",
            "city": "黄山市",
            "district": "徽州区"
        }
    },
    {
        "id": "2405887680577400097",
        "title": "公共厕所",
        "address": "安徽省黄山市休宁县玉宁街7号",
        "tel": "",
        "category": "基础设施:公共设施:公共厕所",
        "type": 0,
        "location": {
            "lat": 29.781699,
            "lng": 118.182546
        },
        "ad_info": {
            "adcode": 341022,
            "province": "安徽省",
            "city": "黄山市",
            "district": "休宁县"
        }
    },
    {
        "id": "2478044619692809291",
        "title": "旅游公共厕所",
        "address": "安徽省黄山市黟县沿河东路与翼然东路交叉口正南方向106米左右",
        "tel": "",
        "category": "基础设施:公共设施:公共厕所",
        "type": 0,
        "location": {
            "lat": 29.92118,
            "lng": 117.951459
        },
        "ad_info": {
            "adcode": 341023,
            "province": "安徽省",
            "city": "黄山市",
            "district": "黟县"
        }
    },
    {
        "id": "11242771211381769690",
        "title": "公共厕所",
        "address": "安徽省黄山市徽州区前街与塘鸭路交叉口正南方向251米左右",
        "tel": "",
        "category": "基础设施:公共设施:公共厕所",
        "type": 0,
        "location": {
            "lat": 29.864584,
            "lng": 118.300299
        },
        "ad_info": {
            "adcode": 341004,
            "province": "安徽省",
            "city": "黄山市",
            "district": "徽州区"
        }
    },
    {
        "id": "598338742615875064",
        "title": "公共厕所",
        "address": "安徽省黄山市黄山区浦溪路冠东服饰斜对面",
        "tel": "",
        "category": "基础设施:公共设施:公共厕所",
        "type": 0,
        "location": {
            "lat": 30.283044,
            "lng": 118.127578
        },
        "ad_info": {
            "adcode": 341003,
            "province": "安徽省",
            "city": "黄山市",
            "district": "黄山区"
        }
    },
    {
        "id": "18134422096627998427",
        "title": "公共厕所",
        "address": "安徽省黄山市屯溪区天都大道与新园东路交叉口正北方向159米左右",
        "tel": "",
        "category": "基础设施:公共设施:公共厕所",
        "type": 0,
        "location": {
            "lat": 29.71921,
            "lng": 118.337864
        },
        "ad_info": {
            "adcode": 341002,
            "province": "安徽省",
            "city": "黄山市",
            "district": "屯溪区"
        }
    },
    {
        "id": "17147903274183569336",
        "title": "公共厕所(AH-HS-0456)",
        "address": "安徽省黄山市黄山区黄山风景区内",
        "tel": "",
        "category": "基础设施:公共设施:公共厕所",
        "type": 0,
        "location": {
            "lat": 30.130188,
            "lng": 118.16776
        },
        "ad_info": {
            "adcode": 341003,
            "province": "安徽省",
            "city": "黄山市",
            "district": "黄山区"
        }
    },
    {
        "id": "10050007709846912889",
        "title": "徽州古城-公共厕所",
        "address": "安徽省黄山市歙县红旗路12号",
        "tel": "",
        "category": "基础设施:公共设施:公共厕所",
        "type": 0,
        "location": {
            "lat": 29.861242,
            "lng": 118.437889
        },
        "ad_info": {
            "adcode": 341021,
            "province": "安徽省",
            "city": "黄山市",
            "district": "歙县"
        }
    },
    {
        "id": "11514821117458056501",
        "title": "天路旅游公厕",
        "address": "安徽省黄山市歙县X049",
        "tel": "",
        "category": "基础设施:公共设施:公共厕所",
        "type": 0,
        "location": {
            "lat": 29.630661,
            "lng": 118.507786
        },
        "ad_info": {
            "adcode": 341021,
            "province": "安徽省",
            "city": "黄山市",
            "district": "歙县"
        }
    },
    {
        "id": "11366444162370700333",
        "title": "公共厕所",
        "address": "安徽省黄山市休宁县苏家巷与萝宁街交叉口正西方向110米左右",
        "tel": "",
        "category": "基础设施:公共设施:公共厕所",
        "type": 0,
        "location": {
            "lat": 29.784625,
            "lng": 118.181319
        },
        "ad_info": {
            "adcode": 341022,
            "province": "安徽省",
            "city": "黄山市",
            "district": "休宁县"
        }
    },
    {
        "id": "8702845417826205237",
        "title": "公共厕所",
        "address": "安徽省黄山市休宁县文昌坊与玉宁街交叉口正东方向199米左右",
        "tel": "",
        "category": "基础设施:公共设施:公共厕所",
        "type": 0,
        "location": {
            "lat": 29.77928,
            "lng": 118.185089
        },
        "ad_info": {
            "adcode": 341022,
            "province": "安徽省",
            "city": "黄山市",
            "district": "休宁县"
        }
    },
    {
        "id": "12194661860327345701",
        "title": "公共厕所",
        "address": "安徽省黄山市休宁县登封街17号",
        "tel": "",
        "category": "基础设施:公共设施:公共厕所",
        "type": 0,
        "location": {
            "lat": 29.818025,
            "lng": 118.049499
        },
        "ad_info": {
            "adcode": 341022,
            "province": "安徽省",
            "city": "黄山市",
            "district": "休宁县"
        }
    },
    {
        "id": "6013346113614086234",
        "title": "黄山公共厕所",
        "address": "安徽省黄山市黄山区汤口镇黄山风景区中心光明顶下天海",
        "tel": "",
        "category": "基础设施:公共设施:公共厕所",
        "type": 0,
        "location": {
            "lat": 30.084203,
            "lng": 118.196142
        },
        "ad_info": {
            "adcode": 341003,
            "province": "安徽省",
            "city": "黄山市",
            "district": "黄山区"
        }
    },
    {
        "id": "10584448569193516821",
        "title": "公共厕所",
        "address": "安徽省黄山市歙县百花路59号",
        "tel": "",
        "category": "基础设施:公共设施:公共厕所",
        "type": 0,
        "location": {
            "lat": 29.864664,
            "lng": 118.412787
        },
        "ad_info": {
            "adcode": 341021,
            "province": "安徽省",
            "city": "黄山市",
            "district": "歙县"
        }
    },
    {
        "id": "12570888327676509575",
        "title": "公共厕所",
        "address": "安徽省黄山市黟县Y090与西屏路交叉口正南方向556米左右",
        "tel": "",
        "category": "基础设施:公共设施:公共厕所",
        "type": 0,
        "location": {
            "lat": 29.893855,
            "lng": 117.885498
        },
        "ad_info": {
            "adcode": 341023,
            "province": "安徽省",
            "city": "黄山市",
            "district": "黟县"
        }
    },
    {
        "id": "2636286117276867783",
        "title": "公共厕所",
        "address": "安徽省黄山市屯溪区桑园街与滨江东路交叉口西北方向150米左右",
        "tel": "",
        "category": "基础设施:公共设施:公共厕所",
        "type": 0,
        "location": {
            "lat": 29.731344,
            "lng": 118.355269
        },
        "ad_info": {
            "adcode": 341002,
            "province": "安徽省",
            "city": "黄山市",
            "district": "屯溪区"
        }
    },
    {
        "id": "5282927876801177429",
        "title": "公共厕所",
        "address": "安徽省黄山市祁门县S326与梅城大道交叉口正东方向128米左右",
        "tel": "",
        "category": "基础设施:公共设施:公共厕所",
        "type": 0,
        "location": {
            "lat": 29.851076,
            "lng": 117.697489
        },
        "ad_info": {
            "adcode": 341024,
            "province": "安徽省",
            "city": "黄山市",
            "district": "祁门县"
        }
    },
    {
        "id": "14026534262560854089",
        "title": "公共厕所",
        "address": "安徽省黄山市徽州区文峰路徽州新时代商贸广场",
        "tel": "",
        "category": "基础设施:公共设施:公共厕所",
        "type": 0,
        "location": {
            "lat": 29.826706,
            "lng": 118.348695
        },
        "ad_info": {
            "adcode": 341004,
            "province": "安徽省",
            "city": "黄山市",
            "district": "徽州区"
        }
    },
    {
        "id": "12619487012790231671",
        "title": "深渡服务区公共厕所",
        "address": "安徽省黄山市歙县深渡服务区与G4012溧宁高速交叉口东北180米",
        "tel": "",
        "category": "基础设施:公共设施:公共厕所",
        "type": 0,
        "location": {
            "lat": 29.873182,
            "lng": 118.61728
        },
        "ad_info": {
            "adcode": 341021,
            "province": "安徽省",
            "city": "黄山市",
            "district": "歙县"
        }
    },
    {
        "id": "6772789321834805767",
        "title": "公共厕所",
        "address": "安徽省黄山市黄山区太平东路与平湖东路交叉口东北方向88米左右",
        "tel": "",
        "category": "基础设施:公共设施:公共厕所",
        "type": 0,
        "location": {
            "lat": 30.29569,
            "lng": 118.148364
        },
        "ad_info": {
            "adcode": 341003,
            "province": "安徽省",
            "city": "黄山市",
            "district": "黄山区"
        }
    },
    {
        "id": "9647179399144799696",
        "title": "旅游厕所",
        "address": "安徽省黄山市徽州区蜀源优云谷景区东南侧140米",
        "tel": "",
        "category": "基础设施:公共设施:公共厕所",
        "type": 0,
        "location": {
            "lat": 29.905688,
            "lng": 118.337484
        },
        "ad_info": {
            "adcode": 341004,
            "province": "安徽省",
            "city": "黄山市",
            "district": "徽州区"
        }
    },
    {
        "id": "2405887680577400097",
        "title": "公共厕所",
        "address": "安徽省黄山市休宁县玉宁街7号",
        "tel": "",
        "category": "基础设施:公共设施:公共厕所",
        "type": 0,
        "location": {
            "lat": 29.781699,
            "lng": 118.182546
        },
        "ad_info": {
            "adcode": 341022,
            "province": "安徽省",
            "city": "黄山市",
            "district": "休宁县"
        }
    },
    {
        "id": "2478044619692809291",
        "title": "旅游公共厕所",
        "address": "安徽省黄山市黟县沿河东路与翼然东路交叉口正南方向106米左右",
        "tel": "",
        "category": "基础设施:公共设施:公共厕所",
        "type": 0,
        "location": {
            "lat": 29.92118,
            "lng": 117.951459
        },
        "ad_info": {
            "adcode": 341023,
            "province": "安徽省",
            "city": "黄山市",
            "district": "黟县"
        }
    },
    {
        "id": "11242771211381769690",
        "title": "公共厕所",
        "address": "安徽省黄山市徽州区前街与塘鸭路交叉口正南方向251米左右",
        "tel": "",
        "category": "基础设施:公共设施:公共厕所",
        "type": 0,
        "location": {
            "lat": 29.864584,
            "lng": 118.300299
        },
        "ad_info": {
            "adcode": 341004,
            "province": "安徽省",
            "city": "黄山市",
            "district": "徽州区"
        }
    },
    {
        "id": "598338742615875064",
        "title": "公共厕所",
        "address": "安徽省黄山市黄山区浦溪路冠东服饰斜对面",
        "tel": "",
        "category": "基础设施:公共设施:公共厕所",
        "type": 0,
        "location": {
            "lat": 30.283044,
            "lng": 118.127578
        },
        "ad_info": {
            "adcode": 341003,
            "province": "安徽省",
            "city": "黄山市",
            "district": "黄山区"
        }
    },
    {
        "id": "18134422096627998427",
        "title": "公共厕所",
        "address": "安徽省黄山市屯溪区天都大道与新园东路交叉口正北方向159米左右",
        "tel": "",
        "category": "基础设施:公共设施:公共厕所",
        "type": 0,
        "location": {
            "lat": 29.71921,
            "lng": 118.337864
        },
        "ad_info": {
            "adcode": 341002,
            "province": "安徽省",
            "city": "黄山市",
            "district": "屯溪区"
        }
    },
    {
        "id": "17147903274183569336",
        "title": "公共厕所(AH-HS-0456)",
        "address": "安徽省黄山市黄山区黄山风景区内",
        "tel": "",
        "category": "基础设施:公共设施:公共厕所",
        "type": 0,
        "location": {
            "lat": 30.130188,
            "lng": 118.16776
        },
        "ad_info": {
            "adcode": 341003,
            "province": "安徽省",
            "city": "黄山市",
            "district": "黄山区"
        }
    },
    {
        "id": "10050007709846912889",
        "title": "徽州古城-公共厕所",
        "address": "安徽省黄山市歙县红旗路12号",
        "tel": "",
        "category": "基础设施:公共设施:公共厕所",
        "type": 0,
        "location": {
            "lat": 29.861242,
            "lng": 118.437889
        },
        "ad_info": {
            "adcode": 341021,
            "province": "安徽省",
            "city": "黄山市",
            "district": "歙县"
        }
    },
    {
        "id": "11514821117458056501",
        "title": "天路旅游公厕",
        "address": "安徽省黄山市歙县X049",
        "tel": "",
        "category": "基础设施:公共设施:公共厕所",
        "type": 0,
        "location": {
            "lat": 29.630661,
            "lng": 118.507786
        },
        "ad_info": {
            "adcode": 341021,
            "province": "安徽省",
            "city": "黄山市",
            "district": "歙县"
        }
    },
    {
        "id": "11366444162370700333",
        "title": "公共厕所",
        "address": "安徽省黄山市休宁县苏家巷与萝宁街交叉口正西方向110米左右",
        "tel": "",
        "category": "基础设施:公共设施:公共厕所",
        "type": 0,
        "location": {
            "lat": 29.784625,
            "lng": 118.181319
        },
        "ad_info": {
            "adcode": 341022,
            "province": "安徽省",
            "city": "黄山市",
            "district": "休宁县"
        }
    },
    {
        "id": "8702845417826205237",
        "title": "公共厕所",
        "address": "安徽省黄山市休宁县文昌坊与玉宁街交叉口正东方向199米左右",
        "tel": "",
        "category": "基础设施:公共设施:公共厕所",
        "type": 0,
        "location": {
            "lat": 29.77928,
            "lng": 118.185089
        },
        "ad_info": {
            "adcode": 341022,
            "province": "安徽省",
            "city": "黄山市",
            "district": "休宁县"
        }
    },
    {
        "id": "12194661860327345701",
        "title": "公共厕所",
        "address": "安徽省黄山市休宁县登封街17号",
        "tel": "",
        "category": "基础设施:公共设施:公共厕所",
        "type": 0,
        "location": {
            "lat": 29.818025,
            "lng": 118.049499
        },
        "ad_info": {
            "adcode": 341022,
            "province": "安徽省",
            "city": "黄山市",
            "district": "休宁县"
        }
    },
    {
        "id": "6013346113614086234",
        "title": "黄山公共厕所",
        "address": "安徽省黄山市黄山区汤口镇黄山风景区中心光明顶下天海",
        "tel": "",
        "category": "基础设施:公共设施:公共厕所",
        "type": 0,
        "location": {
            "lat": 30.084203,
            "lng": 118.196142
        },
        "ad_info": {
            "adcode": 341003,
            "province": "安徽省",
            "city": "黄山市",
            "district": "黄山区"
        }
    },
    {
        "id": "10584448569193516821",
        "title": "公共厕所",
        "address": "安徽省黄山市歙县百花路59号",
        "tel": "",
        "category": "基础设施:公共设施:公共厕所",
        "type": 0,
        "location": {
            "lat": 29.864664,
            "lng": 118.412787
        },
        "ad_info": {
            "adcode": 341021,
            "province": "安徽省",
            "city": "黄山市",
            "district": "歙县"
        }
    },
    {
        "id": "12570888327676509575",
        "title": "公共厕所",
        "address": "安徽省黄山市黟县Y090与西屏路交叉口正南方向556米左右",
        "tel": "",
        "category": "基础设施:公共设施:公共厕所",
        "type": 0,
        "location": {
            "lat": 29.893855,
            "lng": 117.885498
        },
        "ad_info": {
            "adcode": 341023,
            "province": "安徽省",
            "city": "黄山市",
            "district": "黟县"
        }
    },
    {
        "id": "2636286117276867783",
        "title": "公共厕所",
        "address": "安徽省黄山市屯溪区桑园街与滨江东路交叉口西北方向150米左右",
        "tel": "",
        "category": "基础设施:公共设施:公共厕所",
        "type": 0,
        "location": {
            "lat": 29.731344,
            "lng": 118.355269
        },
        "ad_info": {
            "adcode": 341002,
            "province": "安徽省",
            "city": "黄山市",
            "district": "屯溪区"
        }
    },
    {
        "id": "5282927876801177429",
        "title": "公共厕所",
        "address": "安徽省黄山市祁门县S326与梅城大道交叉口正东方向128米左右",
        "tel": "",
        "category": "基础设施:公共设施:公共厕所",
        "type": 0,
        "location": {
            "lat": 29.851076,
            "lng": 117.697489
        },
        "ad_info": {
            "adcode": 341024,
            "province": "安徽省",
            "city": "黄山市",
            "district": "祁门县"
        }
    },
    {
        "id": "14026534262560854089",
        "title": "公共厕所",
        "address": "安徽省黄山市徽州区文峰路徽州新时代商贸广场",
        "tel": "",
        "category": "基础设施:公共设施:公共厕所",
        "type": 0,
        "location": {
            "lat": 29.826706,
            "lng": 118.348695
        },
        "ad_info": {
            "adcode": 341004,
            "province": "安徽省",
            "city": "黄山市",
            "district": "徽州区"
        }
    }
]