[
    {
        "id": "1833649855489674859",
        "title": "公共厕所",
        "address": "青海省黄南藏族自治州河南蒙古族自治县察罕丹津西大街与青年路交叉口东南方向23米左右",
        "tel": "",
        "category": "基础设施:公共设施:公共厕所",
        "type": 0,
        "location": {
            "lat": 34.733847,
            "lng": 101.609455
        },
        "ad_info": {
            "adcode": 632324,
            "province": "青海省",
            "city": "黄南藏族自治州",
            "district": "河南蒙古族自治县"
        }
    },
    {
        "id": "15595965072615668600",
        "title": "公共厕所",
        "address": "青海省黄南藏族自治州尖扎县神箭路与铁岭路交叉口西南方向30米左右",
        "tel": "",
        "category": "基础设施:公共设施:公共厕所",
        "type": 0,
        "location": {
            "lat": 35.942649,
            "lng": 102.0385
        },
        "ad_info": {
            "adcode": 632322,
            "province": "青海省",
            "city": "黄南藏族自治州",
            "district": "尖扎县"
        }
    },
    {
        "id": "9821599205726250535",
        "title": "公共厕所",
        "address": "青海省黄南藏族自治州尖扎县团结巷与黄河路交叉口东北方向33米左右",
        "tel": "",
        "category": "基础设施:公共设施:公共厕所",
        "type": 0,
        "location": {
            "lat": 35.937925,
            "lng": 102.033394
        },
        "ad_info": {
            "adcode": 632322,
            "province": "青海省",
            "city": "黄南藏族自治州",
            "district": "尖扎县"
        }
    },
    {
        "id": "5513320761239424552",
        "title": "公共厕所",
        "address": "青海省黄南藏族自治州河南蒙古族自治县吉岗东路与达参南路交叉口正西方向99米左右",
        "tel": "",
        "category": "基础设施:公共设施:公共厕所",
        "type": 0,
        "location": {
            "lat": 34.732077,
            "lng": 101.61753
        },
        "ad_info": {
            "adcode": 632324,
            "province": "青海省",
            "city": "黄南藏族自治州",
            "district": "河南蒙古族自治县"
        }
    },
    {
        "id": "8338060319038498333",
        "title": "公共厕所",
        "address": "青海省黄南藏族自治州泽库县幸福路与民主路交叉口东南方向189米左右",
        "tel": "",
        "category": "基础设施:公共设施:公共厕所",
        "type": 0,
        "location": {
            "lat": 35.035661,
            "lng": 101.46757
        },
        "ad_info": {
            "adcode": 632323,
            "province": "青海省",
            "city": "黄南藏族自治州",
            "district": "泽库县"
        }
    },
    {
        "id": "17218766090131976789",
        "title": "公共厕所",
        "address": "青海省黄南藏族自治州河南蒙古族自治县吉岗西路与安达南路交叉口正东方向29米左右",
        "tel": "",
        "category": "基础设施:公共设施:公共厕所",
        "type": 0,
        "location": {
            "lat": 34.732115,
            "lng": 101.601963
        },
        "ad_info": {
            "adcode": 632324,
            "province": "青海省",
            "city": "黄南藏族自治州",
            "district": "河南蒙古族自治县"
        }
    },
    {
        "id": "15874985225607679087",
        "title": "公共厕所",
        "address": "青海省黄南藏族自治州尖扎县申宝路与邮政巷交叉口正北方向18米左右",
        "tel": "",
        "category": "基础设施:公共设施:公共厕所",
        "type": 0,
        "location": {
            "lat": 35.939535,
            "lng": 102.029423
        },
        "ad_info": {
            "adcode": 632322,
            "province": "青海省",
            "city": "黄南藏族自治州",
            "district": "尖扎县"
        }
    },
    {
        "id": "16835812494030341058",
        "title": "公共厕所",
        "address": "青海省黄南藏族自治州河南蒙古族自治县拉姆兰措西路与滨河北路交叉口东北方向37米左右",
        "tel": "",
        "category": "基础设施:公共设施:公共厕所",
        "type": 0,
        "location": {
            "lat": 34.730226,
            "lng": 101.611959
        },
        "ad_info": {
            "adcode": 632324,
            "province": "青海省",
            "city": "黄南藏族自治州",
            "district": "河南蒙古族自治县"
        }
    },
    {
        "id": "5847339158836681699",
        "title": "公共厕所",
        "address": "青海省黄南藏族自治州泽库县党校路与王家路延伸段交叉口西北方向33米左右",
        "tel": "",
        "category": "基础设施:公共设施:公共厕所",
        "type": 0,
        "location": {
            "lat": 35.041652,
            "lng": 101.476099
        },
        "ad_info": {
            "adcode": 632323,
            "province": "青海省",
            "city": "黄南藏族自治州",
            "district": "泽库县"
        }
    },
    {
        "id": "11035268411395855550",
        "title": "公共厕所",
        "address": "青海省黄南藏族自治州尖扎县牛滩大街15号正南方向170米",
        "tel": "",
        "category": "基础设施:公共设施:公共厕所",
        "type": 0,
        "location": {
            "lat": 36.112082,
            "lng": 101.852207
        },
        "ad_info": {
            "adcode": 632322,
            "province": "青海省",
            "city": "黄南藏族自治州",
            "district": "尖扎县"
        }
    },
    {
        "id": "1420064397516636769",
        "title": "公共厕所",
        "address": "青海省黄南藏族自治州河南蒙古族自治县吉岗西路与朗姆兰措西路交叉口正南方向88米左右",
        "tel": "",
        "category": "基础设施:公共设施:公共厕所",
        "type": 0,
        "location": {
            "lat": 34.730415,
            "lng": 101.600048
        },
        "ad_info": {
            "adcode": 632324,
            "province": "青海省",
            "city": "黄南藏族自治州",
            "district": "河南蒙古族自治县"
        }
    },
    {
        "id": "2375802427264174796",
        "title": "公共厕所",
        "address": "青海省黄南藏族自治州尖扎县德吉街与申宝路交叉口东北方向120米左右",
        "tel": "",
        "category": "基础设施:公共设施:公共厕所",
        "type": 0,
        "location": {
            "lat": 35.940819,
            "lng": 102.037167
        },
        "ad_info": {
            "adcode": 632322,
            "province": "青海省",
            "city": "黄南藏族自治州",
            "district": "尖扎县"
        }
    },
    {
        "id": "7928317373685975643",
        "title": "公共厕所",
        "address": "青海省黄南藏族自治州尖扎县申宝路与神箭路交叉口西南方向40米左右",
        "tel": "",
        "category": "基础设施:公共设施:公共厕所",
        "type": 0,
        "location": {
            "lat": 35.939738,
            "lng": 102.038449
        },
        "ad_info": {
            "adcode": 632322,
            "province": "青海省",
            "city": "黄南藏族自治州",
            "district": "尖扎县"
        }
    },
    {
        "id": "3271817740093299236",
        "title": "公共厕所",
        "address": "青海省黄南藏族自治州尖扎县人民街与申宝路交叉口正东方向179米左右",
        "tel": "",
        "category": "基础设施:公共设施:公共厕所",
        "type": 0,
        "location": {
            "lat": 35.939778,
            "lng": 102.033176
        },
        "ad_info": {
            "adcode": 632322,
            "province": "青海省",
            "city": "黄南藏族自治州",
            "district": "尖扎县"
        }
    },
    {
        "id": "16166028837810330098",
        "title": "公共厕所",
        "address": "青海省黄南藏族自治州河南蒙古族自治县",
        "tel": "",
        "category": "基础设施:公共设施:公共厕所",
        "type": 0,
        "location": {
            "lat": 34.211719,
            "lng": 101.546675
        },
        "ad_info": {
            "adcode": 632324,
            "province": "青海省",
            "city": "黄南藏族自治州",
            "district": "河南蒙古族自治县"
        }
    },
    {
        "id": "10075219770098339306",
        "title": "公共厕所",
        "address": "青海省黄南藏族自治州河南蒙古族自治县香汤旅游帐房城东南侧70米",
        "tel": "",
        "category": "基础设施:公共设施:公共厕所",
        "type": 0,
        "location": {
            "lat": 34.723191,
            "lng": 101.632957
        },
        "ad_info": {
            "adcode": 632324,
            "province": "青海省",
            "city": "黄南藏族自治州",
            "district": "河南蒙古族自治县"
        }
    },
    {
        "id": "6109257426100334697",
        "title": "公共厕所",
        "address": "青海省黄南藏族自治州泽库县平安路与本溪路交叉口正南方向90米左右",
        "tel": "",
        "category": "基础设施:公共设施:公共厕所",
        "type": 0,
        "location": {
            "lat": 35.039595,
            "lng": 101.471223
        },
        "ad_info": {
            "adcode": 632323,
            "province": "青海省",
            "city": "黄南藏族自治州",
            "district": "泽库县"
        }
    },
    {
        "id": "5358848735735406583",
        "title": "公共厕所",
        "address": "青海省黄南藏族自治州河南蒙古族自治县泽曲与腾格里大道交叉口西北方向109米左右",
        "tel": "",
        "category": "基础设施:公共设施:公共厕所",
        "type": 0,
        "location": {
            "lat": 34.724901,
            "lng": 101.625108
        },
        "ad_info": {
            "adcode": 632324,
            "province": "青海省",
            "city": "黄南藏族自治州",
            "district": "河南蒙古族自治县"
        }
    },
    {
        "id": "835079038201157374",
        "title": "公共厕所",
        "address": "青海省黄南藏族自治州泽库县幸福路与民主路交叉口东南方向171米左右",
        "tel": "",
        "category": "基础设施:公共设施:公共厕所",
        "type": 0,
        "location": {
            "lat": 35.035416,
            "lng": 101.467164
        },
        "ad_info": {
            "adcode": 632323,
            "province": "青海省",
            "city": "黄南藏族自治州",
            "district": "泽库县"
        }
    },
    {
        "id": "3998057299801113938",
        "title": "公共厕所",
        "address": "青海省黄南藏族自治州河南蒙古族自治县203省道北50米",
        "tel": "",
        "category": "基础设施:公共设施:公共厕所",
        "type": 0,
        "location": {
            "lat": 34.521042,
            "lng": 101.967311
        },
        "ad_info": {
            "adcode": 632324,
            "province": "青海省",
            "city": "黄南藏族自治州",
            "district": "河南蒙古族自治县"
        }
    },
    {
        "id": "4179945758288477027",
        "title": "公共厕所",
        "address": "青海省黄南藏族自治州同仁市夏琼中路与夏琼北路交叉口东南方向95米左右",
        "tel": "",
        "category": "基础设施:公共设施:公共厕所",
        "type": 0,
        "location": {
            "lat": 35.518646,
            "lng": 102.016681
        },
        "ad_info": {
            "adcode": 632301,
            "province": "青海省",
            "city": "黄南藏族自治州",
            "district": "同仁市"
        }
    },
    {
        "id": "16075847968698764483",
        "title": "公共厕所",
        "address": "青海省黄南藏族自治州泽库县203省道北50米",
        "tel": "",
        "category": "基础设施:公共设施:公共厕所",
        "type": 0,
        "location": {
            "lat": 35.13057,
            "lng": 101.7204
        },
        "ad_info": {
            "adcode": 632323,
            "province": "青海省",
            "city": "黄南藏族自治州",
            "district": "泽库县"
        }
    },
    {
        "id": "4697673129420008854",
        "title": "公共厕所",
        "address": "青海省黄南藏族自治州尖扎县G310与马康路交叉口正北方向97米左右",
        "tel": "",
        "category": "基础设施:公共设施:公共厕所",
        "type": 0,
        "location": {
            "lat": 35.963236,
            "lng": 102.027126
        },
        "ad_info": {
            "adcode": 632322,
            "province": "青海省",
            "city": "黄南藏族自治州",
            "district": "尖扎县"
        }
    },
    {
        "id": "9451041068573460683",
        "title": "公共厕所",
        "address": "青海省黄南藏族自治州泽库县小区路与民主路交叉口正北方向107米左右",
        "tel": "",
        "category": "基础设施:公共设施:公共厕所",
        "type": 0,
        "location": {
            "lat": 35.033034,
            "lng": 101.465451
        },
        "ad_info": {
            "adcode": 632323,
            "province": "青海省",
            "city": "黄南藏族自治州",
            "district": "泽库县"
        }
    },
    {
        "id": "17036371767910675037",
        "title": "公共厕所",
        "address": "青海省黄南藏族自治州泽库县小区路与民主路交叉口正西方向102米左右",
        "tel": "",
        "category": "基础设施:公共设施:公共厕所",
        "type": 0,
        "location": {
            "lat": 35.031978,
            "lng": 101.464356
        },
        "ad_info": {
            "adcode": 632323,
            "province": "青海省",
            "city": "黄南藏族自治州",
            "district": "泽库县"
        }
    },
    {
        "id": "950013679521285412",
        "title": "公共厕所",
        "address": "青海省黄南藏族自治州泽库县幸福路与民主路交叉口正南方向25米左右",
        "tel": "",
        "category": "基础设施:公共设施:公共厕所",
        "type": 0,
        "location": {
            "lat": 35.036162,
            "lng": 101.465591
        },
        "ad_info": {
            "adcode": 632323,
            "province": "青海省",
            "city": "黄南藏族自治州",
            "district": "泽库县"
        }
    },
    {
        "id": "3961712108351288401",
        "title": "公共卫生间",
        "address": "青海省黄南藏族自治州同仁市德合隆中路与德合隆北路交叉口正南方向142米左右",
        "tel": "",
        "category": "基础设施:公共设施:公共厕所",
        "type": 0,
        "location": {
            "lat": 35.515623,
            "lng": 102.020286
        },
        "ad_info": {
            "adcode": 632301,
            "province": "青海省",
            "city": "黄南藏族自治州",
            "district": "同仁市"
        }
    },
    {
        "id": "11131297513285650223",
        "title": "公共厕所",
        "address": "青海省黄南藏族自治州同仁市德合隆中路同仁市人民政府",
        "tel": "",
        "category": "基础设施:公共设施:公共厕所",
        "type": 0,
        "location": {
            "lat": 35.515303,
            "lng": 102.018823
        },
        "ad_info": {
            "adcode": 632301,
            "province": "青海省",
            "city": "黄南藏族自治州",
            "district": "同仁市"
        }
    },
    {
        "id": "10369069224095234050",
        "title": "公共厕所",
        "address": "青海省黄南藏族自治州同仁市康乐北路与泽库路交叉口正东方向86米左右",
        "tel": "",
        "category": "基础设施:公共设施:公共厕所",
        "type": 0,
        "location": {
            "lat": 35.524803,
            "lng": 102.02341
        },
        "ad_info": {
            "adcode": 632301,
            "province": "青海省",
            "city": "黄南藏族自治州",
            "district": "同仁市"
        }
    },
    {
        "id": "4329379023794459507",
        "title": "公共厕所",
        "address": "青海省黄南藏族自治州同仁市古城巷与州坡路交叉口东北方向90米左右",
        "tel": "",
        "category": "基础设施:公共设施:公共厕所",
        "type": 0,
        "location": {
            "lat": 35.513219,
            "lng": 102.017277
        },
        "ad_info": {
            "adcode": 632301,
            "province": "青海省",
            "city": "黄南藏族自治州",
            "district": "同仁市"
        }
    },
    {
        "id": "18260468122005657750",
        "title": "公共厕所",
        "address": "青海省黄南藏族自治州同仁市G213与迎宾大道交叉口正北方向1583米左右",
        "tel": "",
        "category": "基础设施:公共设施:公共厕所",
        "type": 0,
        "location": {
            "lat": 35.588785,
            "lng": 102.050816
        },
        "ad_info": {
            "adcode": 632301,
            "province": "青海省",
            "city": "黄南藏族自治州",
            "district": "同仁市"
        }
    },
    {
        "id": "14304493227975559274",
        "title": "公共厕所",
        "address": "青海省黄南藏族自治州同仁市市S203",
        "tel": "",
        "category": "基础设施:公共设施:公共厕所",
        "type": 0,
        "location": {
            "lat": 35.561679,
            "lng": 102.054359
        },
        "ad_info": {
            "adcode": 632301,
            "province": "青海省",
            "city": "黄南藏族自治州",
            "district": "同仁市"
        }
    },
    {
        "id": "8068228326473848414",
        "title": "公共厕所",
        "address": "青海省黄南藏族自治州同仁市尖扎路与康乐北路交叉口西北方向78米左右",
        "tel": "",
        "category": "基础设施:公共设施:公共厕所",
        "type": 0,
        "location": {
            "lat": 35.522858,
            "lng": 102.020086
        },
        "ad_info": {
            "adcode": 632301,
            "province": "青海省",
            "city": "黄南藏族自治州",
            "district": "同仁市"
        }
    },
    {
        "id": "16084923959489431632",
        "title": "公共厕所",
        "address": "青海省黄南藏族自治州同仁市隆务街116号",
        "tel": "",
        "category": "基础设施:公共设施:公共厕所",
        "type": 0,
        "location": {
            "lat": 35.511487,
            "lng": 102.016594
        },
        "ad_info": {
            "adcode": 632301,
            "province": "青海省",
            "city": "黄南藏族自治州",
            "district": "同仁市"
        }
    },
    {
        "id": "8683453616182196742",
        "title": "公共厕所",
        "address": "青海省黄南藏族自治州同仁市八塔东路与隆务街交叉口东北方向113米左右",
        "tel": "",
        "category": "基础设施:公共设施:公共厕所",
        "type": 0,
        "location": {
            "lat": 35.509593,
            "lng": 102.015629
        },
        "ad_info": {
            "adcode": 632301,
            "province": "青海省",
            "city": "黄南藏族自治州",
            "district": "同仁市"
        }
    },
    {
        "id": "15542920903181920951",
        "title": "公共厕所",
        "address": "青海省黄南藏族自治州同仁市尖扎路与德合隆北路交叉口东南方向294米左右",
        "tel": "",
        "category": "基础设施:公共设施:公共厕所",
        "type": 0,
        "location": {
            "lat": 35.518697,
            "lng": 102.025419
        },
        "ad_info": {
            "adcode": 632301,
            "province": "青海省",
            "city": "黄南藏族自治州",
            "district": "同仁市"
        }
    },
    {
        "id": "4822326137066350866",
        "title": "公共厕所",
        "address": "青海省黄南藏族自治州同仁市G213与夏琼北路交叉口正南方向515米左右",
        "tel": "",
        "category": "基础设施:公共设施:公共厕所",
        "type": 0,
        "location": {
            "lat": 35.532154,
            "lng": 102.031114
        },
        "ad_info": {
            "adcode": 632301,
            "province": "青海省",
            "city": "黄南藏族自治州",
            "district": "同仁市"
        }
    },
    {
        "id": "4282314836036143088",
        "title": "公共厕所",
        "address": "青海省黄南藏族自治州同仁市德合隆北路与雪莲东路交叉口正北方向27米左右",
        "tel": "",
        "category": "基础设施:公共设施:公共厕所",
        "type": 0,
        "location": {
            "lat": 35.519748,
            "lng": 102.022448
        },
        "ad_info": {
            "adcode": 632301,
            "province": "青海省",
            "city": "黄南藏族自治州",
            "district": "同仁市"
        }
    },
    {
        "id": "6742729944788511367",
        "title": "公共厕所",
        "address": "青海省黄南藏族自治州同仁市东山路与阳光大道交叉口东北方向140米左右",
        "tel": "",
        "category": "基础设施:公共设施:公共厕所",
        "type": 0,
        "location": {
            "lat": 35.516971,
            "lng": 102.026635
        },
        "ad_info": {
            "adcode": 632301,
            "province": "青海省",
            "city": "黄南藏族自治州",
            "district": "同仁市"
        }
    },
    {
        "id": "16734404619991597929",
        "title": "公共厕所",
        "address": "青海省黄南藏族自治州同仁市八塔东路与隆务街交叉口西南方向131米左右",
        "tel": "",
        "category": "基础设施:公共设施:公共厕所",
        "type": 0,
        "location": {
            "lat": 35.507687,
            "lng": 102.01428
        },
        "ad_info": {
            "adcode": 632301,
            "province": "青海省",
            "city": "黄南藏族自治州",
            "district": "同仁市"
        }
    },
    {
        "id": "7522980780639614211",
        "title": "公共厕所",
        "address": "青海省黄南藏族自治州同仁市夏琼南路与夏琼路交叉口西南方向192米左右",
        "tel": "",
        "category": "基础设施:公共设施:公共厕所",
        "type": 0,
        "location": {
            "lat": 35.508287,
            "lng": 102.010245
        },
        "ad_info": {
            "adcode": 632301,
            "province": "青海省",
            "city": "黄南藏族自治州",
            "district": "同仁市"
        }
    },
    {
        "id": "15425891232147554953",
        "title": "公共厕所",
        "address": "青海省黄南藏族自治州同仁市保安大街与发展东路交叉口正北方向230米左右",
        "tel": "",
        "category": "基础设施:公共设施:公共厕所",
        "type": 0,
        "location": {
            "lat": 35.634084,
            "lng": 102.079344
        },
        "ad_info": {
            "adcode": 632301,
            "province": "青海省",
            "city": "黄南藏族自治州",
            "district": "同仁市"
        }
    },
    {
        "id": "3852844802363167878",
        "title": "公共厕所",
        "address": "青海省黄南藏族自治州同仁市德合隆北路与青年大道交叉口西南方向54米左右",
        "tel": "",
        "category": "基础设施:公共设施:公共厕所",
        "type": 0,
        "location": {
            "lat": 35.521487,
            "lng": 102.024206
        },
        "ad_info": {
            "adcode": 632301,
            "province": "青海省",
            "city": "黄南藏族自治州",
            "district": "同仁市"
        }
    },
    {
        "id": "14872874462263905828",
        "title": "旅游公共厕所",
        "address": "青海省黄南藏族自治州尖扎县X614(羊昂段)",
        "tel": "",
        "category": "基础设施:公共设施:公共厕所",
        "type": 0,
        "location": {
            "lat": 35.888739,
            "lng": 102.041145
        },
        "ad_info": {
            "adcode": 632322,
            "province": "青海省",
            "city": "黄南藏族自治州",
            "district": "尖扎县"
        }
    },
    {
        "id": "7753369418356706371",
        "title": "旅游厕所",
        "address": "青海省黄南藏族自治州河南蒙古族自治县和硕特南路与滨河南路交叉口东南方向66米左右",
        "tel": "",
        "category": "基础设施:公共设施:公共厕所",
        "type": 0,
        "location": {
            "lat": 34.723244,
            "lng": 101.608277
        },
        "ad_info": {
            "adcode": 632324,
            "province": "青海省",
            "city": "黄南藏族自治州",
            "district": "河南蒙古族自治县"
        }
    },
    {
        "id": "12090386012310606174",
        "title": "保安停车区公共厕所",
        "address": "青海省黄南藏族自治州同仁市张河高速",
        "tel": "",
        "category": "基础设施:公共设施:公共厕所",
        "type": 0,
        "location": {
            "lat": 35.631592,
            "lng": 102.065436
        },
        "ad_info": {
            "adcode": 632301,
            "province": "青海省",
            "city": "黄南藏族自治州",
            "district": "同仁市"
        }
    },
    {
        "id": "18443869163346178694",
        "title": "保安停车区公共厕所",
        "address": "青海省黄南藏族自治州同仁市中国石油交控能源保安停车区加油站东侧130米",
        "tel": "",
        "category": "基础设施:公共设施:公共厕所",
        "type": 0,
        "location": {
            "lat": 35.63119,
            "lng": 102.066597
        },
        "ad_info": {
            "adcode": 632301,
            "province": "青海省",
            "city": "黄南藏族自治州",
            "district": "同仁市"
        }
    }
]