[
    {
        "id": "3054194460193214236",
        "title": "公共厕所",
        "address": "湖北省黄石市黄石港区南京路128号",
        "tel": "",
        "category": "基础设施:公共设施:公共厕所",
        "type": 0,
        "location": {
            "lat": 30.210354,
            "lng": 115.089435
        },
        "ad_info": {
            "adcode": 420202,
            "province": "湖北省",
            "city": "黄石市",
            "district": "黄石港区"
        }
    },
    {
        "id": "9036701695222995808",
        "title": "公共厕所",
        "address": "湖北省黄石市大冶市新冶大道与观山路交叉口正北方向102米左右",
        "tel": "",
        "category": "基础设施:公共设施:公共厕所",
        "type": 0,
        "location": {
            "lat": 30.105076,
            "lng": 114.975576
        },
        "ad_info": {
            "adcode": 420281,
            "province": "湖北省",
            "city": "黄石市",
            "district": "大冶市"
        }
    },
    {
        "id": "11898206272375719492",
        "title": "公共厕所",
        "address": "湖北省黄石市下陆区杭州西路9号附3西北方向70米",
        "tel": "",
        "category": "基础设施:公共设施:公共厕所",
        "type": 0,
        "location": {
            "lat": 30.201177,
            "lng": 115.032274
        },
        "ad_info": {
            "adcode": 420204,
            "province": "湖北省",
            "city": "黄石市",
            "district": "下陆区"
        }
    },
    {
        "id": "8650063571360025453",
        "title": "公共厕所",
        "address": "湖北省黄石市黄石港区花径北路与迎宾大道辅路交叉口西南方向85米左右",
        "tel": "",
        "category": "基础设施:公共设施:公共厕所",
        "type": 0,
        "location": {
            "lat": 30.247578,
            "lng": 115.045723
        },
        "ad_info": {
            "adcode": 420202,
            "province": "湖北省",
            "city": "黄石市",
            "district": "黄石港区"
        }
    },
    {
        "id": "17430823844458517718",
        "title": "公共厕所",
        "address": "湖北省黄石市下陆区扬州路与苏州路交叉口正南方向71米左右",
        "tel": "",
        "category": "基础设施:公共设施:公共厕所",
        "type": 0,
        "location": {
            "lat": 30.190083,
            "lng": 115.033088
        },
        "ad_info": {
            "adcode": 420204,
            "province": "湖北省",
            "city": "黄石市",
            "district": "下陆区"
        }
    },
    {
        "id": "8141579963711428152",
        "title": "公共厕所",
        "address": "湖北省黄石市黄石港区朝阳路与纺织二路交叉口西北方向77米左右",
        "tel": "",
        "category": "基础设施:公共设施:公共厕所",
        "type": 0,
        "location": {
            "lat": 30.242824,
            "lng": 115.063544
        },
        "ad_info": {
            "adcode": 420202,
            "province": "湖北省",
            "city": "黄石市",
            "district": "黄石港区"
        }
    },
    {
        "id": "11826644312801808133",
        "title": "公共厕所",
        "address": "湖北省黄石市下陆区杭州西路与白马路交叉口西北方向342米左右",
        "tel": "",
        "category": "基础设施:公共设施:公共厕所",
        "type": 0,
        "location": {
            "lat": 30.200851,
            "lng": 115.017896
        },
        "ad_info": {
            "adcode": 420204,
            "province": "湖北省",
            "city": "黄石市",
            "district": "下陆区"
        }
    },
    {
        "id": "144466049529541442",
        "title": "公共厕所",
        "address": "湖北省黄石市大冶市城西路与开元大道交叉口东南方向78米左右",
        "tel": "",
        "category": "基础设施:公共设施:公共厕所",
        "type": 0,
        "location": {
            "lat": 30.103792,
            "lng": 114.961449
        },
        "ad_info": {
            "adcode": 420281,
            "province": "湖北省",
            "city": "黄石市",
            "district": "大冶市"
        }
    },
    {
        "id": "8284312095499281399",
        "title": "公共厕所",
        "address": "湖北省黄石市铁山区友爱路156-1",
        "tel": "",
        "category": "基础设施:公共设施:公共厕所",
        "type": 0,
        "location": {
            "lat": 30.207899,
            "lng": 114.901529
        },
        "ad_info": {
            "adcode": 420205,
            "province": "湖北省",
            "city": "黄石市",
            "district": "铁山区"
        }
    },
    {
        "id": "2546325792884055647",
        "title": "公共厕所",
        "address": "湖北省黄石市黄石港区万达华府",
        "tel": "",
        "category": "基础设施:公共设施:公共厕所",
        "type": 0,
        "location": {
            "lat": 30.241471,
            "lng": 115.060157
        },
        "ad_info": {
            "adcode": 420202,
            "province": "湖北省",
            "city": "黄石市",
            "district": "黄石港区"
        }
    },
    {
        "id": "16998485311012076416",
        "title": "公共厕所",
        "address": "湖北省黄石市下陆区磁湖韵(湖北理工学院东北)",
        "tel": "",
        "category": "基础设施:公共设施:公共厕所",
        "type": 0,
        "location": {
            "lat": 30.211288,
            "lng": 115.030553
        },
        "ad_info": {
            "adcode": 420204,
            "province": "湖北省",
            "city": "黄石市",
            "district": "下陆区"
        }
    },
    {
        "id": "14888479308483082501",
        "title": "公共厕所",
        "address": "湖北省黄石市大冶市烟草专卖局(汉商广场东风路店南)",
        "tel": "",
        "category": "基础设施:公共设施:公共厕所",
        "type": 0,
        "location": {
            "lat": 30.097127,
            "lng": 114.968252
        },
        "ad_info": {
            "adcode": 420281,
            "province": "湖北省",
            "city": "黄石市",
            "district": "大冶市"
        }
    },
    {
        "id": "7542670090632347994",
        "title": "公共厕所",
        "address": "湖北省黄石市黄石港区交通里7号楼(黄石金花大酒店东北)",
        "tel": "",
        "category": "基础设施:公共设施:公共厕所",
        "type": 0,
        "location": {
            "lat": 30.20828,
            "lng": 115.092837
        },
        "ad_info": {
            "adcode": 420202,
            "province": "湖北省",
            "city": "黄石市",
            "district": "黄石港区"
        }
    },
    {
        "id": "15668490890313870296",
        "title": "公共厕所",
        "address": "湖北省黄石市黄石港区桂花路与磁湖路交叉口正东方向437米左右",
        "tel": "",
        "category": "基础设施:公共设施:公共厕所",
        "type": 0,
        "location": {
            "lat": 30.218604,
            "lng": 115.060649
        },
        "ad_info": {
            "adcode": 420202,
            "province": "湖北省",
            "city": "黄石市",
            "district": "黄石港区"
        }
    },
    {
        "id": "12905282157770704718",
        "title": "公共厕所",
        "address": "湖北省黄石市下陆区伍家洪大道与大泉路交叉口西北方向190米左右",
        "tel": "",
        "category": "基础设施:公共设施:公共厕所",
        "type": 0,
        "location": {
            "lat": 30.211222,
            "lng": 115.008958
        },
        "ad_info": {
            "adcode": 420204,
            "province": "湖北省",
            "city": "黄石市",
            "district": "下陆区"
        }
    },
    {
        "id": "16931249778853272825",
        "title": "公共厕所",
        "address": "湖北省黄石市大冶市建设路与保康巷交叉口西120米",
        "tel": "",
        "category": "基础设施:公共设施:公共厕所",
        "type": 0,
        "location": {
            "lat": 30.092973,
            "lng": 114.973139
        },
        "ad_info": {
            "adcode": 420281,
            "province": "湖北省",
            "city": "黄石市",
            "district": "大冶市"
        }
    },
    {
        "id": "14157711349137602244",
        "title": "公共厕所",
        "address": "湖北省黄石市黄石港区统一街与黄石大道交叉口西南方向122米左右",
        "tel": "",
        "category": "基础设施:公共设施:公共厕所",
        "type": 0,
        "location": {
            "lat": 30.230611,
            "lng": 115.071877
        },
        "ad_info": {
            "adcode": 420202,
            "province": "湖北省",
            "city": "黄石市",
            "district": "黄石港区"
        }
    },
    {
        "id": "11553251202143840386",
        "title": "公共厕所",
        "address": "湖北省黄石市黄石港区五羊巷与黄石大道交叉口正西方向37米左右",
        "tel": "",
        "category": "基础设施:公共设施:公共厕所",
        "type": 0,
        "location": {
            "lat": 30.220313,
            "lng": 115.083232
        },
        "ad_info": {
            "adcode": 420202,
            "province": "湖北省",
            "city": "黄石市",
            "district": "黄石港区"
        }
    },
    {
        "id": "17360762808100724560",
        "title": "公共厕所",
        "address": "湖北省黄石市黄石港区广场路与永安路交叉口正东方向30米左右",
        "tel": "",
        "category": "基础设施:公共设施:公共厕所",
        "type": 0,
        "location": {
            "lat": 30.212417,
            "lng": 115.090901
        },
        "ad_info": {
            "adcode": 420202,
            "province": "湖北省",
            "city": "黄石市",
            "district": "黄石港区"
        }
    },
    {
        "id": "17199854242510820332",
        "title": "公共厕所",
        "address": "湖北省黄石市下陆区广会路与湖锦路交叉口正东方向126米左右",
        "tel": "",
        "category": "基础设施:公共设施:公共厕所",
        "type": 0,
        "location": {
            "lat": 30.196405,
            "lng": 115.042634
        },
        "ad_info": {
            "adcode": 420204,
            "province": "湖北省",
            "city": "黄石市",
            "district": "下陆区"
        }
    },
    {
        "id": "8700026904885106263",
        "title": "公共厕所",
        "address": "湖北省黄石市黄石港区宜黄路5号",
        "tel": "",
        "category": "基础设施:公共设施:公共厕所",
        "type": 0,
        "location": {
            "lat": 30.250335,
            "lng": 115.053095
        },
        "ad_info": {
            "adcode": 420202,
            "province": "湖北省",
            "city": "黄石市",
            "district": "黄石港区"
        }
    },
    {
        "id": "13623127351188923871",
        "title": "公共厕所",
        "address": "湖北省黄石市大冶市大林路与新冶大道交叉口西南方向92米左右",
        "tel": "",
        "category": "基础设施:公共设施:公共厕所",
        "type": 0,
        "location": {
            "lat": 30.112492,
            "lng": 114.974819
        },
        "ad_info": {
            "adcode": 420281,
            "province": "湖北省",
            "city": "黄石市",
            "district": "大冶市"
        }
    },
    {
        "id": "13881864927038683793",
        "title": "公共厕所",
        "address": "湖北省黄石市阳新县古商城支路与古商城路交叉口东北方向78米左右",
        "tel": "",
        "category": "基础设施:公共设施:公共厕所",
        "type": 0,
        "location": {
            "lat": 29.83172,
            "lng": 115.21802
        },
        "ad_info": {
            "adcode": 420222,
            "province": "湖北省",
            "city": "黄石市",
            "district": "阳新县"
        }
    },
    {
        "id": "16279409381071662568",
        "title": "公共厕所",
        "address": "湖北省黄石市黄石港区金港小巷与青山巷交叉口正东方向81米左右",
        "tel": "",
        "category": "基础设施:公共设施:公共厕所",
        "type": 0,
        "location": {
            "lat": 30.237891,
            "lng": 115.068115
        },
        "ad_info": {
            "adcode": 420202,
            "province": "湖北省",
            "city": "黄石市",
            "district": "黄石港区"
        }
    },
    {
        "id": "7484673837417851142",
        "title": "公共厕所",
        "address": "湖北省黄石市大冶市黄狮蟹路与龙头南巷交叉口正北方向20米左右",
        "tel": "",
        "category": "基础设施:公共设施:公共厕所",
        "type": 0,
        "location": {
            "lat": 30.086804,
            "lng": 114.970691
        },
        "ad_info": {
            "adcode": 420281,
            "province": "湖北省",
            "city": "黄石市",
            "district": "大冶市"
        }
    },
    {
        "id": "1075168380781642804",
        "title": "公共厕所",
        "address": "湖北省黄石市黄石港区迎宾大道与黄石大道交叉口正西方向219米左右",
        "tel": "",
        "category": "基础设施:公共设施:公共厕所",
        "type": 0,
        "location": {
            "lat": 30.248274,
            "lng": 115.062684
        },
        "ad_info": {
            "adcode": 420202,
            "province": "湖北省",
            "city": "黄石市",
            "district": "黄石港区"
        }
    },
    {
        "id": "2993675371788290560",
        "title": "公共厕所",
        "address": "湖北省黄石市大冶市栖霞路与长乐大道交叉口正北方向57米左右",
        "tel": "",
        "category": "基础设施:公共设施:公共厕所",
        "type": 0,
        "location": {
            "lat": 30.125522,
            "lng": 114.957945
        },
        "ad_info": {
            "adcode": 420281,
            "province": "湖北省",
            "city": "黄石市",
            "district": "大冶市"
        }
    },
    {
        "id": "6492772449424439945",
        "title": "公共厕所",
        "address": "湖北省黄石市下陆区磁湖路与马鞍山路交叉口西北方向114米左右",
        "tel": "",
        "category": "基础设施:公共设施:公共厕所",
        "type": 0,
        "location": {
            "lat": 30.220102,
            "lng": 115.025313
        },
        "ad_info": {
            "adcode": 420204,
            "province": "湖北省",
            "city": "黄石市",
            "district": "下陆区"
        }
    },
    {
        "id": "12570475942360163163",
        "title": "公共厕所",
        "address": "湖北省黄石市大冶市灵乡大道与灵矿路交叉口正西方向91米左右",
        "tel": "",
        "category": "基础设施:公共设施:公共厕所",
        "type": 0,
        "location": {
            "lat": 30.009069,
            "lng": 114.746599
        },
        "ad_info": {
            "adcode": 420281,
            "province": "湖北省",
            "city": "黄石市",
            "district": "大冶市"
        }
    },
    {
        "id": "9692220062481478258",
        "title": "公共厕所",
        "address": "湖北省黄石市大冶市大冶大道与居民巷交叉口西南方向174米左右",
        "tel": "",
        "category": "基础设施:公共设施:公共厕所",
        "type": 0,
        "location": {
            "lat": 30.093811,
            "lng": 114.96646
        },
        "ad_info": {
            "adcode": 420281,
            "province": "湖北省",
            "city": "黄石市",
            "district": "大冶市"
        }
    },
    {
        "id": "16834553256563373298",
        "title": "公共厕所",
        "address": "湖北省黄石市下陆区东鑫路与老下陆街交叉口正南方向275米左右",
        "tel": "",
        "category": "基础设施:公共设施:公共厕所",
        "type": 0,
        "location": {
            "lat": 30.177544,
            "lng": 114.982744
        },
        "ad_info": {
            "adcode": 420204,
            "province": "湖北省",
            "city": "黄石市",
            "district": "下陆区"
        }
    },
    {
        "id": "4094725166485567242",
        "title": "公共厕所",
        "address": "湖北省黄石市黄石港区广场路45号-5栋-1号",
        "tel": "",
        "category": "基础设施:公共设施:公共厕所",
        "type": 0,
        "location": {
            "lat": 30.212154,
            "lng": 115.089964
        },
        "ad_info": {
            "adcode": 420202,
            "province": "湖北省",
            "city": "黄石市",
            "district": "黄石港区"
        }
    },
    {
        "id": "5491011226389237902",
        "title": "公共厕所",
        "address": "湖北省黄石市黄石港区南京路与广场路交叉口东北方向54米左右",
        "tel": "",
        "category": "基础设施:公共设施:公共厕所",
        "type": 0,
        "location": {
            "lat": 30.212352,
            "lng": 115.09165
        },
        "ad_info": {
            "adcode": 420202,
            "province": "湖北省",
            "city": "黄石市",
            "district": "黄石港区"
        }
    },
    {
        "id": "6674395037466044764",
        "title": "公共厕所",
        "address": "湖北省黄石市铁山区东方山西路2-2号",
        "tel": "",
        "category": "基础设施:公共设施:公共厕所",
        "type": 0,
        "location": {
            "lat": 30.194204,
            "lng": 114.921702
        },
        "ad_info": {
            "adcode": 420205,
            "province": "湖北省",
            "city": "黄石市",
            "district": "铁山区"
        }
    },
    {
        "id": "231176912518256170",
        "title": "公共厕所",
        "address": "湖北省黄石市下陆区惠州路与板城路交叉口东南方向215米左右",
        "tel": "",
        "category": "基础设施:公共设施:公共厕所",
        "type": 0,
        "location": {
            "lat": 30.180789,
            "lng": 115.008564
        },
        "ad_info": {
            "adcode": 420204,
            "province": "湖北省",
            "city": "黄石市",
            "district": "下陆区"
        }
    },
    {
        "id": "3921910646653415743",
        "title": "公共厕所",
        "address": "湖北省黄石市黄石港区桂花路与磁湖路交叉口西南方向99米左右",
        "tel": "",
        "category": "基础设施:公共设施:公共厕所",
        "type": 0,
        "location": {
            "lat": 30.217434,
            "lng": 115.055363
        },
        "ad_info": {
            "adcode": 420202,
            "province": "湖北省",
            "city": "黄石市",
            "district": "黄石港区"
        }
    },
    {
        "id": "5564655847718406462",
        "title": "公共厕所",
        "address": "湖北省黄石市大冶市铜源中路与铜源西路交叉口正北方向748米左右",
        "tel": "",
        "category": "基础设施:公共设施:公共厕所",
        "type": 0,
        "location": {
            "lat": 30.154029,
            "lng": 114.940648
        },
        "ad_info": {
            "adcode": 420281,
            "province": "湖北省",
            "city": "黄石市",
            "district": "大冶市"
        }
    },
    {
        "id": "10165629838290045496",
        "title": "公共厕所",
        "address": "湖北省黄石市大冶市李家桥还建楼西侧490米",
        "tel": "",
        "category": "基础设施:公共设施:公共厕所",
        "type": 0,
        "location": {
            "lat": 30.092566,
            "lng": 114.957845
        },
        "ad_info": {
            "adcode": 420281,
            "province": "湖北省",
            "city": "黄石市",
            "district": "大冶市"
        }
    },
    {
        "id": "9243480138848480068",
        "title": "公共厕所",
        "address": "湖北省黄石市黄石港区天津路与武汉路交叉口正北方向89米左右",
        "tel": "",
        "category": "基础设施:公共设施:公共厕所",
        "type": 0,
        "location": {
            "lat": 30.21479,
            "lng": 115.0846
        },
        "ad_info": {
            "adcode": 420202,
            "province": "湖北省",
            "city": "黄石市",
            "district": "黄石港区"
        }
    },
    {
        "id": "16377494002270613633",
        "title": "公共厕所",
        "address": "湖北省黄石市铁山区东铁公路与光谷大道交叉口正西方向754米左右",
        "tel": "",
        "category": "基础设施:公共设施:公共厕所",
        "type": 0,
        "location": {
            "lat": 30.22876,
            "lng": 114.865856
        },
        "ad_info": {
            "adcode": 420205,
            "province": "湖北省",
            "city": "黄石市",
            "district": "铁山区"
        }
    },
    {
        "id": "9547859065314177672",
        "title": "公共厕所",
        "address": "湖北省黄石市大冶市北门路与徐家垴巷交叉口正东方向33米左右",
        "tel": "",
        "category": "基础设施:公共设施:公共厕所",
        "type": 0,
        "location": {
            "lat": 30.088693,
            "lng": 114.972629
        },
        "ad_info": {
            "adcode": 420281,
            "province": "湖北省",
            "city": "黄石市",
            "district": "大冶市"
        }
    },
    {
        "id": "6189127118795509716",
        "title": "公共厕所",
        "address": "湖北省黄石市大冶市保安大道与盛家巷交叉口东北方向87米左右",
        "tel": "",
        "category": "基础设施:公共设施:公共厕所",
        "type": 0,
        "location": {
            "lat": 30.171273,
            "lng": 114.741174
        },
        "ad_info": {
            "adcode": 420281,
            "province": "湖北省",
            "city": "黄石市",
            "district": "大冶市"
        }
    },
    {
        "id": "15678439332390741776",
        "title": "公共厕所",
        "address": "湖北省黄石市大冶市铜绿山路25号",
        "tel": "",
        "category": "基础设施:公共设施:公共厕所",
        "type": 0,
        "location": {
            "lat": 30.06908,
            "lng": 114.946538
        },
        "ad_info": {
            "adcode": 420281,
            "province": "湖北省",
            "city": "黄石市",
            "district": "大冶市"
        }
    },
    {
        "id": "2624981587689686793",
        "title": "公共厕所",
        "address": "湖北省黄石市大冶市学府路与贵洪路交叉口正西方向84米左右",
        "tel": "",
        "category": "基础设施:公共设施:公共厕所",
        "type": 0,
        "location": {
            "lat": 30.053526,
            "lng": 114.813473
        },
        "ad_info": {
            "adcode": 420281,
            "province": "湖北省",
            "city": "黄石市",
            "district": "大冶市"
        }
    },
    {
        "id": "16789873919225095755",
        "title": "公共厕所",
        "address": "湖北省黄石市西塞山区沿湖路与颐阳路交叉口正东方向123米左右",
        "tel": "",
        "category": "基础设施:公共设施:公共厕所",
        "type": 0,
        "location": {
            "lat": 30.200379,
            "lng": 115.07726
        },
        "ad_info": {
            "adcode": 420203,
            "province": "湖北省",
            "city": "黄石市",
            "district": "西塞山区"
        }
    },
    {
        "id": "6340458644098711939",
        "title": "公共厕所",
        "address": "湖北省黄石市下陆区伍家洪大道与站前路交叉口东北方向196米左右",
        "tel": "",
        "category": "基础设施:公共设施:公共厕所",
        "type": 0,
        "location": {
            "lat": 30.211115,
            "lng": 115.008243
        },
        "ad_info": {
            "adcode": 420204,
            "province": "湖北省",
            "city": "黄石市",
            "district": "下陆区"
        }
    },
    {
        "id": "8410030105037402271",
        "title": "公共厕所",
        "address": "湖北省黄石市大冶市大冶大道与日杂巷交叉口东南方向32米左右",
        "tel": "",
        "category": "基础设施:公共设施:公共厕所",
        "type": 0,
        "location": {
            "lat": 30.08304,
            "lng": 114.968903
        },
        "ad_info": {
            "adcode": 420281,
            "province": "湖北省",
            "city": "黄石市",
            "district": "大冶市"
        }
    },
    {
        "id": "6956920551942150864",
        "title": "公共厕所",
        "address": "湖北省黄石市下陆区磁湖路154号",
        "tel": "",
        "category": "基础设施:公共设施:公共厕所",
        "type": 0,
        "location": {
            "lat": 30.203027,
            "lng": 115.011561
        },
        "ad_info": {
            "adcode": 420204,
            "province": "湖北省",
            "city": "黄石市",
            "district": "下陆区"
        }
    },
    {
        "id": "17299491113851622456",
        "title": "公共厕所",
        "address": "湖北省黄石市黄石港区情人路17号",
        "tel": "",
        "category": "基础设施:公共设施:公共厕所",
        "type": 0,
        "location": {
            "lat": 30.215307,
            "lng": 115.073045
        },
        "ad_info": {
            "adcode": 420202,
            "province": "湖北省",
            "city": "黄石市",
            "district": "黄石港区"
        }
    },
    {
        "id": "3081140928421008800",
        "title": "公共厕所",
        "address": "湖北省黄石市下陆区爱民路与磁湖路交叉口东北方向39米左右",
        "tel": "",
        "category": "基础设施:公共设施:公共厕所",
        "type": 0,
        "location": {
            "lat": 30.220988,
            "lng": 115.029067
        },
        "ad_info": {
            "adcode": 420204,
            "province": "湖北省",
            "city": "黄石市",
            "district": "下陆区"
        }
    },
    {
        "id": "2540250123604417315",
        "title": "公共厕所",
        "address": "湖北省黄石市大冶市大冶大道60-2号",
        "tel": "",
        "category": "基础设施:公共设施:公共厕所",
        "type": 0,
        "location": {
            "lat": 30.090206,
            "lng": 114.969827
        },
        "ad_info": {
            "adcode": 420281,
            "province": "湖北省",
            "city": "黄石市",
            "district": "大冶市"
        }
    },
    {
        "id": "18276951085807672427",
        "title": "公共卫生间",
        "address": "湖北省黄石市大冶市城西路与李家桥路交叉口正北方向168米左右",
        "tel": "",
        "category": "基础设施:公共设施:公共厕所",
        "type": 0,
        "location": {
            "lat": 30.09179,
            "lng": 114.965247
        },
        "ad_info": {
            "adcode": 420281,
            "province": "湖北省",
            "city": "黄石市",
            "district": "大冶市"
        }
    },
    {
        "id": "11318006620530982506",
        "title": "公共厕所",
        "address": "湖北省黄石市下陆区翰林庄路与长乐大道交叉口正南方向24米左右",
        "tel": "",
        "category": "基础设施:公共设施:公共厕所",
        "type": 0,
        "location": {
            "lat": 30.168448,
            "lng": 114.943014
        },
        "ad_info": {
            "adcode": 420204,
            "province": "湖北省",
            "city": "黄石市",
            "district": "下陆区"
        }
    },
    {
        "id": "11580404568810726951",
        "title": "公共厕所",
        "address": "湖北省黄石市阳新县安达路与迎宾大道交叉口正东方向82米左右",
        "tel": "",
        "category": "基础设施:公共设施:公共厕所",
        "type": 0,
        "location": {
            "lat": 29.865579,
            "lng": 115.185308
        },
        "ad_info": {
            "adcode": 420222,
            "province": "湖北省",
            "city": "黄石市",
            "district": "阳新县"
        }
    },
    {
        "id": "2913399056130812898",
        "title": "公共厕所",
        "address": "湖北省黄石市大冶市中国石化铜录山加油站(金湖派出所东北)东侧160米",
        "tel": "",
        "category": "基础设施:公共设施:公共厕所",
        "type": 0,
        "location": {
            "lat": 30.070351,
            "lng": 114.952669
        },
        "ad_info": {
            "adcode": 420281,
            "province": "湖北省",
            "city": "黄石市",
            "district": "大冶市"
        }
    },
    {
        "id": "12087624863731896989",
        "title": "公共厕所",
        "address": "湖北省黄石市大冶市陈茗路与陈贵大道交叉口正南方向7米左右",
        "tel": "",
        "category": "基础设施:公共设施:公共厕所",
        "type": 0,
        "location": {
            "lat": 30.054851,
            "lng": 114.813511
        },
        "ad_info": {
            "adcode": 420281,
            "province": "湖北省",
            "city": "黄石市",
            "district": "大冶市"
        }
    },
    {
        "id": "17655500994724446471",
        "title": "公共厕所",
        "address": "湖北省黄石市铁山区东方山西路与铜鼓大道交叉口西北方向587米左右",
        "tel": "",
        "category": "基础设施:公共设施:公共厕所",
        "type": 0,
        "location": {
            "lat": 30.198857,
            "lng": 114.916804
        },
        "ad_info": {
            "adcode": 420205,
            "province": "湖北省",
            "city": "黄石市",
            "district": "铁山区"
        }
    },
    {
        "id": "6009016329261297805",
        "title": "公共厕所",
        "address": "湖北省黄石市大冶市兴成路与学府路交叉口正东方向408米左右",
        "tel": "",
        "category": "基础设施:公共设施:公共厕所",
        "type": 0,
        "location": {
            "lat": 30.059396,
            "lng": 114.825085
        },
        "ad_info": {
            "adcode": 420281,
            "province": "湖北省",
            "city": "黄石市",
            "district": "大冶市"
        }
    },
    {
        "id": "16623699016549308413",
        "title": "公共厕所",
        "address": "湖北省黄石市大冶市大冶开小灶鱼庄西北侧60米",
        "tel": "",
        "category": "基础设施:公共设施:公共厕所",
        "type": 0,
        "location": {
            "lat": 30.105807,
            "lng": 114.956013
        },
        "ad_info": {
            "adcode": 420281,
            "province": "湖北省",
            "city": "黄石市",
            "district": "大冶市"
        }
    },
    {
        "id": "6834203826929599081",
        "title": "公共厕所",
        "address": "湖北省黄石市阳新县106国道与G45大广高速入口交叉口南50米",
        "tel": "",
        "category": "基础设施:公共设施:公共厕所",
        "type": 0,
        "location": {
            "lat": 29.600078,
            "lng": 114.943439
        },
        "ad_info": {
            "adcode": 420222,
            "province": "湖北省",
            "city": "黄石市",
            "district": "阳新县"
        }
    },
    {
        "id": "9913552723394205024",
        "title": "公共厕所",
        "address": "湖北省黄石市大冶市S314与铁贺大道交叉口正东方向121米左右",
        "tel": "",
        "category": "基础设施:公共设施:公共厕所",
        "type": 0,
        "location": {
            "lat": 30.204251,
            "lng": 114.87392
        },
        "ad_info": {
            "adcode": 420281,
            "province": "湖北省",
            "city": "黄石市",
            "district": "大冶市"
        }
    },
    {
        "id": "1672956597725200728",
        "title": "公共厕所",
        "address": "湖北省黄石市黄石港区五羊巷与黄石大道交叉口正北方向114米左右",
        "tel": "",
        "category": "基础设施:公共设施:公共厕所",
        "type": 0,
        "location": {
            "lat": 30.221451,
            "lng": 115.083626
        },
        "ad_info": {
            "adcode": 420202,
            "province": "湖北省",
            "city": "黄石市",
            "district": "黄石港区"
        }
    },
    {
        "id": "4659838931013831625",
        "title": "公共厕所",
        "address": "湖北省黄石市大冶市金桥三路与金桥大道交叉口正西方向594米左右",
        "tel": "",
        "category": "基础设施:公共设施:公共厕所",
        "type": 0,
        "location": {
            "lat": 30.15338,
            "lng": 114.942814
        },
        "ad_info": {
            "adcode": 420281,
            "province": "湖北省",
            "city": "黄石市",
            "district": "大冶市"
        }
    },
    {
        "id": "3813996025042997347",
        "title": "公共厕所",
        "address": "湖北省黄石市黄石港区黄石大道176号",
        "tel": "",
        "category": "基础设施:公共设施:公共厕所",
        "type": 0,
        "location": {
            "lat": 30.214488,
            "lng": 115.090939
        },
        "ad_info": {
            "adcode": 420202,
            "province": "湖北省",
            "city": "黄石市",
            "district": "黄石港区"
        }
    },
    {
        "id": "17797918019381040553",
        "title": "公共厕所",
        "address": "湖北省黄石市西塞山区和平街与新建路交叉口正南方向64米左右",
        "tel": "",
        "category": "基础设施:公共设施:公共厕所",
        "type": 0,
        "location": {
            "lat": 30.209083,
            "lng": 115.101604
        },
        "ad_info": {
            "adcode": 420203,
            "province": "湖北省",
            "city": "黄石市",
            "district": "西塞山区"
        }
    },
    {
        "id": "8334526599046875264",
        "title": "公共厕所",
        "address": "湖北省黄石市阳新县S112与振兴大道交叉口正西方向110米左右",
        "tel": "",
        "category": "基础设施:公共设施:公共厕所",
        "type": 0,
        "location": {
            "lat": 30.012326,
            "lng": 115.32685
        },
        "ad_info": {
            "adcode": 420222,
            "province": "湖北省",
            "city": "黄石市",
            "district": "阳新县"
        }
    },
    {
        "id": "7594293083003296221",
        "title": "公共厕所",
        "address": "湖北省黄石市黄石港区挹江北路与沿江大道交叉口东南方向112米左右",
        "tel": "",
        "category": "基础设施:公共设施:公共厕所",
        "type": 0,
        "location": {
            "lat": 30.219126,
            "lng": 115.087443
        },
        "ad_info": {
            "adcode": 420202,
            "province": "湖北省",
            "city": "黄石市",
            "district": "黄石港区"
        }
    },
    {
        "id": "5865820958403288213",
        "title": "公共厕所",
        "address": "湖北省黄石市黄石港区情人路与杭州东路交叉口西北方向137米左右",
        "tel": "",
        "category": "基础设施:公共设施:公共厕所",
        "type": 0,
        "location": {
            "lat": 30.211735,
            "lng": 115.078322
        },
        "ad_info": {
            "adcode": 420202,
            "province": "湖北省",
            "city": "黄石市",
            "district": "黄石港区"
        }
    },
    {
        "id": "5812829085899243266",
        "title": "公共厕所",
        "address": "湖北省黄石市西塞山区太子湾路与沿湖路交叉口东北方向53米左右",
        "tel": "",
        "category": "基础设施:公共设施:公共厕所",
        "type": 0,
        "location": {
            "lat": 30.201819,
            "lng": 115.083989
        },
        "ad_info": {
            "adcode": 420203,
            "province": "湖北省",
            "city": "黄石市",
            "district": "西塞山区"
        }
    },
    {
        "id": "17641144855180301338",
        "title": "公共厕所",
        "address": "湖北省黄石市铁山区松山路与铁贺大道交叉口正东方向270米左右",
        "tel": "",
        "category": "基础设施:公共设施:公共厕所",
        "type": 0,
        "location": {
            "lat": 30.200155,
            "lng": 114.884184
        },
        "ad_info": {
            "adcode": 420205,
            "province": "湖北省",
            "city": "黄石市",
            "district": "铁山区"
        }
    },
    {
        "id": "16609380581073949687",
        "title": "公共厕所",
        "address": "湖北省黄石市阳新县G351与S413交叉口西南方向118米左右",
        "tel": "",
        "category": "基础设施:公共设施:公共厕所",
        "type": 0,
        "location": {
            "lat": 29.81959,
            "lng": 114.942839
        },
        "ad_info": {
            "adcode": 420222,
            "province": "湖北省",
            "city": "黄石市",
            "district": "阳新县"
        }
    },
    {
        "id": "13161237874497790238",
        "title": "公共厕所",
        "address": "湖北省黄石市黄石港区花山路与花湖路交叉口正南方向233米左右",
        "tel": "",
        "category": "基础设施:公共设施:公共厕所",
        "type": 0,
        "location": {
            "lat": 30.23819,
            "lng": 115.047459
        },
        "ad_info": {
            "adcode": 420202,
            "province": "湖北省",
            "city": "黄石市",
            "district": "黄石港区"
        }
    },
    {
        "id": "8502935028748516620",
        "title": "公共厕所",
        "address": "湖北省黄石市阳新县小康大道与枫林大道交叉口正西方向800米左右",
        "tel": "",
        "category": "基础设施:公共设施:公共厕所",
        "type": 0,
        "location": {
            "lat": 29.764107,
            "lng": 115.389304
        },
        "ad_info": {
            "adcode": 420222,
            "province": "湖北省",
            "city": "黄石市",
            "district": "阳新县"
        }
    },
    {
        "id": "7287090314088926369",
        "title": "公共厕所",
        "address": "湖北省黄石市下陆区广会路10东南方向180米",
        "tel": "",
        "category": "基础设施:公共设施:公共厕所",
        "type": 0,
        "location": {
            "lat": 30.193433,
            "lng": 115.041434
        },
        "ad_info": {
            "adcode": 420204,
            "province": "湖北省",
            "city": "黄石市",
            "district": "下陆区"
        }
    },
    {
        "id": "2195571296656058335",
        "title": "公共厕所",
        "address": "湖北省黄石市大冶市G106与大箕铺大道交叉口东北方向54米左右",
        "tel": "",
        "category": "基础设施:公共设施:公共厕所",
        "type": 0,
        "location": {
            "lat": 30.025325,
            "lng": 115.026447
        },
        "ad_info": {
            "adcode": 420281,
            "province": "湖北省",
            "city": "黄石市",
            "district": "大冶市"
        }
    },
    {
        "id": "9078765021144482647",
        "title": "公共厕所",
        "address": "湖北省黄石市大冶市陈贵镇",
        "tel": "",
        "category": "基础设施:公共设施:公共厕所",
        "type": 0,
        "location": {
            "lat": 29.993004,
            "lng": 114.799401
        },
        "ad_info": {
            "adcode": 420281,
            "province": "湖北省",
            "city": "黄石市",
            "district": "大冶市"
        }
    },
    {
        "id": "10130786441071071842",
        "title": "公共厕所",
        "address": "湖北省黄石市大冶市Y062与学府路交叉口正西方向54米左右",
        "tel": "",
        "category": "基础设施:公共设施:公共厕所",
        "type": 0,
        "location": {
            "lat": 30.05217,
            "lng": 114.806501
        },
        "ad_info": {
            "adcode": 420281,
            "province": "湖北省",
            "city": "黄石市",
            "district": "大冶市"
        }
    },
    {
        "id": "17618175910295855055",
        "title": "公共厕所",
        "address": "湖北省黄石市西塞山区朱家嘴路与沿湖路交叉口正北方向255米左右",
        "tel": "",
        "category": "基础设施:公共设施:公共厕所",
        "type": 0,
        "location": {
            "lat": 30.196797,
            "lng": 115.065736
        },
        "ad_info": {
            "adcode": 420203,
            "province": "湖北省",
            "city": "黄石市",
            "district": "西塞山区"
        }
    },
    {
        "id": "4139936523964134009",
        "title": "公共厕所",
        "address": "湖北省黄石市阳新县古商城路与富池路交叉口东南方向75米左右",
        "tel": "",
        "category": "基础设施:公共设施:公共厕所",
        "type": 0,
        "location": {
            "lat": 29.83076,
            "lng": 115.218338
        },
        "ad_info": {
            "adcode": 420222,
            "province": "湖北省",
            "city": "黄石市",
            "district": "阳新县"
        }
    },
    {
        "id": "3680221465866021830",
        "title": "公共厕所",
        "address": "湖北省黄石市西塞山区拥军路与枣子山路交叉口正南方向170米左右",
        "tel": "",
        "category": "基础设施:公共设施:公共厕所",
        "type": 0,
        "location": {
            "lat": 30.196025,
            "lng": 115.074713
        },
        "ad_info": {
            "adcode": 420203,
            "province": "湖北省",
            "city": "黄石市",
            "district": "西塞山区"
        }
    },
    {
        "id": "6888833162663509231",
        "title": "公共厕所",
        "address": "湖北省黄石市大冶市古奇村高空玻璃漂流七彩滑道西南侧",
        "tel": "",
        "category": "基础设施:公共设施:公共厕所",
        "type": 0,
        "location": {
            "lat": 30.024387,
            "lng": 114.978605
        },
        "ad_info": {
            "adcode": 420281,
            "province": "湖北省",
            "city": "黄石市",
            "district": "大冶市"
        }
    },
    {
        "id": "17591372272074810548",
        "title": "公共厕所",
        "address": "湖北省黄石市大冶市儒学路与大冶大道交叉口西北方向163米左右",
        "tel": "",
        "category": "基础设施:公共设施:公共厕所",
        "type": 0,
        "location": {
            "lat": 30.085469,
            "lng": 114.967709
        },
        "ad_info": {
            "adcode": 420281,
            "province": "湖北省",
            "city": "黄石市",
            "district": "大冶市"
        }
    },
    {
        "id": "10374251694590867120",
        "title": "公共厕所",
        "address": "湖北省黄石市大冶市儒学路与大冶大道交叉口正东方向58米左右",
        "tel": "",
        "category": "基础设施:公共设施:公共厕所",
        "type": 0,
        "location": {
            "lat": 30.084104,
            "lng": 114.968996
        },
        "ad_info": {
            "adcode": 420281,
            "province": "湖北省",
            "city": "黄石市",
            "district": "大冶市"
        }
    },
    {
        "id": "5402401689093803060",
        "title": "公共厕所",
        "address": "湖北省黄石市阳新县梁兴大道与白沙街交叉口西北方向122米左右",
        "tel": "",
        "category": "基础设施:公共设施:公共厕所",
        "type": 0,
        "location": {
            "lat": 29.964055,
            "lng": 115.063541
        },
        "ad_info": {
            "adcode": 420222,
            "province": "湖北省",
            "city": "黄石市",
            "district": "阳新县"
        }
    },
    {
        "id": "2533138218250275702",
        "title": "公共厕所",
        "address": "湖北省黄石市大冶市G316与S315交叉口正西方向67米左右",
        "tel": "",
        "category": "基础设施:公共设施:公共厕所",
        "type": 0,
        "location": {
            "lat": 30.066397,
            "lng": 114.847064
        },
        "ad_info": {
            "adcode": 420281,
            "province": "湖北省",
            "city": "黄石市",
            "district": "大冶市"
        }
    },
    {
        "id": "2630572625955393631",
        "title": "公共厕所",
        "address": "湖北省黄石市铁山区张之洞大道30-1号",
        "tel": "",
        "category": "基础设施:公共设施:公共厕所",
        "type": 0,
        "location": {
            "lat": 30.214068,
            "lng": 114.896056
        },
        "ad_info": {
            "adcode": 420205,
            "province": "湖北省",
            "city": "黄石市",
            "district": "铁山区"
        }
    },
    {
        "id": "9165243571866753422",
        "title": "公共厕所",
        "address": "湖北省黄石市黄石港区兴港大道与江北大道交叉口西南方向213米左右",
        "tel": "",
        "category": "基础设施:公共设施:公共厕所",
        "type": 0,
        "location": {
            "lat": 30.23604,
            "lng": 115.14829
        },
        "ad_info": {
            "adcode": 420202,
            "province": "湖北省",
            "city": "黄石市",
            "district": "黄石港区"
        }
    },
    {
        "id": "2905712149560880401",
        "title": "公共厕所",
        "address": "湖北省黄石市下陆区沿湖路与谈山隧道北连接线立交桥交叉口正东方向314米左右",
        "tel": "",
        "category": "基础设施:公共设施:公共厕所",
        "type": 0,
        "location": {
            "lat": 30.179675,
            "lng": 114.993059
        },
        "ad_info": {
            "adcode": 420204,
            "province": "湖北省",
            "city": "黄石市",
            "district": "下陆区"
        }
    },
    {
        "id": "17852349242000621762",
        "title": "公共厕所",
        "address": "湖北省黄石市阳新县五夫园休闲中心厕所",
        "tel": "",
        "category": "基础设施:公共设施:公共厕所",
        "type": 0,
        "location": {
            "lat": 29.74641,
            "lng": 115.045064
        },
        "ad_info": {
            "adcode": 420222,
            "province": "湖北省",
            "city": "黄石市",
            "district": "阳新县"
        }
    },
    {
        "id": "1290794626821368257",
        "title": "公共厕所",
        "address": "湖北省黄石市阳新县兴业大道与王家坪路交叉口正东方向406米左右",
        "tel": "",
        "category": "基础设施:公共设施:公共厕所",
        "type": 0,
        "location": {
            "lat": 29.877309,
            "lng": 115.178956
        },
        "ad_info": {
            "adcode": 420222,
            "province": "湖北省",
            "city": "黄石市",
            "district": "阳新县"
        }
    },
    {
        "id": "17742661324752406618",
        "title": "公共厕所",
        "address": "湖北省黄石市大冶市大箕铺大道与腾龙大道交叉口东南方向1005米左右",
        "tel": "",
        "category": "基础设施:公共设施:公共厕所",
        "type": 0,
        "location": {
            "lat": 30.042844,
            "lng": 115.015497
        },
        "ad_info": {
            "adcode": 420281,
            "province": "湖北省",
            "city": "黄石市",
            "district": "大冶市"
        }
    },
    {
        "id": "4534543542978820478",
        "title": "公共厕所",
        "address": "湖北省黄石市西塞山区黄石大道746号",
        "tel": "",
        "category": "基础设施:公共设施:公共厕所",
        "type": 0,
        "location": {
            "lat": 30.187475,
            "lng": 115.20852
        },
        "ad_info": {
            "adcode": 420203,
            "province": "湖北省",
            "city": "黄石市",
            "district": "西塞山区"
        }
    },
    {
        "id": "5134706524224859975",
        "title": "公共厕所",
        "address": "湖北省黄石市黄石港区湖滨大道与滨湖路交叉口西南方向654米左右",
        "tel": "",
        "category": "基础设施:公共设施:公共厕所",
        "type": 0,
        "location": {
            "lat": 30.226998,
            "lng": 115.048929
        },
        "ad_info": {
            "adcode": 420202,
            "province": "湖北省",
            "city": "黄石市",
            "district": "黄石港区"
        }
    },
    {
        "id": "14414396654301299448",
        "title": "公共厕所",
        "address": "湖北省黄石市西塞山区黄石大道502号附1号",
        "tel": "",
        "category": "基础设施:公共设施:公共厕所",
        "type": 0,
        "location": {
            "lat": 30.198144,
            "lng": 115.14658
        },
        "ad_info": {
            "adcode": 420203,
            "province": "湖北省",
            "city": "黄石市",
            "district": "西塞山区"
        }
    },
    {
        "id": "743464408258037995",
        "title": "公共厕所",
        "address": "湖北省黄石市阳新县317省道与G45大广高速出口交叉口西南150米",
        "tel": "",
        "category": "基础设施:公共设施:公共厕所",
        "type": 0,
        "location": {
            "lat": 29.827766,
            "lng": 114.966489
        },
        "ad_info": {
            "adcode": 420222,
            "province": "湖北省",
            "city": "黄石市",
            "district": "阳新县"
        }
    },
    {
        "id": "8811335729233729344",
        "title": "公共厕所",
        "address": "湖北省黄石市西塞山区射击馆路与牧羊湖路交叉口正南方向526米左右",
        "tel": "",
        "category": "基础设施:公共设施:公共厕所",
        "type": 0,
        "location": {
            "lat": 30.189332,
            "lng": 115.071846
        },
        "ad_info": {
            "adcode": 420203,
            "province": "湖北省",
            "city": "黄石市",
            "district": "西塞山区"
        }
    },
    {
        "id": "14996170954129818776",
        "title": "公共厕所",
        "address": "湖北省黄石市西塞山区沿湖路769号附1号",
        "tel": "",
        "category": "基础设施:公共设施:公共厕所",
        "type": 0,
        "location": {
            "lat": 30.202677,
            "lng": 115.086362
        },
        "ad_info": {
            "adcode": 420203,
            "province": "湖北省",
            "city": "黄石市",
            "district": "西塞山区"
        }
    },
    {
        "id": "55313569266058403",
        "title": "公共厕所",
        "address": "湖北省黄石市西塞山区太子湾路与沿湖路交叉口正北方向73米左右",
        "tel": "",
        "category": "基础设施:公共设施:公共厕所",
        "type": 0,
        "location": {
            "lat": 30.20216,
            "lng": 115.083804
        },
        "ad_info": {
            "adcode": 420203,
            "province": "湖北省",
            "city": "黄石市",
            "district": "西塞山区"
        }
    },
    {
        "id": "18282343281960312033",
        "title": "公共厕所",
        "address": "湖北省黄石市西塞山区新建区路与黄石大道交叉口正南方向145米左右",
        "tel": "",
        "category": "基础设施:公共设施:公共厕所",
        "type": 0,
        "location": {
            "lat": 30.198598,
            "lng": 115.125317
        },
        "ad_info": {
            "adcode": 420203,
            "province": "湖北省",
            "city": "黄石市",
            "district": "西塞山区"
        }
    },
    {
        "id": "16035507593833206222",
        "title": "公共厕所",
        "address": "湖北省黄石市西塞山区颐阳路与香海湾巷交叉口东南方向161米左右",
        "tel": "",
        "category": "基础设施:公共设施:公共厕所",
        "type": 0,
        "location": {
            "lat": 30.205202,
            "lng": 115.094111
        },
        "ad_info": {
            "adcode": 420203,
            "province": "湖北省",
            "city": "黄石市",
            "district": "西塞山区"
        }
    },
    {
        "id": "10980369714143669229",
        "title": "公共厕所",
        "address": "湖北省黄石市西塞山区南北路与苗圃路交叉口东北方向149米左右",
        "tel": "",
        "category": "基础设施:公共设施:公共厕所",
        "type": 0,
        "location": {
            "lat": 30.185629,
            "lng": 115.056579
        },
        "ad_info": {
            "adcode": 420203,
            "province": "湖北省",
            "city": "黄石市",
            "district": "西塞山区"
        }
    },
    {
        "id": "16125168406564953006",
        "title": "公共厕所",
        "address": "湖北省黄石市大冶市二棉巷与罗家桥大道交叉口正西方向97米左右",
        "tel": "",
        "category": "基础设施:公共设施:公共厕所",
        "type": 0,
        "location": {
            "lat": 30.142188,
            "lng": 114.962599
        },
        "ad_info": {
            "adcode": 420281,
            "province": "湖北省",
            "city": "黄石市",
            "district": "大冶市"
        }
    },
    {
        "id": "8120549690281354591",
        "title": "公共厕所",
        "address": "湖北省黄石市黄石港区磁湖路58号-1栋-副1号",
        "tel": "",
        "category": "基础设施:公共设施:公共厕所",
        "type": 0,
        "location": {
            "lat": 30.222734,
            "lng": 115.066511
        },
        "ad_info": {
            "adcode": 420202,
            "province": "湖北省",
            "city": "黄石市",
            "district": "黄石港区"
        }
    },
    {
        "id": "12407496233278689451",
        "title": "无障碍公共厕所",
        "address": "湖北省黄石市铁山区九龙园巷与创业路交叉口西北方向16米左右",
        "tel": "",
        "category": "基础设施:公共设施:公共厕所",
        "type": 0,
        "location": {
            "lat": 30.212446,
            "lng": 114.896595
        },
        "ad_info": {
            "adcode": 420205,
            "province": "湖北省",
            "city": "黄石市",
            "district": "铁山区"
        }
    },
    {
        "id": "13480743487015813749",
        "title": "无障碍公共厕所",
        "address": "湖北省黄石市下陆区南村路与玉泉巷交叉口东南方向27米左右",
        "tel": "",
        "category": "基础设施:公共设施:公共厕所",
        "type": 0,
        "location": {
            "lat": 30.169525,
            "lng": 114.950804
        },
        "ad_info": {
            "adcode": 420204,
            "province": "湖北省",
            "city": "黄石市",
            "district": "下陆区"
        }
    },
    {
        "id": "3550567140417716387",
        "title": "无障碍公共厕所",
        "address": "湖北省黄石市大冶市港南路与育才路交叉口东南方向117米左右",
        "tel": "",
        "category": "基础设施:公共设施:公共厕所",
        "type": 0,
        "location": {
            "lat": 30.207728,
            "lng": 114.832592
        },
        "ad_info": {
            "adcode": 420281,
            "province": "湖北省",
            "city": "黄石市",
            "district": "大冶市"
        }
    },
    {
        "id": "238537613987422056",
        "title": "中国农业银行公共厕所",
        "address": "湖北省黄石市下陆区杭州西路与柯尔山东路交叉口东南方向30米左右",
        "tel": "",
        "category": "基础设施:公共设施:公共厕所",
        "type": 0,
        "location": {
            "lat": 30.198887,
            "lng": 115.034752
        },
        "ad_info": {
            "adcode": 420204,
            "province": "湖北省",
            "city": "黄石市",
            "district": "下陆区"
        }
    },
    {
        "id": "8050654809520603129",
        "title": "湖滨路绿化长廊公共厕所",
        "address": "湖北省黄石市黄石港区湖滨大道辅路与杭州东路交叉口西北260米",
        "tel": "",
        "category": "基础设施:公共设施:公共厕所",
        "type": 0,
        "location": {
            "lat": 30.21438,
            "lng": 115.08052
        },
        "ad_info": {
            "adcode": 420202,
            "province": "湖北省",
            "city": "黄石市",
            "district": "黄石港区"
        }
    },
    {
        "id": "17002202299539894381",
        "title": "公共厕所",
        "address": "湖北省黄石市黄石港区信息巷19号附3号",
        "tel": "",
        "category": "基础设施:公共设施:公共厕所",
        "type": 0,
        "location": {
            "lat": 30.21453,
            "lng": 115.087521
        },
        "ad_info": {
            "adcode": 420202,
            "province": "湖北省",
            "city": "黄石市",
            "district": "黄石港区"
        }
    },
    {
        "id": "4417200015618459378",
        "title": "金花大酒店-洗手间",
        "address": "湖北省黄石市黄石港区颐阳路248号金花大酒店3楼(近交通路步行街)",
        "tel": "",
        "category": "基础设施:公共设施:公共厕所",
        "type": 0,
        "location": {
            "lat": 30.206223,
            "lng": 115.091702
        },
        "ad_info": {
            "adcode": 420202,
            "province": "湖北省",
            "city": "黄石市",
            "district": "黄石港区"
        }
    },
    {
        "id": "8308475034837186387",
        "title": "大冶雷山温泉度假村-公共厕所",
        "address": "湖北省黄石市大冶市陈贵镇雷山风景区",
        "tel": "",
        "category": "基础设施:公共设施:公共厕所",
        "type": 0,
        "location": {
            "lat": 30.032295,
            "lng": 114.80102
        },
        "ad_info": {
            "adcode": 420281,
            "province": "湖北省",
            "city": "黄石市",
            "district": "大冶市"
        }
    },
    {
        "id": "685645453105517756",
        "title": "大冶服务区公共厕所",
        "address": "湖北省黄石市大冶市中国石化大冶服务区东加油站南侧160米",
        "tel": "",
        "category": "基础设施:公共设施:公共厕所",
        "type": 0,
        "location": {
            "lat": 30.123956,
            "lng": 114.915322
        },
        "ad_info": {
            "adcode": 420281,
            "province": "湖北省",
            "city": "黄石市",
            "district": "大冶市"
        }
    },
    {
        "id": "15547904987514478773",
        "title": "沼山风景区公共厕所",
        "address": "湖北省黄石市大冶市沼山风景区·同心园西侧130米",
        "tel": "",
        "category": "基础设施:公共设施:公共厕所",
        "type": 0,
        "location": {
            "lat": 30.141547,
            "lng": 114.722187
        },
        "ad_info": {
            "adcode": 420281,
            "province": "湖北省",
            "city": "黄石市",
            "district": "大冶市"
        }
    },
    {
        "id": "17312144020445594166",
        "title": "排市服务区第二公共厕所",
        "address": "湖北省黄石市阳新县S356与下桥二桥交叉口正北方向231米左右",
        "tel": "",
        "category": "基础设施:公共设施:公共厕所",
        "type": 0,
        "location": {
            "lat": 29.714298,
            "lng": 115.120373
        },
        "ad_info": {
            "adcode": 420222,
            "province": "湖北省",
            "city": "黄石市",
            "district": "阳新县"
        }
    },
    {
        "id": "7349694048805777417",
        "title": "男洗手间",
        "address": "湖北省黄石市黄石港区黄石大道209号大金新百F2",
        "tel": "",
        "category": "基础设施:公共设施:男洗手间",
        "type": 0,
        "location": {
            "lat": 30.213526,
            "lng": 115.090395
        },
        "ad_info": {
            "adcode": 420202,
            "province": "湖北省",
            "city": "黄石市",
            "district": "黄石港区"
        }
    },
    {
        "id": "14329990299548333218",
        "title": "男洗手间",
        "address": "湖北省黄石市大冶市新冶大道38号大冶雨润中央商场F7",
        "tel": "",
        "category": "基础设施:公共设施:男洗手间",
        "type": 0,
        "location": {
            "lat": 30.109325,
            "lng": 114.975926
        },
        "ad_info": {
            "adcode": 420281,
            "province": "湖北省",
            "city": "黄石市",
            "district": "大冶市"
        }
    },
    {
        "id": "9284689151677439122",
        "title": "女洗手间",
        "address": "湖北省黄石市大冶市新冶大道38号大冶雨润中央商场F2",
        "tel": "",
        "category": "基础设施:公共设施:女洗手间",
        "type": 0,
        "location": {
            "lat": 30.109336,
            "lng": 114.976559
        },
        "ad_info": {
            "adcode": 420281,
            "province": "湖北省",
            "city": "黄石市",
            "district": "大冶市"
        }
    },
    {
        "id": "3920280053214630851",
        "title": "男洗手间",
        "address": "湖北省黄石市大冶市新冶大道38号大冶雨润中央商场F1",
        "tel": "",
        "category": "基础设施:公共设施:男洗手间",
        "type": 0,
        "location": {
            "lat": 30.108842,
            "lng": 114.977228
        },
        "ad_info": {
            "adcode": 420281,
            "province": "湖北省",
            "city": "黄石市",
            "district": "大冶市"
        }
    },
    {
        "id": "8730250993496588447",
        "title": "女洗手间",
        "address": "湖北省黄石市大冶市新冶大道38号大冶雨润中央商场F5",
        "tel": "",
        "category": "基础设施:公共设施:女洗手间",
        "type": 0,
        "location": {
            "lat": 30.109334,
            "lng": 114.976559
        },
        "ad_info": {
            "adcode": 420281,
            "province": "湖北省",
            "city": "黄石市",
            "district": "大冶市"
        }
    },
    {
        "id": "8348468648050255753",
        "title": "女洗手间",
        "address": "湖北省黄石市大冶市新冶大道38号大冶雨润中央商场F6",
        "tel": "",
        "category": "基础设施:公共设施:女洗手间",
        "type": 0,
        "location": {
            "lat": 30.109355,
            "lng": 114.975912
        },
        "ad_info": {
            "adcode": 420281,
            "province": "湖北省",
            "city": "黄石市",
            "district": "大冶市"
        }
    },
    {
        "id": "5781814354331057710",
        "title": "公共厕所",
        "address": "湖北省黄石市大冶市",
        "tel": "",
        "category": "基础设施:公共设施:公共厕所",
        "type": 0,
        "location": {
            "lat": 30.029895,
            "lng": 114.985106
        },
        "ad_info": {
            "adcode": 420281,
            "province": "湖北省",
            "city": "黄石市",
            "district": "大冶市"
        }
    },
    {
        "id": "13595118162549320564",
        "title": "公共厕所",
        "address": "湖北省黄石市铁山区喻家山巷与胜利路交叉口正北方向71米左右",
        "tel": "",
        "category": "基础设施:公共设施:公共厕所",
        "type": 0,
        "location": {
            "lat": 30.20368,
            "lng": 114.905937
        },
        "ad_info": {
            "adcode": 420205,
            "province": "湖北省",
            "city": "黄石市",
            "district": "铁山区"
        }
    },
    {
        "id": "6727519326182810310",
        "title": "公共厕所",
        "address": "湖北省黄石市大冶市和馨雅居东南侧60米",
        "tel": "",
        "category": "基础设施:公共设施:公共厕所",
        "type": 0,
        "location": {
            "lat": 29.86981,
            "lng": 114.929075
        },
        "ad_info": {
            "adcode": 420281,
            "province": "湖北省",
            "city": "黄石市",
            "district": "大冶市"
        }
    },
    {
        "id": "7421014720255431350",
        "title": "女洗手间(中央商场)",
        "address": "湖北省黄石市大冶市新冶大道38号大冶雨润中央商场F4",
        "tel": "",
        "category": "基础设施:公共设施:女洗手间",
        "type": 0,
        "location": {
            "lat": 30.109333,
            "lng": 114.976561
        },
        "ad_info": {
            "adcode": 420281,
            "province": "湖北省",
            "city": "黄石市",
            "district": "大冶市"
        }
    },
    {
        "id": "15745316615791929506",
        "title": "公共厕所",
        "address": "湖北省黄石市下陆区老下陆街70号",
        "tel": "",
        "category": "基础设施:公共设施:公共厕所",
        "type": 0,
        "location": {
            "lat": 30.181028,
            "lng": 114.992742
        },
        "ad_info": {
            "adcode": 420204,
            "province": "湖北省",
            "city": "黄石市",
            "district": "下陆区"
        }
    },
    {
        "id": "14107667930715872671",
        "title": "公共厕所",
        "address": "湖北省黄石市阳新县富阳路与彭阳路交叉口东北方向70米左右",
        "tel": "",
        "category": "基础设施:公共设施:公共厕所",
        "type": 0,
        "location": {
            "lat": 29.874941,
            "lng": 115.211901
        },
        "ad_info": {
            "adcode": 420222,
            "province": "湖北省",
            "city": "黄石市",
            "district": "阳新县"
        }
    },
    {
        "id": "15808675427292658303",
        "title": "男洗手间",
        "address": "湖北省黄石市大冶市新冶大道38号大冶雨润中央商场F2",
        "tel": "",
        "category": "基础设施:公共设施:男洗手间",
        "type": 0,
        "location": {
            "lat": 30.108774,
            "lng": 114.977256
        },
        "ad_info": {
            "adcode": 420281,
            "province": "湖北省",
            "city": "黄石市",
            "district": "大冶市"
        }
    },
    {
        "id": "16338957755398110400",
        "title": "公共厕所",
        "address": "湖北省黄石市西塞山区新建区路与黄石大道交叉口西北方向156米左右",
        "tel": "",
        "category": "基础设施:公共设施:公共厕所",
        "type": 0,
        "location": {
            "lat": 30.200494,
            "lng": 115.123348
        },
        "ad_info": {
            "adcode": 420203,
            "province": "湖北省",
            "city": "黄石市",
            "district": "西塞山区"
        }
    },
    {
        "id": "16428028523108953891",
        "title": "公共厕所",
        "address": "湖北省黄石市西塞山区道士三伏街与黄石大道交叉口东北方向38米左右",
        "tel": "",
        "category": "基础设施:公共设施:公共厕所",
        "type": 0,
        "location": {
            "lat": 30.206304,
            "lng": 115.174813
        },
        "ad_info": {
            "adcode": 420203,
            "province": "湖北省",
            "city": "黄石市",
            "district": "西塞山区"
        }
    },
    {
        "id": "5934197785605124496",
        "title": "公共厕所",
        "address": "湖北省黄石市大冶市学府路与金牛大道交叉口东北方向50米左右",
        "tel": "",
        "category": "基础设施:公共设施:公共厕所",
        "type": 0,
        "location": {
            "lat": 30.014157,
            "lng": 114.62329
        },
        "ad_info": {
            "adcode": 420281,
            "province": "湖北省",
            "city": "黄石市",
            "district": "大冶市"
        }
    },
    {
        "id": "5824245850882205765",
        "title": "公共厕所",
        "address": "湖北省黄石市大冶市文明路与春华路交叉口东南方向25米左右",
        "tel": "",
        "category": "基础设施:公共设施:公共厕所",
        "type": 0,
        "location": {
            "lat": 30.210714,
            "lng": 114.814824
        },
        "ad_info": {
            "adcode": 420281,
            "province": "湖北省",
            "city": "黄石市",
            "district": "大冶市"
        }
    },
    {
        "id": "14387567676676089865",
        "title": "公共厕所",
        "address": "湖北省黄石市大冶市公园路与贵洪路交叉口西北方向61米左右",
        "tel": "",
        "category": "基础设施:公共设施:公共厕所",
        "type": 0,
        "location": {
            "lat": 30.05139,
            "lng": 114.812215
        },
        "ad_info": {
            "adcode": 420281,
            "province": "湖北省",
            "city": "黄石市",
            "district": "大冶市"
        }
    },
    {
        "id": "10087323591701986181",
        "title": "公共厕所",
        "address": "湖北省黄石市下陆区供电二路与青龙山路交叉口正北方向178米左右",
        "tel": "",
        "category": "基础设施:公共设施:公共厕所",
        "type": 0,
        "location": {
            "lat": 30.204164,
            "lng": 115.031586
        },
        "ad_info": {
            "adcode": 420204,
            "province": "湖北省",
            "city": "黄石市",
            "district": "下陆区"
        }
    },
    {
        "id": "12248982860316931701",
        "title": "公共厕所",
        "address": "湖北省黄石市西塞山区沿湖路与王家湾路交叉口东北方向19米左右",
        "tel": "",
        "category": "基础设施:公共设施:公共厕所",
        "type": 0,
        "location": {
            "lat": 30.204001,
            "lng": 115.090401
        },
        "ad_info": {
            "adcode": 420203,
            "province": "湖北省",
            "city": "黄石市",
            "district": "西塞山区"
        }
    },
    {
        "id": "1121095940920452980",
        "title": "公共厕所",
        "address": "湖北省黄石市西塞山区曹家嘴巷与牧羊湖路交叉口正北方向151米左右",
        "tel": "",
        "category": "基础设施:公共设施:公共厕所",
        "type": 0,
        "location": {
            "lat": 30.198783,
            "lng": 115.071364
        },
        "ad_info": {
            "adcode": 420203,
            "province": "湖北省",
            "city": "黄石市",
            "district": "西塞山区"
        }
    },
    {
        "id": "10387752535265376514",
        "title": "公共厕所",
        "address": "湖北省黄石市西塞山区西塞山区社区工作管理委员会",
        "tel": "",
        "category": "基础设施:公共设施:公共厕所",
        "type": 0,
        "location": {
            "lat": 30.201542,
            "lng": 115.098802
        },
        "ad_info": {
            "adcode": 420203,
            "province": "湖北省",
            "city": "黄石市",
            "district": "西塞山区"
        }
    },
    {
        "id": "8813043801104662228",
        "title": "男洗手间",
        "address": "湖北省黄石市黄石港区黄石大道209号大金新百F4",
        "tel": "",
        "category": "基础设施:公共设施:男洗手间",
        "type": 0,
        "location": {
            "lat": 30.213531,
            "lng": 115.090395
        },
        "ad_info": {
            "adcode": 420202,
            "province": "湖北省",
            "city": "黄石市",
            "district": "黄石港区"
        }
    },
    {
        "id": "9442605617862517517",
        "title": "公共侧所",
        "address": "湖北省黄石市铁山区胜利路141号",
        "tel": "",
        "category": "基础设施:公共设施:公共厕所",
        "type": 0,
        "location": {
            "lat": 30.200736,
            "lng": 114.908657
        },
        "ad_info": {
            "adcode": 420205,
            "province": "湖北省",
            "city": "黄石市",
            "district": "铁山区"
        }
    },
    {
        "id": "14012888860471183390",
        "title": "公共厕所",
        "address": "湖北省黄石市大冶市供销社大楼东北侧70米",
        "tel": "",
        "category": "基础设施:公共设施:公共厕所",
        "type": 0,
        "location": {
            "lat": 30.143021,
            "lng": 114.963951
        },
        "ad_info": {
            "adcode": 420281,
            "province": "湖北省",
            "city": "黄石市",
            "district": "大冶市"
        }
    },
    {
        "id": "6076802520160118212",
        "title": "公共厕所",
        "address": "湖北省黄石市阳新县东坡西路与林峰街交叉口正南方向242米左右",
        "tel": "",
        "category": "基础设施:公共设施:公共厕所",
        "type": 0,
        "location": {
            "lat": 29.845512,
            "lng": 115.202666
        },
        "ad_info": {
            "adcode": 420222,
            "province": "湖北省",
            "city": "黄石市",
            "district": "阳新县"
        }
    },
    {
        "id": "15485653227848269690",
        "title": "女洗手间",
        "address": "湖北省黄石市黄石港区黄石大道209号大金新百F3",
        "tel": "",
        "category": "基础设施:公共设施:女洗手间",
        "type": 0,
        "location": {
            "lat": 30.213523,
            "lng": 115.090392
        },
        "ad_info": {
            "adcode": 420202,
            "province": "湖北省",
            "city": "黄石市",
            "district": "黄石港区"
        }
    },
    {
        "id": "15480279369699123077",
        "title": "公共厕所",
        "address": "湖北省黄石市下陆区沿湖路7号",
        "tel": "",
        "category": "基础设施:公共设施:公共厕所",
        "type": 0,
        "location": {
            "lat": 30.175051,
            "lng": 114.974369
        },
        "ad_info": {
            "adcode": 420204,
            "province": "湖北省",
            "city": "黄石市",
            "district": "下陆区"
        }
    },
    {
        "id": "12478855452871004042",
        "title": "公共厕所",
        "address": "湖北省黄石市下陆区北村一路16-23号",
        "tel": "",
        "category": "基础设施:公共设施:公共厕所",
        "type": 0,
        "location": {
            "lat": 30.175335,
            "lng": 114.951385
        },
        "ad_info": {
            "adcode": 420204,
            "province": "湖北省",
            "city": "黄石市",
            "district": "下陆区"
        }
    },
    {
        "id": "5876284626335265724",
        "title": "公共厕所",
        "address": "湖北省黄石市西塞山区南北路与苗圃路交叉口东北方向399米左右",
        "tel": "",
        "category": "基础设施:公共设施:公共厕所",
        "type": 0,
        "location": {
            "lat": 30.187512,
            "lng": 115.058063
        },
        "ad_info": {
            "adcode": 420203,
            "province": "湖北省",
            "city": "黄石市",
            "district": "西塞山区"
        }
    },
    {
        "id": "16983473647048035283",
        "title": "女洗手间",
        "address": "湖北省黄石市大冶市新冶大道38号大冶雨润中央商场F7",
        "tel": "",
        "category": "基础设施:公共设施:女洗手间",
        "type": 0,
        "location": {
            "lat": 30.109357,
            "lng": 114.975917
        },
        "ad_info": {
            "adcode": 420281,
            "province": "湖北省",
            "city": "黄石市",
            "district": "大冶市"
        }
    },
    {
        "id": "11879921968578902956",
        "title": "公共厕所",
        "address": "湖北省黄石市西塞山区杭州东路与澄月路交叉口东南方向41米左右",
        "tel": "",
        "category": "基础设施:公共设施:公共厕所",
        "type": 0,
        "location": {
            "lat": 30.207294,
            "lng": 115.068782
        },
        "ad_info": {
            "adcode": 420203,
            "province": "湖北省",
            "city": "黄石市",
            "district": "西塞山区"
        }
    },
    {
        "id": "9544831183728135598",
        "title": "公共厕所",
        "address": "湖北省黄石市西塞山区牧羊湖路20号",
        "tel": "",
        "category": "基础设施:公共设施:公共厕所",
        "type": 0,
        "location": {
            "lat": 30.19574,
            "lng": 115.072324
        },
        "ad_info": {
            "adcode": 420203,
            "province": "湖北省",
            "city": "黄石市",
            "district": "西塞山区"
        }
    },
    {
        "id": "13606767229455280172",
        "title": "无障碍公共厕所",
        "address": "湖北省黄石市黄石港区公园路12号",
        "tel": "",
        "category": "基础设施:公共设施:公共厕所",
        "type": 0,
        "location": {
            "lat": 30.234882,
            "lng": 115.061309
        },
        "ad_info": {
            "adcode": 420202,
            "province": "湖北省",
            "city": "黄石市",
            "district": "黄石港区"
        }
    },
    {
        "id": "15307928596343035793",
        "title": "公共厕所",
        "address": "湖北省黄石市阳新县兴国大道辅路与太平路交叉口南220米",
        "tel": "",
        "category": "基础设施:公共设施:公共厕所",
        "type": 0,
        "location": {
            "lat": 29.837691,
            "lng": 115.211879
        },
        "ad_info": {
            "adcode": 420222,
            "province": "湖北省",
            "city": "黄石市",
            "district": "阳新县"
        }
    },
    {
        "id": "12009884204603941839",
        "title": "公共厕所",
        "address": "湖北省黄石市大冶市灵乡大道与灵秀路交叉口西南方向64米左右",
        "tel": "",
        "category": "基础设施:公共设施:公共厕所",
        "type": 0,
        "location": {
            "lat": 30.009632,
            "lng": 114.756737
        },
        "ad_info": {
            "adcode": 420281,
            "province": "湖北省",
            "city": "黄石市",
            "district": "大冶市"
        }
    },
    {
        "id": "13143559254595269651",
        "title": "公共厕所",
        "address": "湖北省黄石市黄石港区挹江北路与沿江大道交叉口正南方向48米左右",
        "tel": "",
        "category": "基础设施:公共设施:公共厕所",
        "type": 0,
        "location": {
            "lat": 30.219271,
            "lng": 115.086445
        },
        "ad_info": {
            "adcode": 420202,
            "province": "湖北省",
            "city": "黄石市",
            "district": "黄石港区"
        }
    },
    {
        "id": "7273413818943540742",
        "title": "公共厕所",
        "address": "湖北省黄石市铁山区友爱路107号",
        "tel": "",
        "category": "基础设施:公共设施:公共厕所",
        "type": 0,
        "location": {
            "lat": 30.199337,
            "lng": 114.897173
        },
        "ad_info": {
            "adcode": 420205,
            "province": "湖北省",
            "city": "黄石市",
            "district": "铁山区"
        }
    },
    {
        "id": "13341498292732980348",
        "title": "公共厕所",
        "address": "湖北省黄石市大冶市毛铺农家乐西侧160米",
        "tel": "",
        "category": "基础设施:公共设施:公共厕所",
        "type": 0,
        "location": {
            "lat": 29.936504,
            "lng": 114.709144
        },
        "ad_info": {
            "adcode": 420281,
            "province": "湖北省",
            "city": "黄石市",
            "district": "大冶市"
        }
    },
    {
        "id": "455158235118748296",
        "title": "公共厕所",
        "address": "湖北省黄石市下陆区发展大道与杭州西路交叉口西北方向82米左右",
        "tel": "",
        "category": "基础设施:公共设施:公共厕所",
        "type": 0,
        "location": {
            "lat": 30.199244,
            "lng": 115.007775
        },
        "ad_info": {
            "adcode": 420204,
            "province": "湖北省",
            "city": "黄石市",
            "district": "下陆区"
        }
    },
    {
        "id": "7892579556064757435",
        "title": "公共厕所",
        "address": "湖北省黄石市阳新县恩波堤街与文化宫路交叉口正北方向151米左右",
        "tel": "",
        "category": "基础设施:公共设施:公共厕所",
        "type": 0,
        "location": {
            "lat": 29.837666,
            "lng": 115.219753
        },
        "ad_info": {
            "adcode": 420222,
            "province": "湖北省",
            "city": "黄石市",
            "district": "阳新县"
        }
    },
    {
        "id": "6062317529712222304",
        "title": "公共厕所",
        "address": "湖北省黄石市西塞山区磁湖东路与颐阳路辅路交叉口正北方向114米",
        "tel": "",
        "category": "基础设施:公共设施:公共厕所",
        "type": 0,
        "location": {
            "lat": 30.204074,
            "lng": 115.084626
        },
        "ad_info": {
            "adcode": 420203,
            "province": "湖北省",
            "city": "黄石市",
            "district": "西塞山区"
        }
    },
    {
        "id": "18391604099971991964",
        "title": "公共厕所",
        "address": "湖北省黄石市黄石港区湖滨大道与英才路交叉口东北方向77米左右",
        "tel": "",
        "category": "基础设施:公共设施:公共厕所",
        "type": 0,
        "location": {
            "lat": 30.210372,
            "lng": 115.084124
        },
        "ad_info": {
            "adcode": 420202,
            "province": "湖北省",
            "city": "黄石市",
            "district": "黄石港区"
        }
    },
    {
        "id": "14178925427546815903",
        "title": "公共厕所",
        "address": "湖北省黄石市阳新县乐东八三路与综合大道交叉口正东方向240米左右",
        "tel": "",
        "category": "基础设施:公共设施:公共厕所",
        "type": 0,
        "location": {
            "lat": 29.871163,
            "lng": 115.180142
        },
        "ad_info": {
            "adcode": 420222,
            "province": "湖北省",
            "city": "黄石市",
            "district": "阳新县"
        }
    },
    {
        "id": "10502174334933476790",
        "title": "男洗手间",
        "address": "湖北省黄石市大冶市新冶大道38号大冶雨润中央商场F4",
        "tel": "",
        "category": "基础设施:公共设施:男洗手间",
        "type": 0,
        "location": {
            "lat": 30.109276,
            "lng": 114.976562
        },
        "ad_info": {
            "adcode": 420281,
            "province": "湖北省",
            "city": "黄石市",
            "district": "大冶市"
        }
    },
    {
        "id": "17976173310925077345",
        "title": "公共厕所",
        "address": "湖北省黄石市大冶市大箕铺大道与腾龙大道交叉口西南方向105米左右",
        "tel": "",
        "category": "基础设施:公共设施:公共厕所",
        "type": 0,
        "location": {
            "lat": 30.048441,
            "lng": 115.007679
        },
        "ad_info": {
            "adcode": 420281,
            "province": "湖北省",
            "city": "黄石市",
            "district": "大冶市"
        }
    },
    {
        "id": "11606180681007301533",
        "title": "公共厕所",
        "address": "湖北省黄石市大冶市商城东路与商城南路交叉口西南方向20米左右",
        "tel": "",
        "category": "基础设施:公共设施:公共厕所",
        "type": 0,
        "location": {
            "lat": 30.082591,
            "lng": 114.973132
        },
        "ad_info": {
            "adcode": 420281,
            "province": "湖北省",
            "city": "黄石市",
            "district": "大冶市"
        }
    },
    {
        "id": "4601014994483747977",
        "title": "公共厕所",
        "address": "湖北省黄石市下陆区石明甲路23号",
        "tel": "",
        "category": "基础设施:公共设施:公共厕所",
        "type": 0,
        "location": {
            "lat": 30.172365,
            "lng": 114.961423
        },
        "ad_info": {
            "adcode": 420204,
            "province": "湖北省",
            "city": "黄石市",
            "district": "下陆区"
        }
    },
    {
        "id": "598224483113740688",
        "title": "公共厕所",
        "address": "湖北省黄石市下陆区老沿湖路7号",
        "tel": "",
        "category": "基础设施:公共设施:公共厕所",
        "type": 0,
        "location": {
            "lat": 30.178303,
            "lng": 114.983656
        },
        "ad_info": {
            "adcode": 420204,
            "province": "湖北省",
            "city": "黄石市",
            "district": "下陆区"
        }
    },
    {
        "id": "763527246794388793",
        "title": "公共厕所",
        "address": "湖北省黄石市大冶市商城路与金家巷交叉口东北方向51米左右",
        "tel": "",
        "category": "基础设施:公共设施:公共厕所",
        "type": 0,
        "location": {
            "lat": 30.085335,
            "lng": 114.972165
        },
        "ad_info": {
            "adcode": 420281,
            "province": "湖北省",
            "city": "黄石市",
            "district": "大冶市"
        }
    },
    {
        "id": "7077135019676581761",
        "title": "公共厕所",
        "address": "湖北省黄石市大冶市四棵松路与杨林路交叉口正南方向137米左右",
        "tel": "",
        "category": "基础设施:公共设施:公共厕所",
        "type": 0,
        "location": {
            "lat": 30.138283,
            "lng": 115.0506
        },
        "ad_info": {
            "adcode": 420281,
            "province": "湖北省",
            "city": "黄石市",
            "district": "大冶市"
        }
    },
    {
        "id": "10945531815051975385",
        "title": "公共厕所",
        "address": "湖北省黄石市大冶市锡山小学东侧150米",
        "tel": "",
        "category": "基础设施:公共设施:公共厕所",
        "type": 0,
        "location": {
            "lat": 30.137406,
            "lng": 114.847614
        },
        "ad_info": {
            "adcode": 420281,
            "province": "湖北省",
            "city": "黄石市",
            "district": "大冶市"
        }
    },
    {
        "id": "7701633983144797528",
        "title": "公共厕所",
        "address": "湖北省黄石市西塞山区经五路与黄石大道交叉口正南方向111米左右",
        "tel": "",
        "category": "基础设施:公共设施:公共厕所",
        "type": 0,
        "location": {
            "lat": 30.197144,
            "lng": 115.148346
        },
        "ad_info": {
            "adcode": 420203,
            "province": "湖北省",
            "city": "黄石市",
            "district": "西塞山区"
        }
    },
    {
        "id": "2506894281599896444",
        "title": "公共厕所",
        "address": "湖北省黄石市大冶市大冶大道与永安路交叉口正北方向304米左右",
        "tel": "",
        "category": "基础设施:公共设施:公共厕所",
        "type": 0,
        "location": {
            "lat": 30.123231,
            "lng": 114.968364
        },
        "ad_info": {
            "adcode": 420281,
            "province": "湖北省",
            "city": "黄石市",
            "district": "大冶市"
        }
    },
    {
        "id": "3675748516730343225",
        "title": "排市服务区第二公共厕所",
        "address": "湖北省黄石市阳新县S356与下桥二桥交叉口正北方向433米左右",
        "tel": "",
        "category": "基础设施:公共设施:公共厕所",
        "type": 0,
        "location": {
            "lat": 29.716,
            "lng": 115.119005
        },
        "ad_info": {
            "adcode": 420222,
            "province": "湖北省",
            "city": "黄石市",
            "district": "阳新县"
        }
    },
    {
        "id": "7373645723020892210",
        "title": "公共厕所",
        "address": "湖北省黄石市黄石港区信息巷与武汉路交叉口正东方向184米左右",
        "tel": "",
        "category": "基础设施:公共设施:公共厕所",
        "type": 0,
        "location": {
            "lat": 30.213411,
            "lng": 115.0876
        },
        "ad_info": {
            "adcode": 420202,
            "province": "湖北省",
            "city": "黄石市",
            "district": "黄石港区"
        }
    },
    {
        "id": "18015618230344114619",
        "title": "公共厕所",
        "address": "湖北省黄石市黄石港区师院路与斗笠山路交叉口东南方向232米左右",
        "tel": "",
        "category": "基础设施:公共设施:公共厕所",
        "type": 0,
        "location": {
            "lat": 30.230229,
            "lng": 115.070412
        },
        "ad_info": {
            "adcode": 420202,
            "province": "湖北省",
            "city": "黄石市",
            "district": "黄石港区"
        }
    },
    {
        "id": "5565415730589911501",
        "title": "公共厕所",
        "address": "湖北省黄石市大冶市S315与金株大道交叉口正东方向258米左右",
        "tel": "",
        "category": "基础设施:公共设施:公共厕所",
        "type": 0,
        "location": {
            "lat": 30.072659,
            "lng": 114.905595
        },
        "ad_info": {
            "adcode": 420281,
            "province": "湖北省",
            "city": "黄石市",
            "district": "大冶市"
        }
    },
    {
        "id": "6548860658653701743",
        "title": "公共厕所",
        "address": "湖北省黄石市阳新县莲花湖大道与银山路交叉口东北方向320米左右",
        "tel": "",
        "category": "基础设施:公共设施:公共厕所",
        "type": 0,
        "location": {
            "lat": 29.861153,
            "lng": 115.207077
        },
        "ad_info": {
            "adcode": 420222,
            "province": "湖北省",
            "city": "黄石市",
            "district": "阳新县"
        }
    },
    {
        "id": "3109147504632339528",
        "title": "公共厕所",
        "address": "湖北省黄石市黄石港区建院巷与黄石大道交叉口东南方向66米左右",
        "tel": "",
        "category": "基础设施:公共设施:公共厕所",
        "type": 0,
        "location": {
            "lat": 30.217084,
            "lng": 115.087542
        },
        "ad_info": {
            "adcode": 420202,
            "province": "湖北省",
            "city": "黄石市",
            "district": "黄石港区"
        }
    },
    {
        "id": "15477213026119571936",
        "title": "排市服务区公共厕所",
        "address": "湖北省黄石市阳新县排市镇杭瑞高速公路排市服务区西",
        "tel": "",
        "category": "基础设施:公共设施:公共厕所",
        "type": 0,
        "location": {
            "lat": 29.714304,
            "lng": 115.118566
        },
        "ad_info": {
            "adcode": 420222,
            "province": "湖北省",
            "city": "黄石市",
            "district": "阳新县"
        }
    },
    {
        "id": "7113084751536019059",
        "title": "公共厕所",
        "address": "湖北省黄石市大冶市腾龙大道与金湖大道交叉口正北方向167米左右",
        "tel": "",
        "category": "基础设施:公共设施:公共厕所",
        "type": 0,
        "location": {
            "lat": 30.089847,
            "lng": 114.98904
        },
        "ad_info": {
            "adcode": 420281,
            "province": "湖北省",
            "city": "黄石市",
            "district": "大冶市"
        }
    },
    {
        "id": "8138840140188778773",
        "title": "女洗手间",
        "address": "湖北省黄石市大冶市新冶大道38号大冶雨润中央商场F3",
        "tel": "",
        "category": "基础设施:公共设施:女洗手间",
        "type": 0,
        "location": {
            "lat": 30.109334,
            "lng": 114.97656
        },
        "ad_info": {
            "adcode": 420281,
            "province": "湖北省",
            "city": "黄石市",
            "district": "大冶市"
        }
    },
    {
        "id": "7531528311844462829",
        "title": "公共厕所",
        "address": "湖北省黄石市下陆区新下陆街与紫新路交叉口正北方向140米左右",
        "tel": "",
        "category": "基础设施:公共设施:公共厕所",
        "type": 0,
        "location": {
            "lat": 30.177675,
            "lng": 114.946983
        },
        "ad_info": {
            "adcode": 420204,
            "province": "湖北省",
            "city": "黄石市",
            "district": "下陆区"
        }
    },
    {
        "id": "14277988580758099302",
        "title": "公共厕所",
        "address": "湖北省黄石市铁山区建安路与铁山大道交叉口西南方向59米左右",
        "tel": "",
        "category": "基础设施:公共设施:公共厕所",
        "type": 0,
        "location": {
            "lat": 30.204577,
            "lng": 114.901188
        },
        "ad_info": {
            "adcode": 420205,
            "province": "湖北省",
            "city": "黄石市",
            "district": "铁山区"
        }
    },
    {
        "id": "16112030695912778066",
        "title": "公共厕所",
        "address": "湖北省黄石市下陆区广州路与磁湖路交叉口正西方向118米左右",
        "tel": "",
        "category": "基础设施:公共设施:公共厕所",
        "type": 0,
        "location": {
            "lat": 30.188562,
            "lng": 115.00027
        },
        "ad_info": {
            "adcode": 420204,
            "province": "湖北省",
            "city": "黄石市",
            "district": "下陆区"
        }
    },
    {
        "id": "10012772254427840848",
        "title": "公共厕所",
        "address": "湖北省黄石市大冶市商城路与青龙路交叉口东南方向42米左右",
        "tel": "",
        "category": "基础设施:公共设施:公共厕所",
        "type": 0,
        "location": {
            "lat": 30.081928,
            "lng": 114.97242
        },
        "ad_info": {
            "adcode": 420281,
            "province": "湖北省",
            "city": "黄石市",
            "district": "大冶市"
        }
    },
    {
        "id": "1686635039049901439",
        "title": "公共厕所",
        "address": "湖北省黄石市下陆区沿湖路7号",
        "tel": "",
        "category": "基础设施:公共设施:公共厕所",
        "type": 0,
        "location": {
            "lat": 30.177894,
            "lng": 114.979205
        },
        "ad_info": {
            "adcode": 420204,
            "province": "湖北省",
            "city": "黄石市",
            "district": "下陆区"
        }
    },
    {
        "id": "12037258090685225769",
        "title": "公共厕所",
        "address": "湖北省黄石市大冶市大冶大道249号",
        "tel": "",
        "category": "基础设施:公共设施:公共厕所",
        "type": 0,
        "location": {
            "lat": 30.126524,
            "lng": 114.970093
        },
        "ad_info": {
            "adcode": 420281,
            "province": "湖北省",
            "city": "黄石市",
            "district": "大冶市"
        }
    },
    {
        "id": "2926746001194806814",
        "title": "公共厕所",
        "address": "湖北省黄石市下陆区大泉路中国石化大泉路加油站",
        "tel": "",
        "category": "基础设施:公共设施:公共厕所",
        "type": 0,
        "location": {
            "lat": 30.228838,
            "lng": 115.029208
        },
        "ad_info": {
            "adcode": 420204,
            "province": "湖北省",
            "city": "黄石市",
            "district": "下陆区"
        }
    },
    {
        "id": "15107986437039969326",
        "title": "公共厕所",
        "address": "湖北省黄石市大冶市乾塔路铜草花园",
        "tel": "",
        "category": "基础设施:公共设施:公共厕所",
        "type": 0,
        "location": {
            "lat": 30.110971,
            "lng": 114.975981
        },
        "ad_info": {
            "adcode": 420281,
            "province": "湖北省",
            "city": "黄石市",
            "district": "大冶市"
        }
    },
    {
        "id": "8392309413682118401",
        "title": "公共厕所",
        "address": "湖北省黄石市下陆区恢书路与神牛路交叉口西北方向87米左右",
        "tel": "",
        "category": "基础设施:公共设施:公共厕所",
        "type": 0,
        "location": {
            "lat": 30.17825,
            "lng": 114.96344
        },
        "ad_info": {
            "adcode": 420204,
            "province": "湖北省",
            "city": "黄石市",
            "district": "下陆区"
        }
    },
    {
        "id": "3766452297612438667",
        "title": "公共厕所",
        "address": "湖北省黄石市阳新县花果山水上乐园西北侧",
        "tel": "",
        "category": "基础设施:公共设施:公共厕所",
        "type": 0,
        "location": {
            "lat": 29.995312,
            "lng": 115.333112
        },
        "ad_info": {
            "adcode": 420222,
            "province": "湖北省",
            "city": "黄石市",
            "district": "阳新县"
        }
    },
    {
        "id": "5233000013191202702",
        "title": "公共厕所",
        "address": "湖北省黄石市黄石港区颐阳路与黄石大道交叉口正西方向80米左右",
        "tel": "",
        "category": "基础设施:公共设施:公共厕所",
        "type": 0,
        "location": {
            "lat": 30.210181,
            "lng": 115.096075
        },
        "ad_info": {
            "adcode": 420202,
            "province": "湖北省",
            "city": "黄石市",
            "district": "黄石港区"
        }
    },
    {
        "id": "10992885142013389282",
        "title": "公共厕所",
        "address": "湖北省黄石市铁山区友爱路与广友路交叉口正东方向38米左右",
        "tel": "",
        "category": "基础设施:公共设施:公共厕所",
        "type": 0,
        "location": {
            "lat": 30.20726,
            "lng": 114.899258
        },
        "ad_info": {
            "adcode": 420205,
            "province": "湖北省",
            "city": "黄石市",
            "district": "铁山区"
        }
    },
    {
        "id": "17959626430380223751",
        "title": "公共厕所",
        "address": "湖北省黄石市西塞山区月亮山路与联合村路交叉口正南方向257米左右",
        "tel": "",
        "category": "基础设施:公共设施:公共厕所",
        "type": 0,
        "location": {
            "lat": 30.198329,
            "lng": 115.092325
        },
        "ad_info": {
            "adcode": 420203,
            "province": "湖北省",
            "city": "黄石市",
            "district": "西塞山区"
        }
    },
    {
        "id": "11261301098409527141",
        "title": "女洗手间",
        "address": "湖北省黄石市西塞山区武汉路99号黄石武商MALLF2",
        "tel": "",
        "category": "基础设施:公共设施:女洗手间",
        "type": 0,
        "location": {
            "lat": 30.206613,
            "lng": 115.089542
        },
        "ad_info": {
            "adcode": 420203,
            "province": "湖北省",
            "city": "黄石市",
            "district": "西塞山区"
        }
    },
    {
        "id": "9419259871679704811",
        "title": "公共厕所",
        "address": "湖北省黄石市大冶市矿冶大道与铜湖路交叉口东北方向547米左右",
        "tel": "",
        "category": "基础设施:公共设施:公共厕所",
        "type": 0,
        "location": {
            "lat": 30.070175,
            "lng": 114.952409
        },
        "ad_info": {
            "adcode": 420281,
            "province": "湖北省",
            "city": "黄石市",
            "district": "大冶市"
        }
    },
    {
        "id": "10592161436641077040",
        "title": "男洗手间",
        "address": "湖北省黄石市黄石港区花湖大道30号黄石港万达广场B1",
        "tel": "",
        "category": "基础设施:公共设施:男洗手间",
        "type": 0,
        "location": {
            "lat": 30.243207,
            "lng": 115.060803
        },
        "ad_info": {
            "adcode": 420202,
            "province": "湖北省",
            "city": "黄石市",
            "district": "黄石港区"
        }
    },
    {
        "id": "449351525853468281",
        "title": "公共厕所",
        "address": "湖北省黄石市大冶市港南路与育才路交叉口正东方向93米左右",
        "tel": "",
        "category": "基础设施:公共设施:公共厕所",
        "type": 0,
        "location": {
            "lat": 30.207877,
            "lng": 114.832389
        },
        "ad_info": {
            "adcode": 420281,
            "province": "湖北省",
            "city": "黄石市",
            "district": "大冶市"
        }
    },
    {
        "id": "9061307521209242740",
        "title": "公共厕所",
        "address": "湖北省黄石市西塞山区月亮山路与沿湖路交叉口西北方向316米左右",
        "tel": "",
        "category": "基础设施:公共设施:公共厕所",
        "type": 0,
        "location": {
            "lat": 30.194736,
            "lng": 115.058722
        },
        "ad_info": {
            "adcode": 420203,
            "province": "湖北省",
            "city": "黄石市",
            "district": "西塞山区"
        }
    },
    {
        "id": "10656702820939295887",
        "title": "女洗手间",
        "address": "湖北省黄石市西塞山区武汉路99号黄石武商MALLF8",
        "tel": "",
        "category": "基础设施:公共设施:女洗手间",
        "type": 0,
        "location": {
            "lat": 30.20658,
            "lng": 115.089436
        },
        "ad_info": {
            "adcode": 420203,
            "province": "湖北省",
            "city": "黄石市",
            "district": "西塞山区"
        }
    },
    {
        "id": "10934670959796240353",
        "title": "残障-洗手间",
        "address": "湖北省黄石市西塞山区武汉路99号黄石武商MALLF6",
        "tel": "",
        "category": "基础设施:公共设施:无障碍洗手间",
        "type": 0,
        "location": {
            "lat": 30.205531,
            "lng": 115.088849
        },
        "ad_info": {
            "adcode": 420203,
            "province": "湖北省",
            "city": "黄石市",
            "district": "西塞山区"
        }
    },
    {
        "id": "5377380016830709863",
        "title": "公共厕所",
        "address": "湖北省黄石市大冶市长乐大道14号",
        "tel": "",
        "category": "基础设施:公共设施:公共厕所",
        "type": 0,
        "location": {
            "lat": 30.125494,
            "lng": 114.948914
        },
        "ad_info": {
            "adcode": 420281,
            "province": "湖北省",
            "city": "黄石市",
            "district": "大冶市"
        }
    },
    {
        "id": "3170837034893171333",
        "title": "公共厕所",
        "address": "湖北省黄石市大冶市兰圣路与周兰生路交叉口正北方向53米左右",
        "tel": "",
        "category": "基础设施:公共设施:公共厕所",
        "type": 0,
        "location": {
            "lat": 30.157651,
            "lng": 115.007352
        },
        "ad_info": {
            "adcode": 420281,
            "province": "湖北省",
            "city": "黄石市",
            "district": "大冶市"
        }
    },
    {
        "id": "7138842563062906952",
        "title": "女洗手间",
        "address": "湖北省黄石市西塞山区武汉路99号黄石武商MALLF3",
        "tel": "",
        "category": "基础设施:公共设施:女洗手间",
        "type": 0,
        "location": {
            "lat": 30.2055,
            "lng": 115.088861
        },
        "ad_info": {
            "adcode": 420203,
            "province": "湖北省",
            "city": "黄石市",
            "district": "西塞山区"
        }
    },
    {
        "id": "10012772254427840848",
        "title": "公共厕所",
        "address": "湖北省黄石市大冶市商城路与青龙路交叉口东南方向42米左右",
        "tel": "",
        "category": "基础设施:公共设施:公共厕所",
        "type": 0,
        "location": {
            "lat": 30.081928,
            "lng": 114.97242
        },
        "ad_info": {
            "adcode": 420281,
            "province": "湖北省",
            "city": "黄石市",
            "district": "大冶市"
        }
    },
    {
        "id": "1686635039049901439",
        "title": "公共厕所",
        "address": "湖北省黄石市下陆区沿湖路7号",
        "tel": "",
        "category": "基础设施:公共设施:公共厕所",
        "type": 0,
        "location": {
            "lat": 30.177894,
            "lng": 114.979205
        },
        "ad_info": {
            "adcode": 420204,
            "province": "湖北省",
            "city": "黄石市",
            "district": "下陆区"
        }
    },
    {
        "id": "12037258090685225769",
        "title": "公共厕所",
        "address": "湖北省黄石市大冶市大冶大道249号",
        "tel": "",
        "category": "基础设施:公共设施:公共厕所",
        "type": 0,
        "location": {
            "lat": 30.126524,
            "lng": 114.970093
        },
        "ad_info": {
            "adcode": 420281,
            "province": "湖北省",
            "city": "黄石市",
            "district": "大冶市"
        }
    },
    {
        "id": "2926746001194806814",
        "title": "公共厕所",
        "address": "湖北省黄石市下陆区大泉路中国石化大泉路加油站",
        "tel": "",
        "category": "基础设施:公共设施:公共厕所",
        "type": 0,
        "location": {
            "lat": 30.228838,
            "lng": 115.029208
        },
        "ad_info": {
            "adcode": 420204,
            "province": "湖北省",
            "city": "黄石市",
            "district": "下陆区"
        }
    },
    {
        "id": "15107986437039969326",
        "title": "公共厕所",
        "address": "湖北省黄石市大冶市乾塔路铜草花园",
        "tel": "",
        "category": "基础设施:公共设施:公共厕所",
        "type": 0,
        "location": {
            "lat": 30.110971,
            "lng": 114.975981
        },
        "ad_info": {
            "adcode": 420281,
            "province": "湖北省",
            "city": "黄石市",
            "district": "大冶市"
        }
    },
    {
        "id": "8392309413682118401",
        "title": "公共厕所",
        "address": "湖北省黄石市下陆区恢书路与神牛路交叉口西北方向87米左右",
        "tel": "",
        "category": "基础设施:公共设施:公共厕所",
        "type": 0,
        "location": {
            "lat": 30.17825,
            "lng": 114.96344
        },
        "ad_info": {
            "adcode": 420204,
            "province": "湖北省",
            "city": "黄石市",
            "district": "下陆区"
        }
    },
    {
        "id": "3766452297612438667",
        "title": "公共厕所",
        "address": "湖北省黄石市阳新县花果山水上乐园西北侧",
        "tel": "",
        "category": "基础设施:公共设施:公共厕所",
        "type": 0,
        "location": {
            "lat": 29.995312,
            "lng": 115.333112
        },
        "ad_info": {
            "adcode": 420222,
            "province": "湖北省",
            "city": "黄石市",
            "district": "阳新县"
        }
    },
    {
        "id": "5233000013191202702",
        "title": "公共厕所",
        "address": "湖北省黄石市黄石港区颐阳路与黄石大道交叉口正西方向80米左右",
        "tel": "",
        "category": "基础设施:公共设施:公共厕所",
        "type": 0,
        "location": {
            "lat": 30.210181,
            "lng": 115.096075
        },
        "ad_info": {
            "adcode": 420202,
            "province": "湖北省",
            "city": "黄石市",
            "district": "黄石港区"
        }
    },
    {
        "id": "10992885142013389282",
        "title": "公共厕所",
        "address": "湖北省黄石市铁山区友爱路与广友路交叉口正东方向38米左右",
        "tel": "",
        "category": "基础设施:公共设施:公共厕所",
        "type": 0,
        "location": {
            "lat": 30.20726,
            "lng": 114.899258
        },
        "ad_info": {
            "adcode": 420205,
            "province": "湖北省",
            "city": "黄石市",
            "district": "铁山区"
        }
    },
    {
        "id": "17959626430380223751",
        "title": "公共厕所",
        "address": "湖北省黄石市西塞山区月亮山路与联合村路交叉口正南方向257米左右",
        "tel": "",
        "category": "基础设施:公共设施:公共厕所",
        "type": 0,
        "location": {
            "lat": 30.198329,
            "lng": 115.092325
        },
        "ad_info": {
            "adcode": 420203,
            "province": "湖北省",
            "city": "黄石市",
            "district": "西塞山区"
        }
    },
    {
        "id": "11261301098409527141",
        "title": "女洗手间",
        "address": "湖北省黄石市西塞山区武汉路99号黄石武商MALLF2",
        "tel": "",
        "category": "基础设施:公共设施:女洗手间",
        "type": 0,
        "location": {
            "lat": 30.206613,
            "lng": 115.089542
        },
        "ad_info": {
            "adcode": 420203,
            "province": "湖北省",
            "city": "黄石市",
            "district": "西塞山区"
        }
    },
    {
        "id": "9419259871679704811",
        "title": "公共厕所",
        "address": "湖北省黄石市大冶市矿冶大道与铜湖路交叉口东北方向547米左右",
        "tel": "",
        "category": "基础设施:公共设施:公共厕所",
        "type": 0,
        "location": {
            "lat": 30.070175,
            "lng": 114.952409
        },
        "ad_info": {
            "adcode": 420281,
            "province": "湖北省",
            "city": "黄石市",
            "district": "大冶市"
        }
    },
    {
        "id": "10592161436641077040",
        "title": "男洗手间",
        "address": "湖北省黄石市黄石港区花湖大道30号黄石港万达广场B1",
        "tel": "",
        "category": "基础设施:公共设施:男洗手间",
        "type": 0,
        "location": {
            "lat": 30.243207,
            "lng": 115.060803
        },
        "ad_info": {
            "adcode": 420202,
            "province": "湖北省",
            "city": "黄石市",
            "district": "黄石港区"
        }
    },
    {
        "id": "449351525853468281",
        "title": "公共厕所",
        "address": "湖北省黄石市大冶市港南路与育才路交叉口正东方向93米左右",
        "tel": "",
        "category": "基础设施:公共设施:公共厕所",
        "type": 0,
        "location": {
            "lat": 30.207877,
            "lng": 114.832389
        },
        "ad_info": {
            "adcode": 420281,
            "province": "湖北省",
            "city": "黄石市",
            "district": "大冶市"
        }
    },
    {
        "id": "9061307521209242740",
        "title": "公共厕所",
        "address": "湖北省黄石市西塞山区月亮山路与沿湖路交叉口西北方向316米左右",
        "tel": "",
        "category": "基础设施:公共设施:公共厕所",
        "type": 0,
        "location": {
            "lat": 30.194736,
            "lng": 115.058722
        },
        "ad_info": {
            "adcode": 420203,
            "province": "湖北省",
            "city": "黄石市",
            "district": "西塞山区"
        }
    },
    {
        "id": "10656702820939295887",
        "title": "女洗手间",
        "address": "湖北省黄石市西塞山区武汉路99号黄石武商MALLF8",
        "tel": "",
        "category": "基础设施:公共设施:女洗手间",
        "type": 0,
        "location": {
            "lat": 30.20658,
            "lng": 115.089436
        },
        "ad_info": {
            "adcode": 420203,
            "province": "湖北省",
            "city": "黄石市",
            "district": "西塞山区"
        }
    },
    {
        "id": "10934670959796240353",
        "title": "残障-洗手间",
        "address": "湖北省黄石市西塞山区武汉路99号黄石武商MALLF6",
        "tel": "",
        "category": "基础设施:公共设施:无障碍洗手间",
        "type": 0,
        "location": {
            "lat": 30.205531,
            "lng": 115.088849
        },
        "ad_info": {
            "adcode": 420203,
            "province": "湖北省",
            "city": "黄石市",
            "district": "西塞山区"
        }
    },
    {
        "id": "5377380016830709863",
        "title": "公共厕所",
        "address": "湖北省黄石市大冶市长乐大道14号",
        "tel": "",
        "category": "基础设施:公共设施:公共厕所",
        "type": 0,
        "location": {
            "lat": 30.125494,
            "lng": 114.948914
        },
        "ad_info": {
            "adcode": 420281,
            "province": "湖北省",
            "city": "黄石市",
            "district": "大冶市"
        }
    },
    {
        "id": "3170837034893171333",
        "title": "公共厕所",
        "address": "湖北省黄石市大冶市兰圣路与周兰生路交叉口正北方向53米左右",
        "tel": "",
        "category": "基础设施:公共设施:公共厕所",
        "type": 0,
        "location": {
            "lat": 30.157651,
            "lng": 115.007352
        },
        "ad_info": {
            "adcode": 420281,
            "province": "湖北省",
            "city": "黄石市",
            "district": "大冶市"
        }
    },
    {
        "id": "7138842563062906952",
        "title": "女洗手间",
        "address": "湖北省黄石市西塞山区武汉路99号黄石武商MALLF3",
        "tel": "",
        "category": "基础设施:公共设施:女洗手间",
        "type": 0,
        "location": {
            "lat": 30.2055,
            "lng": 115.088861
        },
        "ad_info": {
            "adcode": 420203,
            "province": "湖北省",
            "city": "黄石市",
            "district": "西塞山区"
        }
    },
    {
        "id": "10012772254427840848",
        "title": "公共厕所",
        "address": "湖北省黄石市大冶市商城路与青龙路交叉口东南方向42米左右",
        "tel": "",
        "category": "基础设施:公共设施:公共厕所",
        "type": 0,
        "location": {
            "lat": 30.081928,
            "lng": 114.97242
        },
        "ad_info": {
            "adcode": 420281,
            "province": "湖北省",
            "city": "黄石市",
            "district": "大冶市"
        }
    },
    {
        "id": "1686635039049901439",
        "title": "公共厕所",
        "address": "湖北省黄石市下陆区沿湖路7号",
        "tel": "",
        "category": "基础设施:公共设施:公共厕所",
        "type": 0,
        "location": {
            "lat": 30.177894,
            "lng": 114.979205
        },
        "ad_info": {
            "adcode": 420204,
            "province": "湖北省",
            "city": "黄石市",
            "district": "下陆区"
        }
    },
    {
        "id": "12037258090685225769",
        "title": "公共厕所",
        "address": "湖北省黄石市大冶市大冶大道249号",
        "tel": "",
        "category": "基础设施:公共设施:公共厕所",
        "type": 0,
        "location": {
            "lat": 30.126524,
            "lng": 114.970093
        },
        "ad_info": {
            "adcode": 420281,
            "province": "湖北省",
            "city": "黄石市",
            "district": "大冶市"
        }
    },
    {
        "id": "2926746001194806814",
        "title": "公共厕所",
        "address": "湖北省黄石市下陆区大泉路中国石化大泉路加油站",
        "tel": "",
        "category": "基础设施:公共设施:公共厕所",
        "type": 0,
        "location": {
            "lat": 30.228838,
            "lng": 115.029208
        },
        "ad_info": {
            "adcode": 420204,
            "province": "湖北省",
            "city": "黄石市",
            "district": "下陆区"
        }
    },
    {
        "id": "15107986437039969326",
        "title": "公共厕所",
        "address": "湖北省黄石市大冶市乾塔路铜草花园",
        "tel": "",
        "category": "基础设施:公共设施:公共厕所",
        "type": 0,
        "location": {
            "lat": 30.110971,
            "lng": 114.975981
        },
        "ad_info": {
            "adcode": 420281,
            "province": "湖北省",
            "city": "黄石市",
            "district": "大冶市"
        }
    },
    {
        "id": "8392309413682118401",
        "title": "公共厕所",
        "address": "湖北省黄石市下陆区恢书路与神牛路交叉口西北方向87米左右",
        "tel": "",
        "category": "基础设施:公共设施:公共厕所",
        "type": 0,
        "location": {
            "lat": 30.17825,
            "lng": 114.96344
        },
        "ad_info": {
            "adcode": 420204,
            "province": "湖北省",
            "city": "黄石市",
            "district": "下陆区"
        }
    },
    {
        "id": "3766452297612438667",
        "title": "公共厕所",
        "address": "湖北省黄石市阳新县花果山水上乐园西北侧",
        "tel": "",
        "category": "基础设施:公共设施:公共厕所",
        "type": 0,
        "location": {
            "lat": 29.995312,
            "lng": 115.333112
        },
        "ad_info": {
            "adcode": 420222,
            "province": "湖北省",
            "city": "黄石市",
            "district": "阳新县"
        }
    },
    {
        "id": "5233000013191202702",
        "title": "公共厕所",
        "address": "湖北省黄石市黄石港区颐阳路与黄石大道交叉口正西方向80米左右",
        "tel": "",
        "category": "基础设施:公共设施:公共厕所",
        "type": 0,
        "location": {
            "lat": 30.210181,
            "lng": 115.096075
        },
        "ad_info": {
            "adcode": 420202,
            "province": "湖北省",
            "city": "黄石市",
            "district": "黄石港区"
        }
    },
    {
        "id": "10992885142013389282",
        "title": "公共厕所",
        "address": "湖北省黄石市铁山区友爱路与广友路交叉口正东方向38米左右",
        "tel": "",
        "category": "基础设施:公共设施:公共厕所",
        "type": 0,
        "location": {
            "lat": 30.20726,
            "lng": 114.899258
        },
        "ad_info": {
            "adcode": 420205,
            "province": "湖北省",
            "city": "黄石市",
            "district": "铁山区"
        }
    },
    {
        "id": "17959626430380223751",
        "title": "公共厕所",
        "address": "湖北省黄石市西塞山区月亮山路与联合村路交叉口正南方向257米左右",
        "tel": "",
        "category": "基础设施:公共设施:公共厕所",
        "type": 0,
        "location": {
            "lat": 30.198329,
            "lng": 115.092325
        },
        "ad_info": {
            "adcode": 420203,
            "province": "湖北省",
            "city": "黄石市",
            "district": "西塞山区"
        }
    },
    {
        "id": "11261301098409527141",
        "title": "女洗手间",
        "address": "湖北省黄石市西塞山区武汉路99号黄石武商MALLF2",
        "tel": "",
        "category": "基础设施:公共设施:女洗手间",
        "type": 0,
        "location": {
            "lat": 30.206613,
            "lng": 115.089542
        },
        "ad_info": {
            "adcode": 420203,
            "province": "湖北省",
            "city": "黄石市",
            "district": "西塞山区"
        }
    },
    {
        "id": "9419259871679704811",
        "title": "公共厕所",
        "address": "湖北省黄石市大冶市矿冶大道与铜湖路交叉口东北方向547米左右",
        "tel": "",
        "category": "基础设施:公共设施:公共厕所",
        "type": 0,
        "location": {
            "lat": 30.070175,
            "lng": 114.952409
        },
        "ad_info": {
            "adcode": 420281,
            "province": "湖北省",
            "city": "黄石市",
            "district": "大冶市"
        }
    },
    {
        "id": "10592161436641077040",
        "title": "男洗手间",
        "address": "湖北省黄石市黄石港区花湖大道30号黄石港万达广场B1",
        "tel": "",
        "category": "基础设施:公共设施:男洗手间",
        "type": 0,
        "location": {
            "lat": 30.243207,
            "lng": 115.060803
        },
        "ad_info": {
            "adcode": 420202,
            "province": "湖北省",
            "city": "黄石市",
            "district": "黄石港区"
        }
    },
    {
        "id": "449351525853468281",
        "title": "公共厕所",
        "address": "湖北省黄石市大冶市港南路与育才路交叉口正东方向93米左右",
        "tel": "",
        "category": "基础设施:公共设施:公共厕所",
        "type": 0,
        "location": {
            "lat": 30.207877,
            "lng": 114.832389
        },
        "ad_info": {
            "adcode": 420281,
            "province": "湖北省",
            "city": "黄石市",
            "district": "大冶市"
        }
    },
    {
        "id": "9061307521209242740",
        "title": "公共厕所",
        "address": "湖北省黄石市西塞山区月亮山路与沿湖路交叉口西北方向316米左右",
        "tel": "",
        "category": "基础设施:公共设施:公共厕所",
        "type": 0,
        "location": {
            "lat": 30.194736,
            "lng": 115.058722
        },
        "ad_info": {
            "adcode": 420203,
            "province": "湖北省",
            "city": "黄石市",
            "district": "西塞山区"
        }
    },
    {
        "id": "10656702820939295887",
        "title": "女洗手间",
        "address": "湖北省黄石市西塞山区武汉路99号黄石武商MALLF8",
        "tel": "",
        "category": "基础设施:公共设施:女洗手间",
        "type": 0,
        "location": {
            "lat": 30.20658,
            "lng": 115.089436
        },
        "ad_info": {
            "adcode": 420203,
            "province": "湖北省",
            "city": "黄石市",
            "district": "西塞山区"
        }
    },
    {
        "id": "10934670959796240353",
        "title": "残障-洗手间",
        "address": "湖北省黄石市西塞山区武汉路99号黄石武商MALLF6",
        "tel": "",
        "category": "基础设施:公共设施:无障碍洗手间",
        "type": 0,
        "location": {
            "lat": 30.205531,
            "lng": 115.088849
        },
        "ad_info": {
            "adcode": 420203,
            "province": "湖北省",
            "city": "黄石市",
            "district": "西塞山区"
        }
    },
    {
        "id": "5377380016830709863",
        "title": "公共厕所",
        "address": "湖北省黄石市大冶市长乐大道14号",
        "tel": "",
        "category": "基础设施:公共设施:公共厕所",
        "type": 0,
        "location": {
            "lat": 30.125494,
            "lng": 114.948914
        },
        "ad_info": {
            "adcode": 420281,
            "province": "湖北省",
            "city": "黄石市",
            "district": "大冶市"
        }
    },
    {
        "id": "3170837034893171333",
        "title": "公共厕所",
        "address": "湖北省黄石市大冶市兰圣路与周兰生路交叉口正北方向53米左右",
        "tel": "",
        "category": "基础设施:公共设施:公共厕所",
        "type": 0,
        "location": {
            "lat": 30.157651,
            "lng": 115.007352
        },
        "ad_info": {
            "adcode": 420281,
            "province": "湖北省",
            "city": "黄石市",
            "district": "大冶市"
        }
    },
    {
        "id": "7138842563062906952",
        "title": "女洗手间",
        "address": "湖北省黄石市西塞山区武汉路99号黄石武商MALLF3",
        "tel": "",
        "category": "基础设施:公共设施:女洗手间",
        "type": 0,
        "location": {
            "lat": 30.2055,
            "lng": 115.088861
        },
        "ad_info": {
            "adcode": 420203,
            "province": "湖北省",
            "city": "黄石市",
            "district": "西塞山区"
        }
    },
    {
        "id": "10012772254427840848",
        "title": "公共厕所",
        "address": "湖北省黄石市大冶市商城路与青龙路交叉口东南方向42米左右",
        "tel": "",
        "category": "基础设施:公共设施:公共厕所",
        "type": 0,
        "location": {
            "lat": 30.081928,
            "lng": 114.97242
        },
        "ad_info": {
            "adcode": 420281,
            "province": "湖北省",
            "city": "黄石市",
            "district": "大冶市"
        }
    },
    {
        "id": "1686635039049901439",
        "title": "公共厕所",
        "address": "湖北省黄石市下陆区沿湖路7号",
        "tel": "",
        "category": "基础设施:公共设施:公共厕所",
        "type": 0,
        "location": {
            "lat": 30.177894,
            "lng": 114.979205
        },
        "ad_info": {
            "adcode": 420204,
            "province": "湖北省",
            "city": "黄石市",
            "district": "下陆区"
        }
    },
    {
        "id": "12037258090685225769",
        "title": "公共厕所",
        "address": "湖北省黄石市大冶市大冶大道249号",
        "tel": "",
        "category": "基础设施:公共设施:公共厕所",
        "type": 0,
        "location": {
            "lat": 30.126524,
            "lng": 114.970093
        },
        "ad_info": {
            "adcode": 420281,
            "province": "湖北省",
            "city": "黄石市",
            "district": "大冶市"
        }
    },
    {
        "id": "2926746001194806814",
        "title": "公共厕所",
        "address": "湖北省黄石市下陆区大泉路中国石化大泉路加油站",
        "tel": "",
        "category": "基础设施:公共设施:公共厕所",
        "type": 0,
        "location": {
            "lat": 30.228838,
            "lng": 115.029208
        },
        "ad_info": {
            "adcode": 420204,
            "province": "湖北省",
            "city": "黄石市",
            "district": "下陆区"
        }
    },
    {
        "id": "15107986437039969326",
        "title": "公共厕所",
        "address": "湖北省黄石市大冶市乾塔路铜草花园",
        "tel": "",
        "category": "基础设施:公共设施:公共厕所",
        "type": 0,
        "location": {
            "lat": 30.110971,
            "lng": 114.975981
        },
        "ad_info": {
            "adcode": 420281,
            "province": "湖北省",
            "city": "黄石市",
            "district": "大冶市"
        }
    },
    {
        "id": "8392309413682118401",
        "title": "公共厕所",
        "address": "湖北省黄石市下陆区恢书路与神牛路交叉口西北方向87米左右",
        "tel": "",
        "category": "基础设施:公共设施:公共厕所",
        "type": 0,
        "location": {
            "lat": 30.17825,
            "lng": 114.96344
        },
        "ad_info": {
            "adcode": 420204,
            "province": "湖北省",
            "city": "黄石市",
            "district": "下陆区"
        }
    },
    {
        "id": "3766452297612438667",
        "title": "公共厕所",
        "address": "湖北省黄石市阳新县花果山水上乐园西北侧",
        "tel": "",
        "category": "基础设施:公共设施:公共厕所",
        "type": 0,
        "location": {
            "lat": 29.995312,
            "lng": 115.333112
        },
        "ad_info": {
            "adcode": 420222,
            "province": "湖北省",
            "city": "黄石市",
            "district": "阳新县"
        }
    },
    {
        "id": "5233000013191202702",
        "title": "公共厕所",
        "address": "湖北省黄石市黄石港区颐阳路与黄石大道交叉口正西方向80米左右",
        "tel": "",
        "category": "基础设施:公共设施:公共厕所",
        "type": 0,
        "location": {
            "lat": 30.210181,
            "lng": 115.096075
        },
        "ad_info": {
            "adcode": 420202,
            "province": "湖北省",
            "city": "黄石市",
            "district": "黄石港区"
        }
    },
    {
        "id": "10992885142013389282",
        "title": "公共厕所",
        "address": "湖北省黄石市铁山区友爱路与广友路交叉口正东方向38米左右",
        "tel": "",
        "category": "基础设施:公共设施:公共厕所",
        "type": 0,
        "location": {
            "lat": 30.20726,
            "lng": 114.899258
        },
        "ad_info": {
            "adcode": 420205,
            "province": "湖北省",
            "city": "黄石市",
            "district": "铁山区"
        }
    },
    {
        "id": "17959626430380223751",
        "title": "公共厕所",
        "address": "湖北省黄石市西塞山区月亮山路与联合村路交叉口正南方向257米左右",
        "tel": "",
        "category": "基础设施:公共设施:公共厕所",
        "type": 0,
        "location": {
            "lat": 30.198329,
            "lng": 115.092325
        },
        "ad_info": {
            "adcode": 420203,
            "province": "湖北省",
            "city": "黄石市",
            "district": "西塞山区"
        }
    },
    {
        "id": "11261301098409527141",
        "title": "女洗手间",
        "address": "湖北省黄石市西塞山区武汉路99号黄石武商MALLF2",
        "tel": "",
        "category": "基础设施:公共设施:女洗手间",
        "type": 0,
        "location": {
            "lat": 30.206613,
            "lng": 115.089542
        },
        "ad_info": {
            "adcode": 420203,
            "province": "湖北省",
            "city": "黄石市",
            "district": "西塞山区"
        }
    },
    {
        "id": "9419259871679704811",
        "title": "公共厕所",
        "address": "湖北省黄石市大冶市矿冶大道与铜湖路交叉口东北方向547米左右",
        "tel": "",
        "category": "基础设施:公共设施:公共厕所",
        "type": 0,
        "location": {
            "lat": 30.070175,
            "lng": 114.952409
        },
        "ad_info": {
            "adcode": 420281,
            "province": "湖北省",
            "city": "黄石市",
            "district": "大冶市"
        }
    },
    {
        "id": "10592161436641077040",
        "title": "男洗手间",
        "address": "湖北省黄石市黄石港区花湖大道30号黄石港万达广场B1",
        "tel": "",
        "category": "基础设施:公共设施:男洗手间",
        "type": 0,
        "location": {
            "lat": 30.243207,
            "lng": 115.060803
        },
        "ad_info": {
            "adcode": 420202,
            "province": "湖北省",
            "city": "黄石市",
            "district": "黄石港区"
        }
    },
    {
        "id": "449351525853468281",
        "title": "公共厕所",
        "address": "湖北省黄石市大冶市港南路与育才路交叉口正东方向93米左右",
        "tel": "",
        "category": "基础设施:公共设施:公共厕所",
        "type": 0,
        "location": {
            "lat": 30.207877,
            "lng": 114.832389
        },
        "ad_info": {
            "adcode": 420281,
            "province": "湖北省",
            "city": "黄石市",
            "district": "大冶市"
        }
    },
    {
        "id": "9061307521209242740",
        "title": "公共厕所",
        "address": "湖北省黄石市西塞山区月亮山路与沿湖路交叉口西北方向316米左右",
        "tel": "",
        "category": "基础设施:公共设施:公共厕所",
        "type": 0,
        "location": {
            "lat": 30.194736,
            "lng": 115.058722
        },
        "ad_info": {
            "adcode": 420203,
            "province": "湖北省",
            "city": "黄石市",
            "district": "西塞山区"
        }
    },
    {
        "id": "10656702820939295887",
        "title": "女洗手间",
        "address": "湖北省黄石市西塞山区武汉路99号黄石武商MALLF8",
        "tel": "",
        "category": "基础设施:公共设施:女洗手间",
        "type": 0,
        "location": {
            "lat": 30.20658,
            "lng": 115.089436
        },
        "ad_info": {
            "adcode": 420203,
            "province": "湖北省",
            "city": "黄石市",
            "district": "西塞山区"
        }
    },
    {
        "id": "10934670959796240353",
        "title": "残障-洗手间",
        "address": "湖北省黄石市西塞山区武汉路99号黄石武商MALLF6",
        "tel": "",
        "category": "基础设施:公共设施:无障碍洗手间",
        "type": 0,
        "location": {
            "lat": 30.205531,
            "lng": 115.088849
        },
        "ad_info": {
            "adcode": 420203,
            "province": "湖北省",
            "city": "黄石市",
            "district": "西塞山区"
        }
    },
    {
        "id": "5377380016830709863",
        "title": "公共厕所",
        "address": "湖北省黄石市大冶市长乐大道14号",
        "tel": "",
        "category": "基础设施:公共设施:公共厕所",
        "type": 0,
        "location": {
            "lat": 30.125494,
            "lng": 114.948914
        },
        "ad_info": {
            "adcode": 420281,
            "province": "湖北省",
            "city": "黄石市",
            "district": "大冶市"
        }
    },
    {
        "id": "3170837034893171333",
        "title": "公共厕所",
        "address": "湖北省黄石市大冶市兰圣路与周兰生路交叉口正北方向53米左右",
        "tel": "",
        "category": "基础设施:公共设施:公共厕所",
        "type": 0,
        "location": {
            "lat": 30.157651,
            "lng": 115.007352
        },
        "ad_info": {
            "adcode": 420281,
            "province": "湖北省",
            "city": "黄石市",
            "district": "大冶市"
        }
    },
    {
        "id": "7138842563062906952",
        "title": "女洗手间",
        "address": "湖北省黄石市西塞山区武汉路99号黄石武商MALLF3",
        "tel": "",
        "category": "基础设施:公共设施:女洗手间",
        "type": 0,
        "location": {
            "lat": 30.2055,
            "lng": 115.088861
        },
        "ad_info": {
            "adcode": 420203,
            "province": "湖北省",
            "city": "黄石市",
            "district": "西塞山区"
        }
    },
    {
        "id": "10012772254427840848",
        "title": "公共厕所",
        "address": "湖北省黄石市大冶市商城路与青龙路交叉口东南方向42米左右",
        "tel": "",
        "category": "基础设施:公共设施:公共厕所",
        "type": 0,
        "location": {
            "lat": 30.081928,
            "lng": 114.97242
        },
        "ad_info": {
            "adcode": 420281,
            "province": "湖北省",
            "city": "黄石市",
            "district": "大冶市"
        }
    },
    {
        "id": "1686635039049901439",
        "title": "公共厕所",
        "address": "湖北省黄石市下陆区沿湖路7号",
        "tel": "",
        "category": "基础设施:公共设施:公共厕所",
        "type": 0,
        "location": {
            "lat": 30.177894,
            "lng": 114.979205
        },
        "ad_info": {
            "adcode": 420204,
            "province": "湖北省",
            "city": "黄石市",
            "district": "下陆区"
        }
    },
    {
        "id": "12037258090685225769",
        "title": "公共厕所",
        "address": "湖北省黄石市大冶市大冶大道249号",
        "tel": "",
        "category": "基础设施:公共设施:公共厕所",
        "type": 0,
        "location": {
            "lat": 30.126524,
            "lng": 114.970093
        },
        "ad_info": {
            "adcode": 420281,
            "province": "湖北省",
            "city": "黄石市",
            "district": "大冶市"
        }
    },
    {
        "id": "2926746001194806814",
        "title": "公共厕所",
        "address": "湖北省黄石市下陆区大泉路中国石化大泉路加油站",
        "tel": "",
        "category": "基础设施:公共设施:公共厕所",
        "type": 0,
        "location": {
            "lat": 30.228838,
            "lng": 115.029208
        },
        "ad_info": {
            "adcode": 420204,
            "province": "湖北省",
            "city": "黄石市",
            "district": "下陆区"
        }
    },
    {
        "id": "15107986437039969326",
        "title": "公共厕所",
        "address": "湖北省黄石市大冶市乾塔路铜草花园",
        "tel": "",
        "category": "基础设施:公共设施:公共厕所",
        "type": 0,
        "location": {
            "lat": 30.110971,
            "lng": 114.975981
        },
        "ad_info": {
            "adcode": 420281,
            "province": "湖北省",
            "city": "黄石市",
            "district": "大冶市"
        }
    },
    {
        "id": "8392309413682118401",
        "title": "公共厕所",
        "address": "湖北省黄石市下陆区恢书路与神牛路交叉口西北方向87米左右",
        "tel": "",
        "category": "基础设施:公共设施:公共厕所",
        "type": 0,
        "location": {
            "lat": 30.17825,
            "lng": 114.96344
        },
        "ad_info": {
            "adcode": 420204,
            "province": "湖北省",
            "city": "黄石市",
            "district": "下陆区"
        }
    },
    {
        "id": "3766452297612438667",
        "title": "公共厕所",
        "address": "湖北省黄石市阳新县花果山水上乐园西北侧",
        "tel": "",
        "category": "基础设施:公共设施:公共厕所",
        "type": 0,
        "location": {
            "lat": 29.995312,
            "lng": 115.333112
        },
        "ad_info": {
            "adcode": 420222,
            "province": "湖北省",
            "city": "黄石市",
            "district": "阳新县"
        }
    },
    {
        "id": "5233000013191202702",
        "title": "公共厕所",
        "address": "湖北省黄石市黄石港区颐阳路与黄石大道交叉口正西方向80米左右",
        "tel": "",
        "category": "基础设施:公共设施:公共厕所",
        "type": 0,
        "location": {
            "lat": 30.210181,
            "lng": 115.096075
        },
        "ad_info": {
            "adcode": 420202,
            "province": "湖北省",
            "city": "黄石市",
            "district": "黄石港区"
        }
    },
    {
        "id": "10992885142013389282",
        "title": "公共厕所",
        "address": "湖北省黄石市铁山区友爱路与广友路交叉口正东方向38米左右",
        "tel": "",
        "category": "基础设施:公共设施:公共厕所",
        "type": 0,
        "location": {
            "lat": 30.20726,
            "lng": 114.899258
        },
        "ad_info": {
            "adcode": 420205,
            "province": "湖北省",
            "city": "黄石市",
            "district": "铁山区"
        }
    },
    {
        "id": "17959626430380223751",
        "title": "公共厕所",
        "address": "湖北省黄石市西塞山区月亮山路与联合村路交叉口正南方向257米左右",
        "tel": "",
        "category": "基础设施:公共设施:公共厕所",
        "type": 0,
        "location": {
            "lat": 30.198329,
            "lng": 115.092325
        },
        "ad_info": {
            "adcode": 420203,
            "province": "湖北省",
            "city": "黄石市",
            "district": "西塞山区"
        }
    },
    {
        "id": "11261301098409527141",
        "title": "女洗手间",
        "address": "湖北省黄石市西塞山区武汉路99号黄石武商MALLF2",
        "tel": "",
        "category": "基础设施:公共设施:女洗手间",
        "type": 0,
        "location": {
            "lat": 30.206613,
            "lng": 115.089542
        },
        "ad_info": {
            "adcode": 420203,
            "province": "湖北省",
            "city": "黄石市",
            "district": "西塞山区"
        }
    },
    {
        "id": "9419259871679704811",
        "title": "公共厕所",
        "address": "湖北省黄石市大冶市矿冶大道与铜湖路交叉口东北方向547米左右",
        "tel": "",
        "category": "基础设施:公共设施:公共厕所",
        "type": 0,
        "location": {
            "lat": 30.070175,
            "lng": 114.952409
        },
        "ad_info": {
            "adcode": 420281,
            "province": "湖北省",
            "city": "黄石市",
            "district": "大冶市"
        }
    },
    {
        "id": "10592161436641077040",
        "title": "男洗手间",
        "address": "湖北省黄石市黄石港区花湖大道30号黄石港万达广场B1",
        "tel": "",
        "category": "基础设施:公共设施:男洗手间",
        "type": 0,
        "location": {
            "lat": 30.243207,
            "lng": 115.060803
        },
        "ad_info": {
            "adcode": 420202,
            "province": "湖北省",
            "city": "黄石市",
            "district": "黄石港区"
        }
    },
    {
        "id": "449351525853468281",
        "title": "公共厕所",
        "address": "湖北省黄石市大冶市港南路与育才路交叉口正东方向93米左右",
        "tel": "",
        "category": "基础设施:公共设施:公共厕所",
        "type": 0,
        "location": {
            "lat": 30.207877,
            "lng": 114.832389
        },
        "ad_info": {
            "adcode": 420281,
            "province": "湖北省",
            "city": "黄石市",
            "district": "大冶市"
        }
    },
    {
        "id": "9061307521209242740",
        "title": "公共厕所",
        "address": "湖北省黄石市西塞山区月亮山路与沿湖路交叉口西北方向316米左右",
        "tel": "",
        "category": "基础设施:公共设施:公共厕所",
        "type": 0,
        "location": {
            "lat": 30.194736,
            "lng": 115.058722
        },
        "ad_info": {
            "adcode": 420203,
            "province": "湖北省",
            "city": "黄石市",
            "district": "西塞山区"
        }
    },
    {
        "id": "10656702820939295887",
        "title": "女洗手间",
        "address": "湖北省黄石市西塞山区武汉路99号黄石武商MALLF8",
        "tel": "",
        "category": "基础设施:公共设施:女洗手间",
        "type": 0,
        "location": {
            "lat": 30.20658,
            "lng": 115.089436
        },
        "ad_info": {
            "adcode": 420203,
            "province": "湖北省",
            "city": "黄石市",
            "district": "西塞山区"
        }
    },
    {
        "id": "10934670959796240353",
        "title": "残障-洗手间",
        "address": "湖北省黄石市西塞山区武汉路99号黄石武商MALLF6",
        "tel": "",
        "category": "基础设施:公共设施:无障碍洗手间",
        "type": 0,
        "location": {
            "lat": 30.205531,
            "lng": 115.088849
        },
        "ad_info": {
            "adcode": 420203,
            "province": "湖北省",
            "city": "黄石市",
            "district": "西塞山区"
        }
    },
    {
        "id": "5377380016830709863",
        "title": "公共厕所",
        "address": "湖北省黄石市大冶市长乐大道14号",
        "tel": "",
        "category": "基础设施:公共设施:公共厕所",
        "type": 0,
        "location": {
            "lat": 30.125494,
            "lng": 114.948914
        },
        "ad_info": {
            "adcode": 420281,
            "province": "湖北省",
            "city": "黄石市",
            "district": "大冶市"
        }
    },
    {
        "id": "3170837034893171333",
        "title": "公共厕所",
        "address": "湖北省黄石市大冶市兰圣路与周兰生路交叉口正北方向53米左右",
        "tel": "",
        "category": "基础设施:公共设施:公共厕所",
        "type": 0,
        "location": {
            "lat": 30.157651,
            "lng": 115.007352
        },
        "ad_info": {
            "adcode": 420281,
            "province": "湖北省",
            "city": "黄石市",
            "district": "大冶市"
        }
    },
    {
        "id": "7138842563062906952",
        "title": "女洗手间",
        "address": "湖北省黄石市西塞山区武汉路99号黄石武商MALLF3",
        "tel": "",
        "category": "基础设施:公共设施:女洗手间",
        "type": 0,
        "location": {
            "lat": 30.2055,
            "lng": 115.088861
        },
        "ad_info": {
            "adcode": 420203,
            "province": "湖北省",
            "city": "黄石市",
            "district": "西塞山区"
        }
    },
    {
        "id": "10012772254427840848",
        "title": "公共厕所",
        "address": "湖北省黄石市大冶市商城路与青龙路交叉口东南方向42米左右",
        "tel": "",
        "category": "基础设施:公共设施:公共厕所",
        "type": 0,
        "location": {
            "lat": 30.081928,
            "lng": 114.97242
        },
        "ad_info": {
            "adcode": 420281,
            "province": "湖北省",
            "city": "黄石市",
            "district": "大冶市"
        }
    },
    {
        "id": "1686635039049901439",
        "title": "公共厕所",
        "address": "湖北省黄石市下陆区沿湖路7号",
        "tel": "",
        "category": "基础设施:公共设施:公共厕所",
        "type": 0,
        "location": {
            "lat": 30.177894,
            "lng": 114.979205
        },
        "ad_info": {
            "adcode": 420204,
            "province": "湖北省",
            "city": "黄石市",
            "district": "下陆区"
        }
    },
    {
        "id": "12037258090685225769",
        "title": "公共厕所",
        "address": "湖北省黄石市大冶市大冶大道249号",
        "tel": "",
        "category": "基础设施:公共设施:公共厕所",
        "type": 0,
        "location": {
            "lat": 30.126524,
            "lng": 114.970093
        },
        "ad_info": {
            "adcode": 420281,
            "province": "湖北省",
            "city": "黄石市",
            "district": "大冶市"
        }
    },
    {
        "id": "2926746001194806814",
        "title": "公共厕所",
        "address": "湖北省黄石市下陆区大泉路中国石化大泉路加油站",
        "tel": "",
        "category": "基础设施:公共设施:公共厕所",
        "type": 0,
        "location": {
            "lat": 30.228838,
            "lng": 115.029208
        },
        "ad_info": {
            "adcode": 420204,
            "province": "湖北省",
            "city": "黄石市",
            "district": "下陆区"
        }
    },
    {
        "id": "15107986437039969326",
        "title": "公共厕所",
        "address": "湖北省黄石市大冶市乾塔路铜草花园",
        "tel": "",
        "category": "基础设施:公共设施:公共厕所",
        "type": 0,
        "location": {
            "lat": 30.110971,
            "lng": 114.975981
        },
        "ad_info": {
            "adcode": 420281,
            "province": "湖北省",
            "city": "黄石市",
            "district": "大冶市"
        }
    },
    {
        "id": "8392309413682118401",
        "title": "公共厕所",
        "address": "湖北省黄石市下陆区恢书路与神牛路交叉口西北方向87米左右",
        "tel": "",
        "category": "基础设施:公共设施:公共厕所",
        "type": 0,
        "location": {
            "lat": 30.17825,
            "lng": 114.96344
        },
        "ad_info": {
            "adcode": 420204,
            "province": "湖北省",
            "city": "黄石市",
            "district": "下陆区"
        }
    },
    {
        "id": "3766452297612438667",
        "title": "公共厕所",
        "address": "湖北省黄石市阳新县花果山水上乐园西北侧",
        "tel": "",
        "category": "基础设施:公共设施:公共厕所",
        "type": 0,
        "location": {
            "lat": 29.995312,
            "lng": 115.333112
        },
        "ad_info": {
            "adcode": 420222,
            "province": "湖北省",
            "city": "黄石市",
            "district": "阳新县"
        }
    },
    {
        "id": "5233000013191202702",
        "title": "公共厕所",
        "address": "湖北省黄石市黄石港区颐阳路与黄石大道交叉口正西方向80米左右",
        "tel": "",
        "category": "基础设施:公共设施:公共厕所",
        "type": 0,
        "location": {
            "lat": 30.210181,
            "lng": 115.096075
        },
        "ad_info": {
            "adcode": 420202,
            "province": "湖北省",
            "city": "黄石市",
            "district": "黄石港区"
        }
    },
    {
        "id": "10992885142013389282",
        "title": "公共厕所",
        "address": "湖北省黄石市铁山区友爱路与广友路交叉口正东方向38米左右",
        "tel": "",
        "category": "基础设施:公共设施:公共厕所",
        "type": 0,
        "location": {
            "lat": 30.20726,
            "lng": 114.899258
        },
        "ad_info": {
            "adcode": 420205,
            "province": "湖北省",
            "city": "黄石市",
            "district": "铁山区"
        }
    },
    {
        "id": "17959626430380223751",
        "title": "公共厕所",
        "address": "湖北省黄石市西塞山区月亮山路与联合村路交叉口正南方向257米左右",
        "tel": "",
        "category": "基础设施:公共设施:公共厕所",
        "type": 0,
        "location": {
            "lat": 30.198329,
            "lng": 115.092325
        },
        "ad_info": {
            "adcode": 420203,
            "province": "湖北省",
            "city": "黄石市",
            "district": "西塞山区"
        }
    },
    {
        "id": "11261301098409527141",
        "title": "女洗手间",
        "address": "湖北省黄石市西塞山区武汉路99号黄石武商MALLF2",
        "tel": "",
        "category": "基础设施:公共设施:女洗手间",
        "type": 0,
        "location": {
            "lat": 30.206613,
            "lng": 115.089542
        },
        "ad_info": {
            "adcode": 420203,
            "province": "湖北省",
            "city": "黄石市",
            "district": "西塞山区"
        }
    },
    {
        "id": "9419259871679704811",
        "title": "公共厕所",
        "address": "湖北省黄石市大冶市矿冶大道与铜湖路交叉口东北方向547米左右",
        "tel": "",
        "category": "基础设施:公共设施:公共厕所",
        "type": 0,
        "location": {
            "lat": 30.070175,
            "lng": 114.952409
        },
        "ad_info": {
            "adcode": 420281,
            "province": "湖北省",
            "city": "黄石市",
            "district": "大冶市"
        }
    },
    {
        "id": "10592161436641077040",
        "title": "男洗手间",
        "address": "湖北省黄石市黄石港区花湖大道30号黄石港万达广场B1",
        "tel": "",
        "category": "基础设施:公共设施:男洗手间",
        "type": 0,
        "location": {
            "lat": 30.243207,
            "lng": 115.060803
        },
        "ad_info": {
            "adcode": 420202,
            "province": "湖北省",
            "city": "黄石市",
            "district": "黄石港区"
        }
    },
    {
        "id": "449351525853468281",
        "title": "公共厕所",
        "address": "湖北省黄石市大冶市港南路与育才路交叉口正东方向93米左右",
        "tel": "",
        "category": "基础设施:公共设施:公共厕所",
        "type": 0,
        "location": {
            "lat": 30.207877,
            "lng": 114.832389
        },
        "ad_info": {
            "adcode": 420281,
            "province": "湖北省",
            "city": "黄石市",
            "district": "大冶市"
        }
    },
    {
        "id": "9061307521209242740",
        "title": "公共厕所",
        "address": "湖北省黄石市西塞山区月亮山路与沿湖路交叉口西北方向316米左右",
        "tel": "",
        "category": "基础设施:公共设施:公共厕所",
        "type": 0,
        "location": {
            "lat": 30.194736,
            "lng": 115.058722
        },
        "ad_info": {
            "adcode": 420203,
            "province": "湖北省",
            "city": "黄石市",
            "district": "西塞山区"
        }
    },
    {
        "id": "10656702820939295887",
        "title": "女洗手间",
        "address": "湖北省黄石市西塞山区武汉路99号黄石武商MALLF8",
        "tel": "",
        "category": "基础设施:公共设施:女洗手间",
        "type": 0,
        "location": {
            "lat": 30.20658,
            "lng": 115.089436
        },
        "ad_info": {
            "adcode": 420203,
            "province": "湖北省",
            "city": "黄石市",
            "district": "西塞山区"
        }
    },
    {
        "id": "10934670959796240353",
        "title": "残障-洗手间",
        "address": "湖北省黄石市西塞山区武汉路99号黄石武商MALLF6",
        "tel": "",
        "category": "基础设施:公共设施:无障碍洗手间",
        "type": 0,
        "location": {
            "lat": 30.205531,
            "lng": 115.088849
        },
        "ad_info": {
            "adcode": 420203,
            "province": "湖北省",
            "city": "黄石市",
            "district": "西塞山区"
        }
    },
    {
        "id": "5377380016830709863",
        "title": "公共厕所",
        "address": "湖北省黄石市大冶市长乐大道14号",
        "tel": "",
        "category": "基础设施:公共设施:公共厕所",
        "type": 0,
        "location": {
            "lat": 30.125494,
            "lng": 114.948914
        },
        "ad_info": {
            "adcode": 420281,
            "province": "湖北省",
            "city": "黄石市",
            "district": "大冶市"
        }
    },
    {
        "id": "3170837034893171333",
        "title": "公共厕所",
        "address": "湖北省黄石市大冶市兰圣路与周兰生路交叉口正北方向53米左右",
        "tel": "",
        "category": "基础设施:公共设施:公共厕所",
        "type": 0,
        "location": {
            "lat": 30.157651,
            "lng": 115.007352
        },
        "ad_info": {
            "adcode": 420281,
            "province": "湖北省",
            "city": "黄石市",
            "district": "大冶市"
        }
    },
    {
        "id": "7138842563062906952",
        "title": "女洗手间",
        "address": "湖北省黄石市西塞山区武汉路99号黄石武商MALLF3",
        "tel": "",
        "category": "基础设施:公共设施:女洗手间",
        "type": 0,
        "location": {
            "lat": 30.2055,
            "lng": 115.088861
        },
        "ad_info": {
            "adcode": 420203,
            "province": "湖北省",
            "city": "黄石市",
            "district": "西塞山区"
        }
    },
    {
        "id": "10012772254427840848",
        "title": "公共厕所",
        "address": "湖北省黄石市大冶市商城路与青龙路交叉口东南方向42米左右",
        "tel": "",
        "category": "基础设施:公共设施:公共厕所",
        "type": 0,
        "location": {
            "lat": 30.081928,
            "lng": 114.97242
        },
        "ad_info": {
            "adcode": 420281,
            "province": "湖北省",
            "city": "黄石市",
            "district": "大冶市"
        }
    },
    {
        "id": "1686635039049901439",
        "title": "公共厕所",
        "address": "湖北省黄石市下陆区沿湖路7号",
        "tel": "",
        "category": "基础设施:公共设施:公共厕所",
        "type": 0,
        "location": {
            "lat": 30.177894,
            "lng": 114.979205
        },
        "ad_info": {
            "adcode": 420204,
            "province": "湖北省",
            "city": "黄石市",
            "district": "下陆区"
        }
    },
    {
        "id": "12037258090685225769",
        "title": "公共厕所",
        "address": "湖北省黄石市大冶市大冶大道249号",
        "tel": "",
        "category": "基础设施:公共设施:公共厕所",
        "type": 0,
        "location": {
            "lat": 30.126524,
            "lng": 114.970093
        },
        "ad_info": {
            "adcode": 420281,
            "province": "湖北省",
            "city": "黄石市",
            "district": "大冶市"
        }
    },
    {
        "id": "2926746001194806814",
        "title": "公共厕所",
        "address": "湖北省黄石市下陆区大泉路中国石化大泉路加油站",
        "tel": "",
        "category": "基础设施:公共设施:公共厕所",
        "type": 0,
        "location": {
            "lat": 30.228838,
            "lng": 115.029208
        },
        "ad_info": {
            "adcode": 420204,
            "province": "湖北省",
            "city": "黄石市",
            "district": "下陆区"
        }
    },
    {
        "id": "15107986437039969326",
        "title": "公共厕所",
        "address": "湖北省黄石市大冶市乾塔路铜草花园",
        "tel": "",
        "category": "基础设施:公共设施:公共厕所",
        "type": 0,
        "location": {
            "lat": 30.110971,
            "lng": 114.975981
        },
        "ad_info": {
            "adcode": 420281,
            "province": "湖北省",
            "city": "黄石市",
            "district": "大冶市"
        }
    },
    {
        "id": "8392309413682118401",
        "title": "公共厕所",
        "address": "湖北省黄石市下陆区恢书路与神牛路交叉口西北方向87米左右",
        "tel": "",
        "category": "基础设施:公共设施:公共厕所",
        "type": 0,
        "location": {
            "lat": 30.17825,
            "lng": 114.96344
        },
        "ad_info": {
            "adcode": 420204,
            "province": "湖北省",
            "city": "黄石市",
            "district": "下陆区"
        }
    },
    {
        "id": "3766452297612438667",
        "title": "公共厕所",
        "address": "湖北省黄石市阳新县花果山水上乐园西北侧",
        "tel": "",
        "category": "基础设施:公共设施:公共厕所",
        "type": 0,
        "location": {
            "lat": 29.995312,
            "lng": 115.333112
        },
        "ad_info": {
            "adcode": 420222,
            "province": "湖北省",
            "city": "黄石市",
            "district": "阳新县"
        }
    },
    {
        "id": "5233000013191202702",
        "title": "公共厕所",
        "address": "湖北省黄石市黄石港区颐阳路与黄石大道交叉口正西方向80米左右",
        "tel": "",
        "category": "基础设施:公共设施:公共厕所",
        "type": 0,
        "location": {
            "lat": 30.210181,
            "lng": 115.096075
        },
        "ad_info": {
            "adcode": 420202,
            "province": "湖北省",
            "city": "黄石市",
            "district": "黄石港区"
        }
    },
    {
        "id": "10992885142013389282",
        "title": "公共厕所",
        "address": "湖北省黄石市铁山区友爱路与广友路交叉口正东方向38米左右",
        "tel": "",
        "category": "基础设施:公共设施:公共厕所",
        "type": 0,
        "location": {
            "lat": 30.20726,
            "lng": 114.899258
        },
        "ad_info": {
            "adcode": 420205,
            "province": "湖北省",
            "city": "黄石市",
            "district": "铁山区"
        }
    },
    {
        "id": "17959626430380223751",
        "title": "公共厕所",
        "address": "湖北省黄石市西塞山区月亮山路与联合村路交叉口正南方向257米左右",
        "tel": "",
        "category": "基础设施:公共设施:公共厕所",
        "type": 0,
        "location": {
            "lat": 30.198329,
            "lng": 115.092325
        },
        "ad_info": {
            "adcode": 420203,
            "province": "湖北省",
            "city": "黄石市",
            "district": "西塞山区"
        }
    },
    {
        "id": "11261301098409527141",
        "title": "女洗手间",
        "address": "湖北省黄石市西塞山区武汉路99号黄石武商MALLF2",
        "tel": "",
        "category": "基础设施:公共设施:女洗手间",
        "type": 0,
        "location": {
            "lat": 30.206613,
            "lng": 115.089542
        },
        "ad_info": {
            "adcode": 420203,
            "province": "湖北省",
            "city": "黄石市",
            "district": "西塞山区"
        }
    },
    {
        "id": "9419259871679704811",
        "title": "公共厕所",
        "address": "湖北省黄石市大冶市矿冶大道与铜湖路交叉口东北方向547米左右",
        "tel": "",
        "category": "基础设施:公共设施:公共厕所",
        "type": 0,
        "location": {
            "lat": 30.070175,
            "lng": 114.952409
        },
        "ad_info": {
            "adcode": 420281,
            "province": "湖北省",
            "city": "黄石市",
            "district": "大冶市"
        }
    },
    {
        "id": "10592161436641077040",
        "title": "男洗手间",
        "address": "湖北省黄石市黄石港区花湖大道30号黄石港万达广场B1",
        "tel": "",
        "category": "基础设施:公共设施:男洗手间",
        "type": 0,
        "location": {
            "lat": 30.243207,
            "lng": 115.060803
        },
        "ad_info": {
            "adcode": 420202,
            "province": "湖北省",
            "city": "黄石市",
            "district": "黄石港区"
        }
    },
    {
        "id": "449351525853468281",
        "title": "公共厕所",
        "address": "湖北省黄石市大冶市港南路与育才路交叉口正东方向93米左右",
        "tel": "",
        "category": "基础设施:公共设施:公共厕所",
        "type": 0,
        "location": {
            "lat": 30.207877,
            "lng": 114.832389
        },
        "ad_info": {
            "adcode": 420281,
            "province": "湖北省",
            "city": "黄石市",
            "district": "大冶市"
        }
    },
    {
        "id": "9061307521209242740",
        "title": "公共厕所",
        "address": "湖北省黄石市西塞山区月亮山路与沿湖路交叉口西北方向316米左右",
        "tel": "",
        "category": "基础设施:公共设施:公共厕所",
        "type": 0,
        "location": {
            "lat": 30.194736,
            "lng": 115.058722
        },
        "ad_info": {
            "adcode": 420203,
            "province": "湖北省",
            "city": "黄石市",
            "district": "西塞山区"
        }
    },
    {
        "id": "10656702820939295887",
        "title": "女洗手间",
        "address": "湖北省黄石市西塞山区武汉路99号黄石武商MALLF8",
        "tel": "",
        "category": "基础设施:公共设施:女洗手间",
        "type": 0,
        "location": {
            "lat": 30.20658,
            "lng": 115.089436
        },
        "ad_info": {
            "adcode": 420203,
            "province": "湖北省",
            "city": "黄石市",
            "district": "西塞山区"
        }
    },
    {
        "id": "10934670959796240353",
        "title": "残障-洗手间",
        "address": "湖北省黄石市西塞山区武汉路99号黄石武商MALLF6",
        "tel": "",
        "category": "基础设施:公共设施:无障碍洗手间",
        "type": 0,
        "location": {
            "lat": 30.205531,
            "lng": 115.088849
        },
        "ad_info": {
            "adcode": 420203,
            "province": "湖北省",
            "city": "黄石市",
            "district": "西塞山区"
        }
    },
    {
        "id": "5377380016830709863",
        "title": "公共厕所",
        "address": "湖北省黄石市大冶市长乐大道14号",
        "tel": "",
        "category": "基础设施:公共设施:公共厕所",
        "type": 0,
        "location": {
            "lat": 30.125494,
            "lng": 114.948914
        },
        "ad_info": {
            "adcode": 420281,
            "province": "湖北省",
            "city": "黄石市",
            "district": "大冶市"
        }
    },
    {
        "id": "3170837034893171333",
        "title": "公共厕所",
        "address": "湖北省黄石市大冶市兰圣路与周兰生路交叉口正北方向53米左右",
        "tel": "",
        "category": "基础设施:公共设施:公共厕所",
        "type": 0,
        "location": {
            "lat": 30.157651,
            "lng": 115.007352
        },
        "ad_info": {
            "adcode": 420281,
            "province": "湖北省",
            "city": "黄石市",
            "district": "大冶市"
        }
    },
    {
        "id": "7138842563062906952",
        "title": "女洗手间",
        "address": "湖北省黄石市西塞山区武汉路99号黄石武商MALLF3",
        "tel": "",
        "category": "基础设施:公共设施:女洗手间",
        "type": 0,
        "location": {
            "lat": 30.2055,
            "lng": 115.088861
        },
        "ad_info": {
            "adcode": 420203,
            "province": "湖北省",
            "city": "黄石市",
            "district": "西塞山区"
        }
    },
    {
        "id": "10012772254427840848",
        "title": "公共厕所",
        "address": "湖北省黄石市大冶市商城路与青龙路交叉口东南方向42米左右",
        "tel": "",
        "category": "基础设施:公共设施:公共厕所",
        "type": 0,
        "location": {
            "lat": 30.081928,
            "lng": 114.97242
        },
        "ad_info": {
            "adcode": 420281,
            "province": "湖北省",
            "city": "黄石市",
            "district": "大冶市"
        }
    },
    {
        "id": "1686635039049901439",
        "title": "公共厕所",
        "address": "湖北省黄石市下陆区沿湖路7号",
        "tel": "",
        "category": "基础设施:公共设施:公共厕所",
        "type": 0,
        "location": {
            "lat": 30.177894,
            "lng": 114.979205
        },
        "ad_info": {
            "adcode": 420204,
            "province": "湖北省",
            "city": "黄石市",
            "district": "下陆区"
        }
    },
    {
        "id": "12037258090685225769",
        "title": "公共厕所",
        "address": "湖北省黄石市大冶市大冶大道249号",
        "tel": "",
        "category": "基础设施:公共设施:公共厕所",
        "type": 0,
        "location": {
            "lat": 30.126524,
            "lng": 114.970093
        },
        "ad_info": {
            "adcode": 420281,
            "province": "湖北省",
            "city": "黄石市",
            "district": "大冶市"
        }
    },
    {
        "id": "2926746001194806814",
        "title": "公共厕所",
        "address": "湖北省黄石市下陆区大泉路中国石化大泉路加油站",
        "tel": "",
        "category": "基础设施:公共设施:公共厕所",
        "type": 0,
        "location": {
            "lat": 30.228838,
            "lng": 115.029208
        },
        "ad_info": {
            "adcode": 420204,
            "province": "湖北省",
            "city": "黄石市",
            "district": "下陆区"
        }
    },
    {
        "id": "15107986437039969326",
        "title": "公共厕所",
        "address": "湖北省黄石市大冶市乾塔路铜草花园",
        "tel": "",
        "category": "基础设施:公共设施:公共厕所",
        "type": 0,
        "location": {
            "lat": 30.110971,
            "lng": 114.975981
        },
        "ad_info": {
            "adcode": 420281,
            "province": "湖北省",
            "city": "黄石市",
            "district": "大冶市"
        }
    },
    {
        "id": "8392309413682118401",
        "title": "公共厕所",
        "address": "湖北省黄石市下陆区恢书路与神牛路交叉口西北方向87米左右",
        "tel": "",
        "category": "基础设施:公共设施:公共厕所",
        "type": 0,
        "location": {
            "lat": 30.17825,
            "lng": 114.96344
        },
        "ad_info": {
            "adcode": 420204,
            "province": "湖北省",
            "city": "黄石市",
            "district": "下陆区"
        }
    },
    {
        "id": "3766452297612438667",
        "title": "公共厕所",
        "address": "湖北省黄石市阳新县花果山水上乐园西北侧",
        "tel": "",
        "category": "基础设施:公共设施:公共厕所",
        "type": 0,
        "location": {
            "lat": 29.995312,
            "lng": 115.333112
        },
        "ad_info": {
            "adcode": 420222,
            "province": "湖北省",
            "city": "黄石市",
            "district": "阳新县"
        }
    },
    {
        "id": "5233000013191202702",
        "title": "公共厕所",
        "address": "湖北省黄石市黄石港区颐阳路与黄石大道交叉口正西方向80米左右",
        "tel": "",
        "category": "基础设施:公共设施:公共厕所",
        "type": 0,
        "location": {
            "lat": 30.210181,
            "lng": 115.096075
        },
        "ad_info": {
            "adcode": 420202,
            "province": "湖北省",
            "city": "黄石市",
            "district": "黄石港区"
        }
    },
    {
        "id": "10992885142013389282",
        "title": "公共厕所",
        "address": "湖北省黄石市铁山区友爱路与广友路交叉口正东方向38米左右",
        "tel": "",
        "category": "基础设施:公共设施:公共厕所",
        "type": 0,
        "location": {
            "lat": 30.20726,
            "lng": 114.899258
        },
        "ad_info": {
            "adcode": 420205,
            "province": "湖北省",
            "city": "黄石市",
            "district": "铁山区"
        }
    },
    {
        "id": "17959626430380223751",
        "title": "公共厕所",
        "address": "湖北省黄石市西塞山区月亮山路与联合村路交叉口正南方向257米左右",
        "tel": "",
        "category": "基础设施:公共设施:公共厕所",
        "type": 0,
        "location": {
            "lat": 30.198329,
            "lng": 115.092325
        },
        "ad_info": {
            "adcode": 420203,
            "province": "湖北省",
            "city": "黄石市",
            "district": "西塞山区"
        }
    },
    {
        "id": "11261301098409527141",
        "title": "女洗手间",
        "address": "湖北省黄石市西塞山区武汉路99号黄石武商MALLF2",
        "tel": "",
        "category": "基础设施:公共设施:女洗手间",
        "type": 0,
        "location": {
            "lat": 30.206613,
            "lng": 115.089542
        },
        "ad_info": {
            "adcode": 420203,
            "province": "湖北省",
            "city": "黄石市",
            "district": "西塞山区"
        }
    },
    {
        "id": "9419259871679704811",
        "title": "公共厕所",
        "address": "湖北省黄石市大冶市矿冶大道与铜湖路交叉口东北方向547米左右",
        "tel": "",
        "category": "基础设施:公共设施:公共厕所",
        "type": 0,
        "location": {
            "lat": 30.070175,
            "lng": 114.952409
        },
        "ad_info": {
            "adcode": 420281,
            "province": "湖北省",
            "city": "黄石市",
            "district": "大冶市"
        }
    },
    {
        "id": "10592161436641077040",
        "title": "男洗手间",
        "address": "湖北省黄石市黄石港区花湖大道30号黄石港万达广场B1",
        "tel": "",
        "category": "基础设施:公共设施:男洗手间",
        "type": 0,
        "location": {
            "lat": 30.243207,
            "lng": 115.060803
        },
        "ad_info": {
            "adcode": 420202,
            "province": "湖北省",
            "city": "黄石市",
            "district": "黄石港区"
        }
    },
    {
        "id": "449351525853468281",
        "title": "公共厕所",
        "address": "湖北省黄石市大冶市港南路与育才路交叉口正东方向93米左右",
        "tel": "",
        "category": "基础设施:公共设施:公共厕所",
        "type": 0,
        "location": {
            "lat": 30.207877,
            "lng": 114.832389
        },
        "ad_info": {
            "adcode": 420281,
            "province": "湖北省",
            "city": "黄石市",
            "district": "大冶市"
        }
    },
    {
        "id": "9061307521209242740",
        "title": "公共厕所",
        "address": "湖北省黄石市西塞山区月亮山路与沿湖路交叉口西北方向316米左右",
        "tel": "",
        "category": "基础设施:公共设施:公共厕所",
        "type": 0,
        "location": {
            "lat": 30.194736,
            "lng": 115.058722
        },
        "ad_info": {
            "adcode": 420203,
            "province": "湖北省",
            "city": "黄石市",
            "district": "西塞山区"
        }
    },
    {
        "id": "10656702820939295887",
        "title": "女洗手间",
        "address": "湖北省黄石市西塞山区武汉路99号黄石武商MALLF8",
        "tel": "",
        "category": "基础设施:公共设施:女洗手间",
        "type": 0,
        "location": {
            "lat": 30.20658,
            "lng": 115.089436
        },
        "ad_info": {
            "adcode": 420203,
            "province": "湖北省",
            "city": "黄石市",
            "district": "西塞山区"
        }
    },
    {
        "id": "10934670959796240353",
        "title": "残障-洗手间",
        "address": "湖北省黄石市西塞山区武汉路99号黄石武商MALLF6",
        "tel": "",
        "category": "基础设施:公共设施:无障碍洗手间",
        "type": 0,
        "location": {
            "lat": 30.205531,
            "lng": 115.088849
        },
        "ad_info": {
            "adcode": 420203,
            "province": "湖北省",
            "city": "黄石市",
            "district": "西塞山区"
        }
    },
    {
        "id": "5377380016830709863",
        "title": "公共厕所",
        "address": "湖北省黄石市大冶市长乐大道14号",
        "tel": "",
        "category": "基础设施:公共设施:公共厕所",
        "type": 0,
        "location": {
            "lat": 30.125494,
            "lng": 114.948914
        },
        "ad_info": {
            "adcode": 420281,
            "province": "湖北省",
            "city": "黄石市",
            "district": "大冶市"
        }
    },
    {
        "id": "3170837034893171333",
        "title": "公共厕所",
        "address": "湖北省黄石市大冶市兰圣路与周兰生路交叉口正北方向53米左右",
        "tel": "",
        "category": "基础设施:公共设施:公共厕所",
        "type": 0,
        "location": {
            "lat": 30.157651,
            "lng": 115.007352
        },
        "ad_info": {
            "adcode": 420281,
            "province": "湖北省",
            "city": "黄石市",
            "district": "大冶市"
        }
    },
    {
        "id": "7138842563062906952",
        "title": "女洗手间",
        "address": "湖北省黄石市西塞山区武汉路99号黄石武商MALLF3",
        "tel": "",
        "category": "基础设施:公共设施:女洗手间",
        "type": 0,
        "location": {
            "lat": 30.2055,
            "lng": 115.088861
        },
        "ad_info": {
            "adcode": 420203,
            "province": "湖北省",
            "city": "黄石市",
            "district": "西塞山区"
        }
    },
    {
        "id": "10012772254427840848",
        "title": "公共厕所",
        "address": "湖北省黄石市大冶市商城路与青龙路交叉口东南方向42米左右",
        "tel": "",
        "category": "基础设施:公共设施:公共厕所",
        "type": 0,
        "location": {
            "lat": 30.081928,
            "lng": 114.97242
        },
        "ad_info": {
            "adcode": 420281,
            "province": "湖北省",
            "city": "黄石市",
            "district": "大冶市"
        }
    },
    {
        "id": "1686635039049901439",
        "title": "公共厕所",
        "address": "湖北省黄石市下陆区沿湖路7号",
        "tel": "",
        "category": "基础设施:公共设施:公共厕所",
        "type": 0,
        "location": {
            "lat": 30.177894,
            "lng": 114.979205
        },
        "ad_info": {
            "adcode": 420204,
            "province": "湖北省",
            "city": "黄石市",
            "district": "下陆区"
        }
    },
    {
        "id": "12037258090685225769",
        "title": "公共厕所",
        "address": "湖北省黄石市大冶市大冶大道249号",
        "tel": "",
        "category": "基础设施:公共设施:公共厕所",
        "type": 0,
        "location": {
            "lat": 30.126524,
            "lng": 114.970093
        },
        "ad_info": {
            "adcode": 420281,
            "province": "湖北省",
            "city": "黄石市",
            "district": "大冶市"
        }
    },
    {
        "id": "2926746001194806814",
        "title": "公共厕所",
        "address": "湖北省黄石市下陆区大泉路中国石化大泉路加油站",
        "tel": "",
        "category": "基础设施:公共设施:公共厕所",
        "type": 0,
        "location": {
            "lat": 30.228838,
            "lng": 115.029208
        },
        "ad_info": {
            "adcode": 420204,
            "province": "湖北省",
            "city": "黄石市",
            "district": "下陆区"
        }
    },
    {
        "id": "15107986437039969326",
        "title": "公共厕所",
        "address": "湖北省黄石市大冶市乾塔路铜草花园",
        "tel": "",
        "category": "基础设施:公共设施:公共厕所",
        "type": 0,
        "location": {
            "lat": 30.110971,
            "lng": 114.975981
        },
        "ad_info": {
            "adcode": 420281,
            "province": "湖北省",
            "city": "黄石市",
            "district": "大冶市"
        }
    },
    {
        "id": "8392309413682118401",
        "title": "公共厕所",
        "address": "湖北省黄石市下陆区恢书路与神牛路交叉口西北方向87米左右",
        "tel": "",
        "category": "基础设施:公共设施:公共厕所",
        "type": 0,
        "location": {
            "lat": 30.17825,
            "lng": 114.96344
        },
        "ad_info": {
            "adcode": 420204,
            "province": "湖北省",
            "city": "黄石市",
            "district": "下陆区"
        }
    },
    {
        "id": "3766452297612438667",
        "title": "公共厕所",
        "address": "湖北省黄石市阳新县花果山水上乐园西北侧",
        "tel": "",
        "category": "基础设施:公共设施:公共厕所",
        "type": 0,
        "location": {
            "lat": 29.995312,
            "lng": 115.333112
        },
        "ad_info": {
            "adcode": 420222,
            "province": "湖北省",
            "city": "黄石市",
            "district": "阳新县"
        }
    },
    {
        "id": "5233000013191202702",
        "title": "公共厕所",
        "address": "湖北省黄石市黄石港区颐阳路与黄石大道交叉口正西方向80米左右",
        "tel": "",
        "category": "基础设施:公共设施:公共厕所",
        "type": 0,
        "location": {
            "lat": 30.210181,
            "lng": 115.096075
        },
        "ad_info": {
            "adcode": 420202,
            "province": "湖北省",
            "city": "黄石市",
            "district": "黄石港区"
        }
    },
    {
        "id": "10992885142013389282",
        "title": "公共厕所",
        "address": "湖北省黄石市铁山区友爱路与广友路交叉口正东方向38米左右",
        "tel": "",
        "category": "基础设施:公共设施:公共厕所",
        "type": 0,
        "location": {
            "lat": 30.20726,
            "lng": 114.899258
        },
        "ad_info": {
            "adcode": 420205,
            "province": "湖北省",
            "city": "黄石市",
            "district": "铁山区"
        }
    },
    {
        "id": "17959626430380223751",
        "title": "公共厕所",
        "address": "湖北省黄石市西塞山区月亮山路与联合村路交叉口正南方向257米左右",
        "tel": "",
        "category": "基础设施:公共设施:公共厕所",
        "type": 0,
        "location": {
            "lat": 30.198329,
            "lng": 115.092325
        },
        "ad_info": {
            "adcode": 420203,
            "province": "湖北省",
            "city": "黄石市",
            "district": "西塞山区"
        }
    },
    {
        "id": "11261301098409527141",
        "title": "女洗手间",
        "address": "湖北省黄石市西塞山区武汉路99号黄石武商MALLF2",
        "tel": "",
        "category": "基础设施:公共设施:女洗手间",
        "type": 0,
        "location": {
            "lat": 30.206613,
            "lng": 115.089542
        },
        "ad_info": {
            "adcode": 420203,
            "province": "湖北省",
            "city": "黄石市",
            "district": "西塞山区"
        }
    },
    {
        "id": "9419259871679704811",
        "title": "公共厕所",
        "address": "湖北省黄石市大冶市矿冶大道与铜湖路交叉口东北方向547米左右",
        "tel": "",
        "category": "基础设施:公共设施:公共厕所",
        "type": 0,
        "location": {
            "lat": 30.070175,
            "lng": 114.952409
        },
        "ad_info": {
            "adcode": 420281,
            "province": "湖北省",
            "city": "黄石市",
            "district": "大冶市"
        }
    },
    {
        "id": "10592161436641077040",
        "title": "男洗手间",
        "address": "湖北省黄石市黄石港区花湖大道30号黄石港万达广场B1",
        "tel": "",
        "category": "基础设施:公共设施:男洗手间",
        "type": 0,
        "location": {
            "lat": 30.243207,
            "lng": 115.060803
        },
        "ad_info": {
            "adcode": 420202,
            "province": "湖北省",
            "city": "黄石市",
            "district": "黄石港区"
        }
    },
    {
        "id": "449351525853468281",
        "title": "公共厕所",
        "address": "湖北省黄石市大冶市港南路与育才路交叉口正东方向93米左右",
        "tel": "",
        "category": "基础设施:公共设施:公共厕所",
        "type": 0,
        "location": {
            "lat": 30.207877,
            "lng": 114.832389
        },
        "ad_info": {
            "adcode": 420281,
            "province": "湖北省",
            "city": "黄石市",
            "district": "大冶市"
        }
    },
    {
        "id": "9061307521209242740",
        "title": "公共厕所",
        "address": "湖北省黄石市西塞山区月亮山路与沿湖路交叉口西北方向316米左右",
        "tel": "",
        "category": "基础设施:公共设施:公共厕所",
        "type": 0,
        "location": {
            "lat": 30.194736,
            "lng": 115.058722
        },
        "ad_info": {
            "adcode": 420203,
            "province": "湖北省",
            "city": "黄石市",
            "district": "西塞山区"
        }
    },
    {
        "id": "10656702820939295887",
        "title": "女洗手间",
        "address": "湖北省黄石市西塞山区武汉路99号黄石武商MALLF8",
        "tel": "",
        "category": "基础设施:公共设施:女洗手间",
        "type": 0,
        "location": {
            "lat": 30.20658,
            "lng": 115.089436
        },
        "ad_info": {
            "adcode": 420203,
            "province": "湖北省",
            "city": "黄石市",
            "district": "西塞山区"
        }
    },
    {
        "id": "10934670959796240353",
        "title": "残障-洗手间",
        "address": "湖北省黄石市西塞山区武汉路99号黄石武商MALLF6",
        "tel": "",
        "category": "基础设施:公共设施:无障碍洗手间",
        "type": 0,
        "location": {
            "lat": 30.205531,
            "lng": 115.088849
        },
        "ad_info": {
            "adcode": 420203,
            "province": "湖北省",
            "city": "黄石市",
            "district": "西塞山区"
        }
    },
    {
        "id": "5377380016830709863",
        "title": "公共厕所",
        "address": "湖北省黄石市大冶市长乐大道14号",
        "tel": "",
        "category": "基础设施:公共设施:公共厕所",
        "type": 0,
        "location": {
            "lat": 30.125494,
            "lng": 114.948914
        },
        "ad_info": {
            "adcode": 420281,
            "province": "湖北省",
            "city": "黄石市",
            "district": "大冶市"
        }
    },
    {
        "id": "3170837034893171333",
        "title": "公共厕所",
        "address": "湖北省黄石市大冶市兰圣路与周兰生路交叉口正北方向53米左右",
        "tel": "",
        "category": "基础设施:公共设施:公共厕所",
        "type": 0,
        "location": {
            "lat": 30.157651,
            "lng": 115.007352
        },
        "ad_info": {
            "adcode": 420281,
            "province": "湖北省",
            "city": "黄石市",
            "district": "大冶市"
        }
    },
    {
        "id": "7138842563062906952",
        "title": "女洗手间",
        "address": "湖北省黄石市西塞山区武汉路99号黄石武商MALLF3",
        "tel": "",
        "category": "基础设施:公共设施:女洗手间",
        "type": 0,
        "location": {
            "lat": 30.2055,
            "lng": 115.088861
        },
        "ad_info": {
            "adcode": 420203,
            "province": "湖北省",
            "city": "黄石市",
            "district": "西塞山区"
        }
    },
    {
        "id": "10012772254427840848",
        "title": "公共厕所",
        "address": "湖北省黄石市大冶市商城路与青龙路交叉口东南方向42米左右",
        "tel": "",
        "category": "基础设施:公共设施:公共厕所",
        "type": 0,
        "location": {
            "lat": 30.081928,
            "lng": 114.97242
        },
        "ad_info": {
            "adcode": 420281,
            "province": "湖北省",
            "city": "黄石市",
            "district": "大冶市"
        }
    },
    {
        "id": "1686635039049901439",
        "title": "公共厕所",
        "address": "湖北省黄石市下陆区沿湖路7号",
        "tel": "",
        "category": "基础设施:公共设施:公共厕所",
        "type": 0,
        "location": {
            "lat": 30.177894,
            "lng": 114.979205
        },
        "ad_info": {
            "adcode": 420204,
            "province": "湖北省",
            "city": "黄石市",
            "district": "下陆区"
        }
    },
    {
        "id": "12037258090685225769",
        "title": "公共厕所",
        "address": "湖北省黄石市大冶市大冶大道249号",
        "tel": "",
        "category": "基础设施:公共设施:公共厕所",
        "type": 0,
        "location": {
            "lat": 30.126524,
            "lng": 114.970093
        },
        "ad_info": {
            "adcode": 420281,
            "province": "湖北省",
            "city": "黄石市",
            "district": "大冶市"
        }
    },
    {
        "id": "2926746001194806814",
        "title": "公共厕所",
        "address": "湖北省黄石市下陆区大泉路中国石化大泉路加油站",
        "tel": "",
        "category": "基础设施:公共设施:公共厕所",
        "type": 0,
        "location": {
            "lat": 30.228838,
            "lng": 115.029208
        },
        "ad_info": {
            "adcode": 420204,
            "province": "湖北省",
            "city": "黄石市",
            "district": "下陆区"
        }
    },
    {
        "id": "15107986437039969326",
        "title": "公共厕所",
        "address": "湖北省黄石市大冶市乾塔路铜草花园",
        "tel": "",
        "category": "基础设施:公共设施:公共厕所",
        "type": 0,
        "location": {
            "lat": 30.110971,
            "lng": 114.975981
        },
        "ad_info": {
            "adcode": 420281,
            "province": "湖北省",
            "city": "黄石市",
            "district": "大冶市"
        }
    },
    {
        "id": "8392309413682118401",
        "title": "公共厕所",
        "address": "湖北省黄石市下陆区恢书路与神牛路交叉口西北方向87米左右",
        "tel": "",
        "category": "基础设施:公共设施:公共厕所",
        "type": 0,
        "location": {
            "lat": 30.17825,
            "lng": 114.96344
        },
        "ad_info": {
            "adcode": 420204,
            "province": "湖北省",
            "city": "黄石市",
            "district": "下陆区"
        }
    },
    {
        "id": "3766452297612438667",
        "title": "公共厕所",
        "address": "湖北省黄石市阳新县花果山水上乐园西北侧",
        "tel": "",
        "category": "基础设施:公共设施:公共厕所",
        "type": 0,
        "location": {
            "lat": 29.995312,
            "lng": 115.333112
        },
        "ad_info": {
            "adcode": 420222,
            "province": "湖北省",
            "city": "黄石市",
            "district": "阳新县"
        }
    },
    {
        "id": "5233000013191202702",
        "title": "公共厕所",
        "address": "湖北省黄石市黄石港区颐阳路与黄石大道交叉口正西方向80米左右",
        "tel": "",
        "category": "基础设施:公共设施:公共厕所",
        "type": 0,
        "location": {
            "lat": 30.210181,
            "lng": 115.096075
        },
        "ad_info": {
            "adcode": 420202,
            "province": "湖北省",
            "city": "黄石市",
            "district": "黄石港区"
        }
    },
    {
        "id": "10992885142013389282",
        "title": "公共厕所",
        "address": "湖北省黄石市铁山区友爱路与广友路交叉口正东方向38米左右",
        "tel": "",
        "category": "基础设施:公共设施:公共厕所",
        "type": 0,
        "location": {
            "lat": 30.20726,
            "lng": 114.899258
        },
        "ad_info": {
            "adcode": 420205,
            "province": "湖北省",
            "city": "黄石市",
            "district": "铁山区"
        }
    },
    {
        "id": "17959626430380223751",
        "title": "公共厕所",
        "address": "湖北省黄石市西塞山区月亮山路与联合村路交叉口正南方向257米左右",
        "tel": "",
        "category": "基础设施:公共设施:公共厕所",
        "type": 0,
        "location": {
            "lat": 30.198329,
            "lng": 115.092325
        },
        "ad_info": {
            "adcode": 420203,
            "province": "湖北省",
            "city": "黄石市",
            "district": "西塞山区"
        }
    },
    {
        "id": "11261301098409527141",
        "title": "女洗手间",
        "address": "湖北省黄石市西塞山区武汉路99号黄石武商MALLF2",
        "tel": "",
        "category": "基础设施:公共设施:女洗手间",
        "type": 0,
        "location": {
            "lat": 30.206613,
            "lng": 115.089542
        },
        "ad_info": {
            "adcode": 420203,
            "province": "湖北省",
            "city": "黄石市",
            "district": "西塞山区"
        }
    },
    {
        "id": "9419259871679704811",
        "title": "公共厕所",
        "address": "湖北省黄石市大冶市矿冶大道与铜湖路交叉口东北方向547米左右",
        "tel": "",
        "category": "基础设施:公共设施:公共厕所",
        "type": 0,
        "location": {
            "lat": 30.070175,
            "lng": 114.952409
        },
        "ad_info": {
            "adcode": 420281,
            "province": "湖北省",
            "city": "黄石市",
            "district": "大冶市"
        }
    },
    {
        "id": "10592161436641077040",
        "title": "男洗手间",
        "address": "湖北省黄石市黄石港区花湖大道30号黄石港万达广场B1",
        "tel": "",
        "category": "基础设施:公共设施:男洗手间",
        "type": 0,
        "location": {
            "lat": 30.243207,
            "lng": 115.060803
        },
        "ad_info": {
            "adcode": 420202,
            "province": "湖北省",
            "city": "黄石市",
            "district": "黄石港区"
        }
    },
    {
        "id": "449351525853468281",
        "title": "公共厕所",
        "address": "湖北省黄石市大冶市港南路与育才路交叉口正东方向93米左右",
        "tel": "",
        "category": "基础设施:公共设施:公共厕所",
        "type": 0,
        "location": {
            "lat": 30.207877,
            "lng": 114.832389
        },
        "ad_info": {
            "adcode": 420281,
            "province": "湖北省",
            "city": "黄石市",
            "district": "大冶市"
        }
    },
    {
        "id": "9061307521209242740",
        "title": "公共厕所",
        "address": "湖北省黄石市西塞山区月亮山路与沿湖路交叉口西北方向316米左右",
        "tel": "",
        "category": "基础设施:公共设施:公共厕所",
        "type": 0,
        "location": {
            "lat": 30.194736,
            "lng": 115.058722
        },
        "ad_info": {
            "adcode": 420203,
            "province": "湖北省",
            "city": "黄石市",
            "district": "西塞山区"
        }
    },
    {
        "id": "10656702820939295887",
        "title": "女洗手间",
        "address": "湖北省黄石市西塞山区武汉路99号黄石武商MALLF8",
        "tel": "",
        "category": "基础设施:公共设施:女洗手间",
        "type": 0,
        "location": {
            "lat": 30.20658,
            "lng": 115.089436
        },
        "ad_info": {
            "adcode": 420203,
            "province": "湖北省",
            "city": "黄石市",
            "district": "西塞山区"
        }
    },
    {
        "id": "10934670959796240353",
        "title": "残障-洗手间",
        "address": "湖北省黄石市西塞山区武汉路99号黄石武商MALLF6",
        "tel": "",
        "category": "基础设施:公共设施:无障碍洗手间",
        "type": 0,
        "location": {
            "lat": 30.205531,
            "lng": 115.088849
        },
        "ad_info": {
            "adcode": 420203,
            "province": "湖北省",
            "city": "黄石市",
            "district": "西塞山区"
        }
    },
    {
        "id": "5377380016830709863",
        "title": "公共厕所",
        "address": "湖北省黄石市大冶市长乐大道14号",
        "tel": "",
        "category": "基础设施:公共设施:公共厕所",
        "type": 0,
        "location": {
            "lat": 30.125494,
            "lng": 114.948914
        },
        "ad_info": {
            "adcode": 420281,
            "province": "湖北省",
            "city": "黄石市",
            "district": "大冶市"
        }
    },
    {
        "id": "3170837034893171333",
        "title": "公共厕所",
        "address": "湖北省黄石市大冶市兰圣路与周兰生路交叉口正北方向53米左右",
        "tel": "",
        "category": "基础设施:公共设施:公共厕所",
        "type": 0,
        "location": {
            "lat": 30.157651,
            "lng": 115.007352
        },
        "ad_info": {
            "adcode": 420281,
            "province": "湖北省",
            "city": "黄石市",
            "district": "大冶市"
        }
    },
    {
        "id": "7138842563062906952",
        "title": "女洗手间",
        "address": "湖北省黄石市西塞山区武汉路99号黄石武商MALLF3",
        "tel": "",
        "category": "基础设施:公共设施:女洗手间",
        "type": 0,
        "location": {
            "lat": 30.2055,
            "lng": 115.088861
        },
        "ad_info": {
            "adcode": 420203,
            "province": "湖北省",
            "city": "黄石市",
            "district": "西塞山区"
        }
    },
    {
        "id": "10012772254427840848",
        "title": "公共厕所",
        "address": "湖北省黄石市大冶市商城路与青龙路交叉口东南方向42米左右",
        "tel": "",
        "category": "基础设施:公共设施:公共厕所",
        "type": 0,
        "location": {
            "lat": 30.081928,
            "lng": 114.97242
        },
        "ad_info": {
            "adcode": 420281,
            "province": "湖北省",
            "city": "黄石市",
            "district": "大冶市"
        }
    },
    {
        "id": "1686635039049901439",
        "title": "公共厕所",
        "address": "湖北省黄石市下陆区沿湖路7号",
        "tel": "",
        "category": "基础设施:公共设施:公共厕所",
        "type": 0,
        "location": {
            "lat": 30.177894,
            "lng": 114.979205
        },
        "ad_info": {
            "adcode": 420204,
            "province": "湖北省",
            "city": "黄石市",
            "district": "下陆区"
        }
    },
    {
        "id": "12037258090685225769",
        "title": "公共厕所",
        "address": "湖北省黄石市大冶市大冶大道249号",
        "tel": "",
        "category": "基础设施:公共设施:公共厕所",
        "type": 0,
        "location": {
            "lat": 30.126524,
            "lng": 114.970093
        },
        "ad_info": {
            "adcode": 420281,
            "province": "湖北省",
            "city": "黄石市",
            "district": "大冶市"
        }
    },
    {
        "id": "2926746001194806814",
        "title": "公共厕所",
        "address": "湖北省黄石市下陆区大泉路中国石化大泉路加油站",
        "tel": "",
        "category": "基础设施:公共设施:公共厕所",
        "type": 0,
        "location": {
            "lat": 30.228838,
            "lng": 115.029208
        },
        "ad_info": {
            "adcode": 420204,
            "province": "湖北省",
            "city": "黄石市",
            "district": "下陆区"
        }
    },
    {
        "id": "15107986437039969326",
        "title": "公共厕所",
        "address": "湖北省黄石市大冶市乾塔路铜草花园",
        "tel": "",
        "category": "基础设施:公共设施:公共厕所",
        "type": 0,
        "location": {
            "lat": 30.110971,
            "lng": 114.975981
        },
        "ad_info": {
            "adcode": 420281,
            "province": "湖北省",
            "city": "黄石市",
            "district": "大冶市"
        }
    },
    {
        "id": "8392309413682118401",
        "title": "公共厕所",
        "address": "湖北省黄石市下陆区恢书路与神牛路交叉口西北方向87米左右",
        "tel": "",
        "category": "基础设施:公共设施:公共厕所",
        "type": 0,
        "location": {
            "lat": 30.17825,
            "lng": 114.96344
        },
        "ad_info": {
            "adcode": 420204,
            "province": "湖北省",
            "city": "黄石市",
            "district": "下陆区"
        }
    },
    {
        "id": "3766452297612438667",
        "title": "公共厕所",
        "address": "湖北省黄石市阳新县花果山水上乐园西北侧",
        "tel": "",
        "category": "基础设施:公共设施:公共厕所",
        "type": 0,
        "location": {
            "lat": 29.995312,
            "lng": 115.333112
        },
        "ad_info": {
            "adcode": 420222,
            "province": "湖北省",
            "city": "黄石市",
            "district": "阳新县"
        }
    },
    {
        "id": "5233000013191202702",
        "title": "公共厕所",
        "address": "湖北省黄石市黄石港区颐阳路与黄石大道交叉口正西方向80米左右",
        "tel": "",
        "category": "基础设施:公共设施:公共厕所",
        "type": 0,
        "location": {
            "lat": 30.210181,
            "lng": 115.096075
        },
        "ad_info": {
            "adcode": 420202,
            "province": "湖北省",
            "city": "黄石市",
            "district": "黄石港区"
        }
    },
    {
        "id": "10992885142013389282",
        "title": "公共厕所",
        "address": "湖北省黄石市铁山区友爱路与广友路交叉口正东方向38米左右",
        "tel": "",
        "category": "基础设施:公共设施:公共厕所",
        "type": 0,
        "location": {
            "lat": 30.20726,
            "lng": 114.899258
        },
        "ad_info": {
            "adcode": 420205,
            "province": "湖北省",
            "city": "黄石市",
            "district": "铁山区"
        }
    },
    {
        "id": "17959626430380223751",
        "title": "公共厕所",
        "address": "湖北省黄石市西塞山区月亮山路与联合村路交叉口正南方向257米左右",
        "tel": "",
        "category": "基础设施:公共设施:公共厕所",
        "type": 0,
        "location": {
            "lat": 30.198329,
            "lng": 115.092325
        },
        "ad_info": {
            "adcode": 420203,
            "province": "湖北省",
            "city": "黄石市",
            "district": "西塞山区"
        }
    },
    {
        "id": "11261301098409527141",
        "title": "女洗手间",
        "address": "湖北省黄石市西塞山区武汉路99号黄石武商MALLF2",
        "tel": "",
        "category": "基础设施:公共设施:女洗手间",
        "type": 0,
        "location": {
            "lat": 30.206613,
            "lng": 115.089542
        },
        "ad_info": {
            "adcode": 420203,
            "province": "湖北省",
            "city": "黄石市",
            "district": "西塞山区"
        }
    },
    {
        "id": "9419259871679704811",
        "title": "公共厕所",
        "address": "湖北省黄石市大冶市矿冶大道与铜湖路交叉口东北方向547米左右",
        "tel": "",
        "category": "基础设施:公共设施:公共厕所",
        "type": 0,
        "location": {
            "lat": 30.070175,
            "lng": 114.952409
        },
        "ad_info": {
            "adcode": 420281,
            "province": "湖北省",
            "city": "黄石市",
            "district": "大冶市"
        }
    },
    {
        "id": "10592161436641077040",
        "title": "男洗手间",
        "address": "湖北省黄石市黄石港区花湖大道30号黄石港万达广场B1",
        "tel": "",
        "category": "基础设施:公共设施:男洗手间",
        "type": 0,
        "location": {
            "lat": 30.243207,
            "lng": 115.060803
        },
        "ad_info": {
            "adcode": 420202,
            "province": "湖北省",
            "city": "黄石市",
            "district": "黄石港区"
        }
    },
    {
        "id": "449351525853468281",
        "title": "公共厕所",
        "address": "湖北省黄石市大冶市港南路与育才路交叉口正东方向93米左右",
        "tel": "",
        "category": "基础设施:公共设施:公共厕所",
        "type": 0,
        "location": {
            "lat": 30.207877,
            "lng": 114.832389
        },
        "ad_info": {
            "adcode": 420281,
            "province": "湖北省",
            "city": "黄石市",
            "district": "大冶市"
        }
    },
    {
        "id": "9061307521209242740",
        "title": "公共厕所",
        "address": "湖北省黄石市西塞山区月亮山路与沿湖路交叉口西北方向316米左右",
        "tel": "",
        "category": "基础设施:公共设施:公共厕所",
        "type": 0,
        "location": {
            "lat": 30.194736,
            "lng": 115.058722
        },
        "ad_info": {
            "adcode": 420203,
            "province": "湖北省",
            "city": "黄石市",
            "district": "西塞山区"
        }
    },
    {
        "id": "10656702820939295887",
        "title": "女洗手间",
        "address": "湖北省黄石市西塞山区武汉路99号黄石武商MALLF8",
        "tel": "",
        "category": "基础设施:公共设施:女洗手间",
        "type": 0,
        "location": {
            "lat": 30.20658,
            "lng": 115.089436
        },
        "ad_info": {
            "adcode": 420203,
            "province": "湖北省",
            "city": "黄石市",
            "district": "西塞山区"
        }
    },
    {
        "id": "10934670959796240353",
        "title": "残障-洗手间",
        "address": "湖北省黄石市西塞山区武汉路99号黄石武商MALLF6",
        "tel": "",
        "category": "基础设施:公共设施:无障碍洗手间",
        "type": 0,
        "location": {
            "lat": 30.205531,
            "lng": 115.088849
        },
        "ad_info": {
            "adcode": 420203,
            "province": "湖北省",
            "city": "黄石市",
            "district": "西塞山区"
        }
    },
    {
        "id": "5377380016830709863",
        "title": "公共厕所",
        "address": "湖北省黄石市大冶市长乐大道14号",
        "tel": "",
        "category": "基础设施:公共设施:公共厕所",
        "type": 0,
        "location": {
            "lat": 30.125494,
            "lng": 114.948914
        },
        "ad_info": {
            "adcode": 420281,
            "province": "湖北省",
            "city": "黄石市",
            "district": "大冶市"
        }
    },
    {
        "id": "3170837034893171333",
        "title": "公共厕所",
        "address": "湖北省黄石市大冶市兰圣路与周兰生路交叉口正北方向53米左右",
        "tel": "",
        "category": "基础设施:公共设施:公共厕所",
        "type": 0,
        "location": {
            "lat": 30.157651,
            "lng": 115.007352
        },
        "ad_info": {
            "adcode": 420281,
            "province": "湖北省",
            "city": "黄石市",
            "district": "大冶市"
        }
    },
    {
        "id": "7138842563062906952",
        "title": "女洗手间",
        "address": "湖北省黄石市西塞山区武汉路99号黄石武商MALLF3",
        "tel": "",
        "category": "基础设施:公共设施:女洗手间",
        "type": 0,
        "location": {
            "lat": 30.2055,
            "lng": 115.088861
        },
        "ad_info": {
            "adcode": 420203,
            "province": "湖北省",
            "city": "黄石市",
            "district": "西塞山区"
        }
    }
]