[
    {
        "id": "1157415278488962751",
        "title": "公共厕所",
        "address": "黑龙江省黑河市嫩江市墨尔根大街与富民路交叉口东北方向113米左右",
        "tel": "",
        "category": "基础设施:公共设施:公共厕所",
        "type": 0,
        "location": {
            "lat": 49.174793,
            "lng": 125.222223
        },
        "ad_info": {
            "adcode": 231183,
            "province": "黑龙江省",
            "city": "黑河市",
            "district": "嫩江市"
        }
    },
    {
        "id": "10565733907384398352",
        "title": "公共厕所",
        "address": "黑龙江省黑河市爱辉区西兴路黑河市第二小学",
        "tel": "",
        "category": "基础设施:公共设施:公共厕所",
        "type": 0,
        "location": {
            "lat": 50.249862,
            "lng": 127.490053
        },
        "ad_info": {
            "adcode": 231102,
            "province": "黑龙江省",
            "city": "黑河市",
            "district": "爱辉区"
        }
    },
    {
        "id": "7316023515055955949",
        "title": "公共厕所",
        "address": "黑龙江省黑河市孙吴县建华路与核心街交叉口东南方向83米左右",
        "tel": "",
        "category": "基础设施:公共设施:公共厕所",
        "type": 0,
        "location": {
            "lat": 49.424264,
            "lng": 127.347481
        },
        "ad_info": {
            "adcode": 231124,
            "province": "黑龙江省",
            "city": "黑河市",
            "district": "孙吴县"
        }
    },
    {
        "id": "13600153157172178385",
        "title": "公共厕所",
        "address": "黑龙江省黑河市嫩江市嫩兴路嫩江县人民医院",
        "tel": "",
        "category": "基础设施:公共设施:公共厕所",
        "type": 0,
        "location": {
            "lat": 49.176967,
            "lng": 125.23364
        },
        "ad_info": {
            "adcode": 231183,
            "province": "黑龙江省",
            "city": "黑河市",
            "district": "嫩江市"
        }
    },
    {
        "id": "17991281802241891880",
        "title": "公共厕所",
        "address": "黑龙江省黑河市逊克县S516与致富路交叉口正西方向384米左右",
        "tel": "",
        "category": "基础设施:公共设施:公共厕所",
        "type": 0,
        "location": {
            "lat": 49.363232,
            "lng": 128.061497
        },
        "ad_info": {
            "adcode": 231123,
            "province": "黑龙江省",
            "city": "黑河市",
            "district": "逊克县"
        }
    },
    {
        "id": "16151561693019345966",
        "title": "公共厕所",
        "address": "黑龙江省黑河市嫩江市嫩兴路与通江街交叉口西北方向37米左右",
        "tel": "",
        "category": "基础设施:公共设施:公共厕所",
        "type": 0,
        "location": {
            "lat": 49.175064,
            "lng": 125.209938
        },
        "ad_info": {
            "adcode": 231183,
            "province": "黑龙江省",
            "city": "黑河市",
            "district": "嫩江市"
        }
    },
    {
        "id": "10839555223784381547",
        "title": "公共厕所",
        "address": "黑龙江省黑河市爱辉区铁路街283号黑河国际公路客运站",
        "tel": "",
        "category": "基础设施:公共设施:公共厕所",
        "type": 0,
        "location": {
            "lat": 50.234891,
            "lng": 127.502221
        },
        "ad_info": {
            "adcode": 231102,
            "province": "黑龙江省",
            "city": "黑河市",
            "district": "爱辉区"
        }
    },
    {
        "id": "3507691880121823038",
        "title": "公共厕所",
        "address": "黑龙江省黑河市孙吴县交通大街473号",
        "tel": "",
        "category": "基础设施:公共设施:公共厕所",
        "type": 0,
        "location": {
            "lat": 49.427681,
            "lng": 127.337924
        },
        "ad_info": {
            "adcode": 231124,
            "province": "黑龙江省",
            "city": "黑河市",
            "district": "孙吴县"
        }
    },
    {
        "id": "5036144151193180589",
        "title": "公共厕所",
        "address": "黑龙江省黑河市爱辉区中央商业步行街与中央街交叉口西南方向34米左右",
        "tel": "",
        "category": "基础设施:公共设施:公共厕所",
        "type": 0,
        "location": {
            "lat": 50.252218,
            "lng": 127.491667
        },
        "ad_info": {
            "adcode": 231102,
            "province": "黑龙江省",
            "city": "黑河市",
            "district": "爱辉区"
        }
    },
    {
        "id": "9955774931272081930",
        "title": "公共厕所",
        "address": "黑龙江省黑河市北安市平安街与黄河路交叉口正西方向329米左右",
        "tel": "",
        "category": "基础设施:公共设施:公共厕所",
        "type": 0,
        "location": {
            "lat": 48.246467,
            "lng": 126.489191
        },
        "ad_info": {
            "adcode": 231181,
            "province": "黑龙江省",
            "city": "黑河市",
            "district": "北安市"
        }
    },
    {
        "id": "15970465477704937213",
        "title": "公共厕所",
        "address": "黑龙江省黑河市嫩江市G231与北环路交叉口东北方向76米左右",
        "tel": "",
        "category": "基础设施:公共设施:公共厕所",
        "type": 0,
        "location": {
            "lat": 49.188384,
            "lng": 125.222443
        },
        "ad_info": {
            "adcode": 231183,
            "province": "黑龙江省",
            "city": "黑河市",
            "district": "嫩江市"
        }
    },
    {
        "id": "9498558200226273061",
        "title": "公共厕所",
        "address": "黑龙江省黑河市爱辉区中央东大街34号",
        "tel": "",
        "category": "基础设施:公共设施:公共厕所",
        "type": 0,
        "location": {
            "lat": 50.243365,
            "lng": 127.51503
        },
        "ad_info": {
            "adcode": 231102,
            "province": "黑龙江省",
            "city": "黑河市",
            "district": "爱辉区"
        }
    },
    {
        "id": "17245001371578766305",
        "title": "公共厕所",
        "address": "黑龙江省黑河市北安市友谊街凤凰尊品",
        "tel": "",
        "category": "基础设施:公共设施:公共厕所",
        "type": 0,
        "location": {
            "lat": 48.241996,
            "lng": 126.508614
        },
        "ad_info": {
            "adcode": 231181,
            "province": "黑龙江省",
            "city": "黑河市",
            "district": "北安市"
        }
    },
    {
        "id": "15542937072452859835",
        "title": "公共厕所",
        "address": "黑龙江省黑河市爱辉区幸福巷道与机场路交叉口西南方向176米左右",
        "tel": "",
        "category": "基础设施:公共设施:公共厕所",
        "type": 0,
        "location": {
            "lat": 50.243877,
            "lng": 127.48042
        },
        "ad_info": {
            "adcode": 231102,
            "province": "黑龙江省",
            "city": "黑河市",
            "district": "爱辉区"
        }
    },
    {
        "id": "14080189272752486739",
        "title": "公共厕所",
        "address": "黑龙江省黑河市北安市南京路与香山街交叉口西南方向314米左右",
        "tel": "",
        "category": "基础设施:公共设施:公共厕所",
        "type": 0,
        "location": {
            "lat": 48.261096,
            "lng": 126.500975
        },
        "ad_info": {
            "adcode": 231181,
            "province": "黑龙江省",
            "city": "黑河市",
            "district": "北安市"
        }
    },
    {
        "id": "15349769855551617342",
        "title": "公共厕所",
        "address": "黑龙江省黑河市孙吴县G202与跨铁路桥交叉口东北方向1325米左右",
        "tel": "",
        "category": "基础设施:公共设施:公共厕所",
        "type": 0,
        "location": {
            "lat": 49.732317,
            "lng": 127.374735
        },
        "ad_info": {
            "adcode": 231124,
            "province": "黑龙江省",
            "city": "黑河市",
            "district": "孙吴县"
        }
    },
    {
        "id": "13407028077774377598",
        "title": "公共厕所",
        "address": "黑龙江省黑河市逊克县G331与Y001交叉口西北方向89米左右",
        "tel": "",
        "category": "基础设施:公共设施:公共厕所",
        "type": 0,
        "location": {
            "lat": 49.390269,
            "lng": 129.00513
        },
        "ad_info": {
            "adcode": 231123,
            "province": "黑龙江省",
            "city": "黑河市",
            "district": "逊克县"
        }
    },
    {
        "id": "16835747136494009554",
        "title": "公共厕所",
        "address": "黑龙江省黑河市北安市庆华中路与庆华南街交叉口正西方向391米左右",
        "tel": "",
        "category": "基础设施:公共设施:公共厕所",
        "type": 0,
        "location": {
            "lat": 48.240744,
            "lng": 126.533902
        },
        "ad_info": {
            "adcode": 231181,
            "province": "黑龙江省",
            "city": "黑河市",
            "district": "北安市"
        }
    },
    {
        "id": "1441464133901545686",
        "title": "公共厕所",
        "address": "黑龙江省黑河市北安市民益街与西直路交叉口正南方向129米左右",
        "tel": "",
        "category": "基础设施:公共设施:公共厕所",
        "type": 0,
        "location": {
            "lat": 47.778945,
            "lng": 126.772334
        },
        "ad_info": {
            "adcode": 231181,
            "province": "黑龙江省",
            "city": "黑河市",
            "district": "北安市"
        }
    },
    {
        "id": "3533608607950237035",
        "title": "公共厕所",
        "address": "黑龙江省黑河市爱辉区南大街与通江街交叉口东南方向183米左右",
        "tel": "",
        "category": "基础设施:公共设施:公共厕所",
        "type": 0,
        "location": {
            "lat": 50.246161,
            "lng": 127.490402
        },
        "ad_info": {
            "adcode": 231102,
            "province": "黑龙江省",
            "city": "黑河市",
            "district": "爱辉区"
        }
    },
    {
        "id": "1081823067717598365",
        "title": "公共厕所",
        "address": "黑龙江省黑河市爱辉区311省道东50米",
        "tel": "",
        "category": "基础设施:公共设施:公共厕所",
        "type": 0,
        "location": {
            "lat": 49.851973,
            "lng": 127.515919
        },
        "ad_info": {
            "adcode": 231102,
            "province": "黑龙江省",
            "city": "黑河市",
            "district": "爱辉区"
        }
    },
    {
        "id": "2999094292252363457",
        "title": "公共厕所",
        "address": "黑龙江省黑河市北安市兆麟街与庆华西路交叉口西北方向33米左右",
        "tel": "",
        "category": "基础设施:公共设施:公共厕所",
        "type": 0,
        "location": {
            "lat": 48.241252,
            "lng": 126.526267
        },
        "ad_info": {
            "adcode": 231181,
            "province": "黑龙江省",
            "city": "黑河市",
            "district": "北安市"
        }
    },
    {
        "id": "3423629214331731255",
        "title": "公共厕所",
        "address": "黑龙江省黑河市北安市乌裕尔大街与光明路交叉口正北方向147米左右",
        "tel": "",
        "category": "基础设施:公共设施:公共厕所",
        "type": 0,
        "location": {
            "lat": 48.243319,
            "lng": 126.522278
        },
        "ad_info": {
            "adcode": 231181,
            "province": "黑龙江省",
            "city": "黑河市",
            "district": "北安市"
        }
    },
    {
        "id": "14563213423896178063",
        "title": "公共厕所",
        "address": "黑龙江省黑河市逊克县山湖街与百合路交叉口东北方向39米左右",
        "tel": "",
        "category": "基础设施:公共设施:公共厕所",
        "type": 0,
        "location": {
            "lat": 49.582264,
            "lng": 128.468399
        },
        "ad_info": {
            "adcode": 231123,
            "province": "黑龙江省",
            "city": "黑河市",
            "district": "逊克县"
        }
    },
    {
        "id": "14633937355341222447",
        "title": "公共厕所",
        "address": "黑龙江省黑河市爱辉区Y613与拉腰子桥交叉口正东方向836米左右",
        "tel": "",
        "category": "基础设施:公共设施:公共厕所",
        "type": 0,
        "location": {
            "lat": 49.932306,
            "lng": 127.420624
        },
        "ad_info": {
            "adcode": 231102,
            "province": "黑龙江省",
            "city": "黑河市",
            "district": "爱辉区"
        }
    },
    {
        "id": "3613363324275733838",
        "title": "公共厕所",
        "address": "黑龙江省黑河市爱辉区幸福巷道与机场路交叉口正东方向83米左右",
        "tel": "",
        "category": "基础设施:公共设施:公共厕所",
        "type": 0,
        "location": {
            "lat": 50.245136,
            "lng": 127.483434
        },
        "ad_info": {
            "adcode": 231102,
            "province": "黑龙江省",
            "city": "黑河市",
            "district": "爱辉区"
        }
    },
    {
        "id": "9705049468009417459",
        "title": "公共厕所",
        "address": "黑龙江省黑河市逊克县卓越幼儿园(建设路)",
        "tel": "",
        "category": "基础设施:公共设施:公共厕所",
        "type": 0,
        "location": {
            "lat": 49.579488,
            "lng": 128.471224
        },
        "ad_info": {
            "adcode": 231123,
            "province": "黑龙江省",
            "city": "黑河市",
            "district": "逊克县"
        }
    },
    {
        "id": "14975901095681777523",
        "title": "公共厕所",
        "address": "黑龙江省黑河市北安市北京路与圣龙山街交叉口正西方向162米左右",
        "tel": "",
        "category": "基础设施:公共设施:公共厕所",
        "type": 0,
        "location": {
            "lat": 48.233146,
            "lng": 126.503834
        },
        "ad_info": {
            "adcode": 231181,
            "province": "黑龙江省",
            "city": "黑河市",
            "district": "北安市"
        }
    },
    {
        "id": "15618048468344666679",
        "title": "公共厕所",
        "address": "黑龙江省黑河市逊克县翔弘门窗东侧70米",
        "tel": "",
        "category": "基础设施:公共设施:公共厕所",
        "type": 0,
        "location": {
            "lat": 49.573724,
            "lng": 128.491932
        },
        "ad_info": {
            "adcode": 231123,
            "province": "黑龙江省",
            "city": "黑河市",
            "district": "逊克县"
        }
    },
    {
        "id": "8171390468810064632",
        "title": "公共厕所",
        "address": "黑龙江省黑河市五大连池市青山街道和平大街荷塘月色快捷宾馆",
        "tel": "",
        "category": "基础设施:公共设施:公共厕所",
        "type": 0,
        "location": {
            "lat": 48.512037,
            "lng": 126.191633
        },
        "ad_info": {
            "adcode": 231182,
            "province": "黑龙江省",
            "city": "黑河市",
            "district": "五大连池市"
        }
    },
    {
        "id": "7613211334296634188",
        "title": "公共厕所",
        "address": "黑龙江省黑河市孙吴县利民大街与核心街交叉口正北方向199米左右",
        "tel": "",
        "category": "基础设施:公共设施:公共厕所",
        "type": 0,
        "location": {
            "lat": 49.417632,
            "lng": 127.335292
        },
        "ad_info": {
            "adcode": 231124,
            "province": "黑龙江省",
            "city": "黑河市",
            "district": "孙吴县"
        }
    },
    {
        "id": "2511880843271334955",
        "title": "公共厕所",
        "address": "黑龙江省黑河市逊克县广场西五街与红玛瑙大街交叉口正西方向134米左右",
        "tel": "",
        "category": "基础设施:公共设施:公共厕所",
        "type": 0,
        "location": {
            "lat": 49.57363,
            "lng": 128.475462
        },
        "ad_info": {
            "adcode": 231123,
            "province": "黑龙江省",
            "city": "黑河市",
            "district": "逊克县"
        }
    },
    {
        "id": "8469106433172619344",
        "title": "公共厕所",
        "address": "黑龙江省黑河市逊克县曙光路与繁荣街交叉口西南方向29米左右",
        "tel": "",
        "category": "基础设施:公共设施:公共厕所",
        "type": 0,
        "location": {
            "lat": 49.584655,
            "lng": 128.482759
        },
        "ad_info": {
            "adcode": 231123,
            "province": "黑龙江省",
            "city": "黑河市",
            "district": "逊克县"
        }
    },
    {
        "id": "5099729604972120170",
        "title": "公共厕所",
        "address": "黑龙江省黑河市逊克县发展街与边防路交叉口正东方向44米左右",
        "tel": "",
        "category": "基础设施:公共设施:公共厕所",
        "type": 0,
        "location": {
            "lat": 49.583087,
            "lng": 128.473495
        },
        "ad_info": {
            "adcode": 231123,
            "province": "黑龙江省",
            "city": "黑河市",
            "district": "逊克县"
        }
    },
    {
        "id": "17185783909478659986",
        "title": "公共厕所",
        "address": "黑龙江省黑河市五大连池市讷谟尔大街与青山路交叉口正南方向151米左右",
        "tel": "",
        "category": "基础设施:公共设施:公共厕所",
        "type": 0,
        "location": {
            "lat": 48.504546,
            "lng": 126.196422
        },
        "ad_info": {
            "adcode": 231182,
            "province": "黑龙江省",
            "city": "黑河市",
            "district": "五大连池市"
        }
    },
    {
        "id": "4786622448653793679",
        "title": "公共厕所",
        "address": "黑龙江省黑河市爱辉区海兰街183号",
        "tel": "",
        "category": "基础设施:公共设施:公共厕所",
        "type": 0,
        "location": {
            "lat": 50.250268,
            "lng": 127.505866
        },
        "ad_info": {
            "adcode": 231102,
            "province": "黑龙江省",
            "city": "黑河市",
            "district": "爱辉区"
        }
    },
    {
        "id": "13338202194367475199",
        "title": "公共厕所",
        "address": "黑龙江省黑河市爱辉区Y806与Y811交叉口正南方向58米左右",
        "tel": "",
        "category": "基础设施:公共设施:公共厕所",
        "type": 0,
        "location": {
            "lat": 50.285446,
            "lng": 127.319366
        },
        "ad_info": {
            "adcode": 231102,
            "province": "黑龙江省",
            "city": "黑河市",
            "district": "爱辉区"
        }
    },
    {
        "id": "1562782558471274722",
        "title": "公共厕所",
        "address": "黑龙江省黑河市爱辉区自动驾驶测试场西北侧50米",
        "tel": "",
        "category": "基础设施:公共设施:公共厕所",
        "type": 0,
        "location": {
            "lat": 50.365417,
            "lng": 127.329441
        },
        "ad_info": {
            "adcode": 231102,
            "province": "黑龙江省",
            "city": "黑河市",
            "district": "爱辉区"
        }
    },
    {
        "id": "7822924218148952719",
        "title": "公共厕所",
        "address": "黑龙江省黑河市逊克县青松街与黑嘉支线交叉口东南方向532米左右",
        "tel": "",
        "category": "基础设施:公共设施:公共厕所",
        "type": 0,
        "location": {
            "lat": 49.566908,
            "lng": 128.493063
        },
        "ad_info": {
            "adcode": 231123,
            "province": "黑龙江省",
            "city": "黑河市",
            "district": "逊克县"
        }
    },
    {
        "id": "1198027382258268184",
        "title": "公共厕所",
        "address": "黑龙江省黑河市逊克县交通路与青松街交叉口东北方向170米左右",
        "tel": "",
        "category": "基础设施:公共设施:公共厕所",
        "type": 0,
        "location": {
            "lat": 49.572354,
            "lng": 128.480041
        },
        "ad_info": {
            "adcode": 231123,
            "province": "黑龙江省",
            "city": "黑河市",
            "district": "逊克县"
        }
    },
    {
        "id": "16464007765191970679",
        "title": "公共厕所",
        "address": "黑龙江省黑河市北安市华山街与南京路交叉口正南方向59米左右",
        "tel": "",
        "category": "基础设施:公共设施:公共厕所",
        "type": 0,
        "location": {
            "lat": 48.257068,
            "lng": 126.504839
        },
        "ad_info": {
            "adcode": 231181,
            "province": "黑龙江省",
            "city": "黑河市",
            "district": "北安市"
        }
    },
    {
        "id": "16555616958919476514",
        "title": "公共厕所",
        "address": "黑龙江省黑河市爱辉区公园路与兴安街交叉口正东方向51米左右",
        "tel": "",
        "category": "基础设施:公共设施:公共厕所",
        "type": 0,
        "location": {
            "lat": 50.246219,
            "lng": 127.508247
        },
        "ad_info": {
            "adcode": 231102,
            "province": "黑龙江省",
            "city": "黑河市",
            "district": "爱辉区"
        }
    },
    {
        "id": "10244135672708667923",
        "title": "公共厕所",
        "address": "黑龙江省黑河市爱辉区延厘路与萨布素街交叉口东北方向49米左右",
        "tel": "",
        "category": "基础设施:公共设施:公共厕所",
        "type": 0,
        "location": {
            "lat": 49.978246,
            "lng": 127.488687
        },
        "ad_info": {
            "adcode": 231102,
            "province": "黑龙江省",
            "city": "黑河市",
            "district": "爱辉区"
        }
    },
    {
        "id": "18108680187242807129",
        "title": "公共厕所",
        "address": "黑龙江省黑河市逊克县交通路与广场南街交叉口正南方向98米左右",
        "tel": "",
        "category": "基础设施:公共设施:公共厕所",
        "type": 0,
        "location": {
            "lat": 49.573643,
            "lng": 128.481776
        },
        "ad_info": {
            "adcode": 231123,
            "province": "黑龙江省",
            "city": "黑河市",
            "district": "逊克县"
        }
    },
    {
        "id": "1245080832332066096",
        "title": "公共厕所",
        "address": "黑龙江省黑河市北安市北京路与黄山街交叉口正南方向86米左右",
        "tel": "",
        "category": "基础设施:公共设施:公共厕所",
        "type": 0,
        "location": {
            "lat": 48.25139,
            "lng": 126.500754
        },
        "ad_info": {
            "adcode": 231181,
            "province": "黑龙江省",
            "city": "黑河市",
            "district": "北安市"
        }
    },
    {
        "id": "4977768449729252296",
        "title": "公共厕所",
        "address": "黑龙江省黑河市爱辉区中央东大街与学院路交叉口西北方向251米左右",
        "tel": "",
        "category": "基础设施:公共设施:公共厕所",
        "type": 0,
        "location": {
            "lat": 50.22862,
            "lng": 127.53375
        },
        "ad_info": {
            "adcode": 231102,
            "province": "黑龙江省",
            "city": "黑河市",
            "district": "爱辉区"
        }
    },
    {
        "id": "11348043020339777624",
        "title": "公共厕所",
        "address": "黑龙江省黑河市爱辉区王肃街与龙江路交叉口正北方向786米左右",
        "tel": "",
        "category": "基础设施:公共设施:公共厕所",
        "type": 0,
        "location": {
            "lat": 50.250405,
            "lng": 127.53865
        },
        "ad_info": {
            "adcode": 231102,
            "province": "黑龙江省",
            "city": "黑河市",
            "district": "爱辉区"
        }
    },
    {
        "id": "3505477626009882011",
        "title": "公共厕所",
        "address": "黑龙江省黑河市爱辉区王肃街与通江路交叉口东北方向695米左右",
        "tel": "",
        "category": "基础设施:公共设施:公共厕所",
        "type": 0,
        "location": {
            "lat": 50.250534,
            "lng": 127.535077
        },
        "ad_info": {
            "adcode": 231102,
            "province": "黑龙江省",
            "city": "黑河市",
            "district": "爱辉区"
        }
    },
    {
        "id": "11995719452180364119",
        "title": "公共厕所",
        "address": "黑龙江省黑河市爱辉区广场路与文化街交叉口东北方向109米左右",
        "tel": "",
        "category": "基础设施:公共设施:公共厕所",
        "type": 0,
        "location": {
            "lat": 50.247152,
            "lng": 127.513172
        },
        "ad_info": {
            "adcode": 231102,
            "province": "黑龙江省",
            "city": "黑河市",
            "district": "爱辉区"
        }
    },
    {
        "id": "13111063271556928201",
        "title": "公共厕所",
        "address": "黑龙江省黑河市嫩江市嫩呼公路北侧",
        "tel": "",
        "category": "基础设施:公共设施:公共厕所",
        "type": 0,
        "location": {
            "lat": 49.35136,
            "lng": 125.445916
        },
        "ad_info": {
            "adcode": 231183,
            "province": "黑龙江省",
            "city": "黑河市",
            "district": "嫩江市"
        }
    },
    {
        "id": "2544303337252863366",
        "title": "公共厕所",
        "address": "黑龙江省黑河市爱辉区铁路街434号",
        "tel": "",
        "category": "基础设施:公共设施:公共厕所",
        "type": 0,
        "location": {
            "lat": 50.223025,
            "lng": 127.510183
        },
        "ad_info": {
            "adcode": 231102,
            "province": "黑龙江省",
            "city": "黑河市",
            "district": "爱辉区"
        }
    },
    {
        "id": "15735087667414316363",
        "title": "公共厕所",
        "address": "黑龙江省黑河市爱辉区兴华街与环城南路交叉口正东方向62米左右",
        "tel": "",
        "category": "基础设施:公共设施:公共厕所",
        "type": 0,
        "location": {
            "lat": 50.243283,
            "lng": 127.507614
        },
        "ad_info": {
            "adcode": 231102,
            "province": "黑龙江省",
            "city": "黑河市",
            "district": "爱辉区"
        }
    },
    {
        "id": "17092774006934097060",
        "title": "公共厕所",
        "address": "黑龙江省黑河市嫩江市九三路与鹤山街交叉口正北方向70米左右",
        "tel": "",
        "category": "基础设施:公共设施:公共厕所",
        "type": 0,
        "location": {
            "lat": 48.877403,
            "lng": 125.284753
        },
        "ad_info": {
            "adcode": 231183,
            "province": "黑龙江省",
            "city": "黑河市",
            "district": "嫩江市"
        }
    },
    {
        "id": "11269616368361945692",
        "title": "公共厕所",
        "address": "黑龙江省黑河市爱辉区四嘉子乡小三加子村卫生所东侧",
        "tel": "",
        "category": "基础设施:公共设施:公共厕所",
        "type": 0,
        "location": {
            "lat": 50.167604,
            "lng": 127.49349
        },
        "ad_info": {
            "adcode": 231102,
            "province": "黑龙江省",
            "city": "黑河市",
            "district": "爱辉区"
        }
    },
    {
        "id": "12680714586248408401",
        "title": "公共厕所",
        "address": "黑龙江省黑河市嫩江市曙光路嫩江县中医医院",
        "tel": "",
        "category": "基础设施:公共设施:公共厕所",
        "type": 0,
        "location": {
            "lat": 49.170162,
            "lng": 125.22773
        },
        "ad_info": {
            "adcode": 231183,
            "province": "黑龙江省",
            "city": "黑河市",
            "district": "嫩江市"
        }
    },
    {
        "id": "15679249049305377365",
        "title": "公共厕所",
        "address": "黑龙江省黑河市嫩江市清江路与长江路交叉口正北方向130米左右",
        "tel": "",
        "category": "基础设施:公共设施:公共厕所",
        "type": 0,
        "location": {
            "lat": 49.187648,
            "lng": 125.241067
        },
        "ad_info": {
            "adcode": 231183,
            "province": "黑龙江省",
            "city": "黑河市",
            "district": "嫩江市"
        }
    },
    {
        "id": "15453970268474367241",
        "title": "公共厕所",
        "address": "黑龙江省黑河市爱辉区康乐街与龙源路交叉口西北方向222米左右",
        "tel": "",
        "category": "基础设施:公共设施:公共厕所",
        "type": 0,
        "location": {
            "lat": 50.237355,
            "lng": 127.484617
        },
        "ad_info": {
            "adcode": 231102,
            "province": "黑龙江省",
            "city": "黑河市",
            "district": "爱辉区"
        }
    },
    {
        "id": "1283544999278345244",
        "title": "公共厕所",
        "address": "黑龙江省黑河市爱辉区环城南路10号",
        "tel": "",
        "category": "基础设施:公共设施:公共厕所",
        "type": 0,
        "location": {
            "lat": 50.244549,
            "lng": 127.511801
        },
        "ad_info": {
            "adcode": 231102,
            "province": "黑龙江省",
            "city": "黑河市",
            "district": "爱辉区"
        }
    },
    {
        "id": "6086297577342188926",
        "title": "公共厕所",
        "address": "黑龙江省黑河市北安市龙江路辅路与兆麟街交叉口东南60米",
        "tel": "",
        "category": "基础设施:公共设施:公共厕所",
        "type": 0,
        "location": {
            "lat": 48.237557,
            "lng": 126.51231
        },
        "ad_info": {
            "adcode": 231181,
            "province": "黑龙江省",
            "city": "黑河市",
            "district": "北安市"
        }
    },
    {
        "id": "11680513341156393580",
        "title": "公共厕所",
        "address": "黑龙江省黑河市爱辉区南大街与西兴路交叉口正东方向30米左右",
        "tel": "",
        "category": "基础设施:公共设施:公共厕所",
        "type": 0,
        "location": {
            "lat": 50.248011,
            "lng": 127.489027
        },
        "ad_info": {
            "adcode": 231102,
            "province": "黑龙江省",
            "city": "黑河市",
            "district": "爱辉区"
        }
    },
    {
        "id": "16697137135900958652",
        "title": "公共厕所",
        "address": "黑龙江省黑河市嫩江市Y614与长福路交叉口西南方向22米左右",
        "tel": "",
        "category": "基础设施:公共设施:公共厕所",
        "type": 0,
        "location": {
            "lat": 49.159069,
            "lng": 125.251589
        },
        "ad_info": {
            "adcode": 231183,
            "province": "黑龙江省",
            "city": "黑河市",
            "district": "嫩江市"
        }
    },
    {
        "id": "7162617557668320698",
        "title": "公共厕所",
        "address": "黑龙江省黑河市爱辉区G331与法别拉大桥交叉口西南方向304米",
        "tel": "",
        "category": "基础设施:公共设施:公共厕所",
        "type": 0,
        "location": {
            "lat": 50.416867,
            "lng": 127.311393
        },
        "ad_info": {
            "adcode": 231102,
            "province": "黑龙江省",
            "city": "黑河市",
            "district": "爱辉区"
        }
    },
    {
        "id": "7838953408939348137",
        "title": "公共厕所",
        "address": "黑龙江省黑河市嫩江市光华街与军民路交叉口正北方向683米左右",
        "tel": "",
        "category": "基础设施:公共设施:公共厕所",
        "type": 0,
        "location": {
            "lat": 49.184885,
            "lng": 125.260934
        },
        "ad_info": {
            "adcode": 231183,
            "province": "黑龙江省",
            "city": "黑河市",
            "district": "嫩江市"
        }
    },
    {
        "id": "6892150866682806406",
        "title": "公共厕所",
        "address": "黑龙江省黑河市爱辉区红领巾街南100米",
        "tel": "",
        "category": "基础设施:公共设施:公共厕所",
        "type": 0,
        "location": {
            "lat": 50.368448,
            "lng": 127.334068
        },
        "ad_info": {
            "adcode": 231102,
            "province": "黑龙江省",
            "city": "黑河市",
            "district": "爱辉区"
        }
    },
    {
        "id": "15489144019732564659",
        "title": "公共厕所",
        "address": "黑龙江省黑河市爱辉区瑷珲互联网产业园区西侧220米",
        "tel": "",
        "category": "基础设施:公共设施:公共厕所",
        "type": 0,
        "location": {
            "lat": 50.226286,
            "lng": 127.50252
        },
        "ad_info": {
            "adcode": 231102,
            "province": "黑龙江省",
            "city": "黑河市",
            "district": "爱辉区"
        }
    },
    {
        "id": "17284573033046427670",
        "title": "公共厕所",
        "address": "黑龙江省黑河市嫩江市南直路与西环路交叉口正南方向1011米左右",
        "tel": "",
        "category": "基础设施:公共设施:公共厕所",
        "type": 0,
        "location": {
            "lat": 48.957778,
            "lng": 125.219013
        },
        "ad_info": {
            "adcode": 231183,
            "province": "黑龙江省",
            "city": "黑河市",
            "district": "嫩江市"
        }
    },
    {
        "id": "11918939371391382933",
        "title": "公共厕所",
        "address": "黑龙江省黑河市北安市南京路凤凰城",
        "tel": "",
        "category": "基础设施:公共设施:公共厕所",
        "type": 0,
        "location": {
            "lat": 48.251893,
            "lng": 126.50808
        },
        "ad_info": {
            "adcode": 231181,
            "province": "黑龙江省",
            "city": "黑河市",
            "district": "北安市"
        }
    },
    {
        "id": "12893778826715606617",
        "title": "公共厕所",
        "address": "黑龙江省黑河市嫩江市光华街与军民路交叉口正北方向82米左右",
        "tel": "",
        "category": "基础设施:公共设施:公共厕所",
        "type": 0,
        "location": {
            "lat": 49.179882,
            "lng": 125.264736
        },
        "ad_info": {
            "adcode": 231183,
            "province": "黑龙江省",
            "city": "黑河市",
            "district": "嫩江市"
        }
    },
    {
        "id": "5324380222181863863",
        "title": "公共厕所",
        "address": "黑龙江省黑河市北安市学府嘉苑东侧150米",
        "tel": "",
        "category": "基础设施:公共设施:公共厕所",
        "type": 0,
        "location": {
            "lat": 47.764619,
            "lng": 126.774858
        },
        "ad_info": {
            "adcode": 231181,
            "province": "黑龙江省",
            "city": "黑河市",
            "district": "北安市"
        }
    },
    {
        "id": "5819954045952103149",
        "title": "公共厕所",
        "address": "黑龙江省黑河市北安市深圳路福特小区",
        "tel": "",
        "category": "基础设施:公共设施:公共厕所",
        "type": 0,
        "location": {
            "lat": 48.242582,
            "lng": 126.501308
        },
        "ad_info": {
            "adcode": 231181,
            "province": "黑龙江省",
            "city": "黑河市",
            "district": "北安市"
        }
    },
    {
        "id": "4255281010823791384",
        "title": "公共厕所",
        "address": "黑龙江省黑河市北安市中央街与通粮路交叉口东南方向167米左右",
        "tel": "",
        "category": "基础设施:公共设施:公共厕所",
        "type": 0,
        "location": {
            "lat": 47.767428,
            "lng": 126.767299
        },
        "ad_info": {
            "adcode": 231181,
            "province": "黑龙江省",
            "city": "黑河市",
            "district": "北安市"
        }
    },
    {
        "id": "7410735694687620954",
        "title": "公共厕所",
        "address": "黑龙江省黑河市北安市庆华北街与庆华路交叉口西北方向132米左右",
        "tel": "",
        "category": "基础设施:公共设施:公共厕所",
        "type": 0,
        "location": {
            "lat": 48.246917,
            "lng": 126.524018
        },
        "ad_info": {
            "adcode": 231181,
            "province": "黑龙江省",
            "city": "黑河市",
            "district": "北安市"
        }
    },
    {
        "id": "658926944803671922",
        "title": "公共厕所",
        "address": "黑龙江省黑河市五大连池市鹤嫩公路五大连池世界地质公园",
        "tel": "",
        "category": "基础设施:公共设施:公共厕所",
        "type": 0,
        "location": {
            "lat": 48.571154,
            "lng": 126.198554
        },
        "ad_info": {
            "adcode": 231182,
            "province": "黑龙江省",
            "city": "黑河市",
            "district": "五大连池市"
        }
    },
    {
        "id": "16027224544246902044",
        "title": "公共厕所",
        "address": "黑龙江省黑河市北安市农林路与福顺街交叉口西南方向35米左右",
        "tel": "",
        "category": "基础设施:公共设施:公共厕所",
        "type": 0,
        "location": {
            "lat": 47.77274,
            "lng": 126.763369
        },
        "ad_info": {
            "adcode": 231181,
            "province": "黑龙江省",
            "city": "黑河市",
            "district": "北安市"
        }
    },
    {
        "id": "11552275424937403283",
        "title": "公共厕所",
        "address": "黑龙江省黑河市北安市兆麟街与光明路交叉口正西方向75米左右",
        "tel": "",
        "category": "基础设施:公共设施:公共厕所",
        "type": 0,
        "location": {
            "lat": 48.240588,
            "lng": 126.522993
        },
        "ad_info": {
            "adcode": 231181,
            "province": "黑龙江省",
            "city": "黑河市",
            "district": "北安市"
        }
    },
    {
        "id": "17190397513721089989",
        "title": "公共厕所",
        "address": "黑龙江省黑河市爱辉区兴林街与双拥大街交叉口正西方向995米左右",
        "tel": "",
        "category": "基础设施:公共设施:公共厕所",
        "type": 0,
        "location": {
            "lat": 50.259477,
            "lng": 127.456005
        },
        "ad_info": {
            "adcode": 231102,
            "province": "黑龙江省",
            "city": "黑河市",
            "district": "爱辉区"
        }
    },
    {
        "id": "17408398832422848647",
        "title": "公共厕所",
        "address": "黑龙江省黑河市北安市华山街与龙江路交叉口西南方向131米左右",
        "tel": "",
        "category": "基础设施:公共设施:公共厕所",
        "type": 0,
        "location": {
            "lat": 48.256268,
            "lng": 126.500302
        },
        "ad_info": {
            "adcode": 231181,
            "province": "黑龙江省",
            "city": "黑河市",
            "district": "北安市"
        }
    },
    {
        "id": "1222597337228480931",
        "title": "公共厕所",
        "address": "黑龙江省黑河市五大连池市兴隆大街与迎宾路交叉口东北方向60米左右",
        "tel": "",
        "category": "基础设施:公共设施:公共厕所",
        "type": 0,
        "location": {
            "lat": 48.515606,
            "lng": 126.207774
        },
        "ad_info": {
            "adcode": 231182,
            "province": "黑龙江省",
            "city": "黑河市",
            "district": "五大连池市"
        }
    },
    {
        "id": "17864446968061229174",
        "title": "公共厕所",
        "address": "黑龙江省黑河市北安市友谊街与龙江路交叉口正西方向122米左右",
        "tel": "",
        "category": "基础设施:公共设施:公共厕所",
        "type": 0,
        "location": {
            "lat": 48.241611,
            "lng": 126.508171
        },
        "ad_info": {
            "adcode": 231181,
            "province": "黑龙江省",
            "city": "黑河市",
            "district": "北安市"
        }
    },
    {
        "id": "15049907090474720902",
        "title": "公共厕所",
        "address": "黑龙江省黑河市嫩江市前嫩公路中国石油广汇加油站",
        "tel": "",
        "category": "基础设施:公共设施:公共厕所",
        "type": 0,
        "location": {
            "lat": 49.142306,
            "lng": 125.627559
        },
        "ad_info": {
            "adcode": 231183,
            "province": "黑龙江省",
            "city": "黑河市",
            "district": "嫩江市"
        }
    },
    {
        "id": "7432224323147493249",
        "title": "公共厕所",
        "address": "黑龙江省黑河市北安市S101与农林路交叉口正南方向92米左右",
        "tel": "",
        "category": "基础设施:公共设施:公共厕所",
        "type": 0,
        "location": {
            "lat": 47.772486,
            "lng": 126.767567
        },
        "ad_info": {
            "adcode": 231181,
            "province": "黑龙江省",
            "city": "黑河市",
            "district": "北安市"
        }
    },
    {
        "id": "7071925413242471945",
        "title": "公共厕所",
        "address": "黑龙江省黑河市北安市北岗街道建民路229号",
        "tel": "",
        "category": "基础设施:公共设施:公共厕所",
        "type": 0,
        "location": {
            "lat": 48.249715,
            "lng": 126.50155
        },
        "ad_info": {
            "adcode": 231181,
            "province": "黑龙江省",
            "city": "黑河市",
            "district": "北安市"
        }
    },
    {
        "id": "705357304064521332",
        "title": "公共厕所",
        "address": "黑龙江省黑河市五大连池市德都大街与青山路交叉口正西方向238米左右",
        "tel": "",
        "category": "基础设施:公共设施:公共厕所",
        "type": 0,
        "location": {
            "lat": 48.51564,
            "lng": 126.194815
        },
        "ad_info": {
            "adcode": 231182,
            "province": "黑龙江省",
            "city": "黑河市",
            "district": "五大连池市"
        }
    },
    {
        "id": "16232972413420578145",
        "title": "公共厕所",
        "address": "黑龙江省黑河市爱辉区S302与Y0619交叉口正西方向28米左右",
        "tel": "",
        "category": "基础设施:公共设施:公共厕所",
        "type": 0,
        "location": {
            "lat": 50.152957,
            "lng": 126.049441
        },
        "ad_info": {
            "adcode": 231102,
            "province": "黑龙江省",
            "city": "黑河市",
            "district": "爱辉区"
        }
    },
    {
        "id": "1707233832152707526",
        "title": "公共厕所",
        "address": "黑龙江省黑河市五大连池市茂盛粮油有限责任公司东南侧60米",
        "tel": "",
        "category": "基础设施:公共设施:公共厕所",
        "type": 0,
        "location": {
            "lat": 48.684127,
            "lng": 126.736441
        },
        "ad_info": {
            "adcode": 231182,
            "province": "黑龙江省",
            "city": "黑河市",
            "district": "五大连池市"
        }
    },
    {
        "id": "4300430048294590530",
        "title": "公共厕所",
        "address": "黑龙江省黑河市五大连池市龙华路中国石油二龙山加油站",
        "tel": "",
        "category": "基础设施:公共设施:公共厕所",
        "type": 0,
        "location": {
            "lat": 48.501039,
            "lng": 126.634494
        },
        "ad_info": {
            "adcode": 231182,
            "province": "黑龙江省",
            "city": "黑河市",
            "district": "五大连池市"
        }
    },
    {
        "id": "6039403760392794342",
        "title": "公共厕所",
        "address": "黑龙江省黑河市北安市泰山街与深圳路交叉口西南方向195米左右",
        "tel": "",
        "category": "基础设施:公共设施:公共厕所",
        "type": 0,
        "location": {
            "lat": 48.242808,
            "lng": 126.498878
        },
        "ad_info": {
            "adcode": 231181,
            "province": "黑龙江省",
            "city": "黑河市",
            "district": "北安市"
        }
    },
    {
        "id": "10187830484395371581",
        "title": "公共厕所",
        "address": "黑龙江省黑河市五大连池市勤俭路(五大连池国际文化体育中心)",
        "tel": "",
        "category": "基础设施:公共设施:公共厕所",
        "type": 0,
        "location": {
            "lat": 48.508731,
            "lng": 126.206543
        },
        "ad_info": {
            "adcode": 231182,
            "province": "黑龙江省",
            "city": "黑河市",
            "district": "五大连池市"
        }
    },
    {
        "id": "12723212936435223431",
        "title": "公共厕所",
        "address": "黑龙江省黑河市五大连池市X180与药泉东路交叉口西南方向138米左右",
        "tel": "",
        "category": "基础设施:公共设施:公共厕所",
        "type": 0,
        "location": {
            "lat": 48.655194,
            "lng": 126.199734
        },
        "ad_info": {
            "adcode": 231182,
            "province": "黑龙江省",
            "city": "黑河市",
            "district": "五大连池市"
        }
    },
    {
        "id": "8553257030683942403",
        "title": "爱辉区兴隆街东侧公共厕所",
        "address": "黑龙江省黑河市爱辉区东兴路与兴隆街交叉口东南方向159米左右",
        "tel": "13704568858",
        "category": "基础设施:公共设施:公共厕所",
        "type": 0,
        "location": {
            "lat": 50.244106,
            "lng": 127.503478
        },
        "ad_info": {
            "adcode": 231102,
            "province": "黑龙江省",
            "city": "黑河市",
            "district": "爱辉区"
        }
    },
    {
        "id": "3507949733431508297",
        "title": "公共厕所",
        "address": "黑龙江省黑河市五大连池市德都大街与青山胡同交叉口正北方向176米左右",
        "tel": "",
        "category": "基础设施:公共设施:公共厕所",
        "type": 0,
        "location": {
            "lat": 48.515998,
            "lng": 126.190258
        },
        "ad_info": {
            "adcode": 231182,
            "province": "黑龙江省",
            "city": "黑河市",
            "district": "五大连池市"
        }
    },
    {
        "id": "10435923217969114840",
        "title": "公共厕所",
        "address": "黑龙江省黑河市五大连池市东风路与中兴南路交叉口西北方向97米左右",
        "tel": "",
        "category": "基础设施:公共设施:公共厕所",
        "type": 0,
        "location": {
            "lat": 48.642475,
            "lng": 126.642911
        },
        "ad_info": {
            "adcode": 231182,
            "province": "黑龙江省",
            "city": "黑河市",
            "district": "五大连池市"
        }
    },
    {
        "id": "10762282728545345751",
        "title": "公共厕所",
        "address": "黑龙江省黑河市北安市北京路与碾北路交叉口正南方向225米左右",
        "tel": "",
        "category": "基础设施:公共设施:公共厕所",
        "type": 0,
        "location": {
            "lat": 48.230541,
            "lng": 126.507515
        },
        "ad_info": {
            "adcode": 231181,
            "province": "黑龙江省",
            "city": "黑河市",
            "district": "北安市"
        }
    },
    {
        "id": "4910272858304953606",
        "title": "公共厕所",
        "address": "黑龙江省黑河市五大连池市兴垦大街与奋斗路交叉口正东方向129米左右",
        "tel": "",
        "category": "基础设施:公共设施:公共厕所",
        "type": 0,
        "location": {
            "lat": 48.684511,
            "lng": 126.722471
        },
        "ad_info": {
            "adcode": 231182,
            "province": "黑龙江省",
            "city": "黑河市",
            "district": "五大连池市"
        }
    },
    {
        "id": "7092494472284021256",
        "title": "公共厕所",
        "address": "黑龙江省黑河市五大连池市学府路与龙山中路交叉口西北方向20米左右",
        "tel": "",
        "category": "基础设施:公共设施:公共厕所",
        "type": 0,
        "location": {
            "lat": 48.496611,
            "lng": 126.624242
        },
        "ad_info": {
            "adcode": 231182,
            "province": "黑龙江省",
            "city": "黑河市",
            "district": "五大连池市"
        }
    },
    {
        "id": "14928389084535311372",
        "title": "公共厕所",
        "address": "黑龙江省黑河市五大连池市勤俭路与朝阳大街交叉口西北方向31米左右",
        "tel": "",
        "category": "基础设施:公共设施:公共厕所",
        "type": 0,
        "location": {
            "lat": 48.51093,
            "lng": 126.204857
        },
        "ad_info": {
            "adcode": 231182,
            "province": "黑龙江省",
            "city": "黑河市",
            "district": "五大连池市"
        }
    },
    {
        "id": "5211303591486756486",
        "title": "公共厕所",
        "address": "黑龙江省黑河市五大连池市王母阁路168号",
        "tel": "",
        "category": "基础设施:公共设施:公共厕所",
        "type": 0,
        "location": {
            "lat": 48.515825,
            "lng": 126.203537
        },
        "ad_info": {
            "adcode": 231182,
            "province": "黑龙江省",
            "city": "黑河市",
            "district": "五大连池市"
        }
    },
    {
        "id": "4797584159429137426",
        "title": "公共厕所",
        "address": "黑龙江省黑河市五大连池市五大连池镇五大连池风景区火山堰塞湖景区",
        "tel": "",
        "category": "基础设施:公共设施:公共厕所",
        "type": 0,
        "location": {
            "lat": 48.705741,
            "lng": 126.207435
        },
        "ad_info": {
            "adcode": 231182,
            "province": "黑龙江省",
            "city": "黑河市",
            "district": "五大连池市"
        }
    },
    {
        "id": "5418298123260967206",
        "title": "公共厕所",
        "address": "黑龙江省黑河市五大连池市迎宾路与鹤嫩公路交叉口正北方向1430米左右",
        "tel": "",
        "category": "基础设施:公共设施:公共厕所",
        "type": 0,
        "location": {
            "lat": 48.53344,
            "lng": 126.207455
        },
        "ad_info": {
            "adcode": 231182,
            "province": "黑龙江省",
            "city": "黑河市",
            "district": "五大连池市"
        }
    },
    {
        "id": "15654188169276330334",
        "title": "公共厕所",
        "address": "黑龙江省黑河市五大连池市和平大街与青山路交叉口正东方向116米左右",
        "tel": "",
        "category": "基础设施:公共设施:公共厕所",
        "type": 0,
        "location": {
            "lat": 48.511699,
            "lng": 126.200473
        },
        "ad_info": {
            "adcode": 231182,
            "province": "黑龙江省",
            "city": "黑河市",
            "district": "五大连池市"
        }
    },
    {
        "id": "12593858982415781424",
        "title": "皇家花园社区公共厕所",
        "address": "黑龙江省黑河市孙吴县双拥街与花园路交叉口正西方向115米左右",
        "tel": "",
        "category": "基础设施:公共设施:公共厕所",
        "type": 0,
        "location": {
            "lat": 49.412792,
            "lng": 127.33204
        },
        "ad_info": {
            "adcode": 231124,
            "province": "黑龙江省",
            "city": "黑河市",
            "district": "孙吴县"
        }
    },
    {
        "id": "4176095546472812843",
        "title": "尤丽娅商务酒店-洗手间",
        "address": "黑龙江省黑河市爱辉区中央街与公园路交叉口西北方向134米左右",
        "tel": "",
        "category": "基础设施:公共设施:公共厕所",
        "type": 0,
        "location": {
            "lat": 50.247574,
            "lng": 127.506523
        },
        "ad_info": {
            "adcode": 231102,
            "province": "黑龙江省",
            "city": "黑河市",
            "district": "爱辉区"
        }
    },
    {
        "id": "17655783677808742260",
        "title": "孙吴服务区公共厕所",
        "address": "黑龙江省黑河市孙吴县吉黑高速孙吴服务区",
        "tel": "",
        "category": "基础设施:公共设施:公共厕所",
        "type": 0,
        "location": {
            "lat": 49.375443,
            "lng": 127.285906
        },
        "ad_info": {
            "adcode": 231124,
            "province": "黑龙江省",
            "city": "黑河市",
            "district": "孙吴县"
        }
    },
    {
        "id": "4038297248667218774",
        "title": "孙吴服务区公共厕所",
        "address": "黑龙江省黑河市孙吴县吉黑高速",
        "tel": "",
        "category": "基础设施:公共设施:公共厕所",
        "type": 0,
        "location": {
            "lat": 49.375576,
            "lng": 127.283414
        },
        "ad_info": {
            "adcode": 231124,
            "province": "黑龙江省",
            "city": "黑河市",
            "district": "孙吴县"
        }
    },
    {
        "id": "3708593745863136610",
        "title": "公共厕所",
        "address": "黑龙江省黑河市嫩江市育才大街嫩江高中",
        "tel": "",
        "category": "基础设施:公共设施:公共厕所",
        "type": 0,
        "location": {
            "lat": 49.169836,
            "lng": 125.219064
        },
        "ad_info": {
            "adcode": 231183,
            "province": "黑龙江省",
            "city": "黑河市",
            "district": "嫩江市"
        }
    },
    {
        "id": "10862339892018359984",
        "title": "公共厕所",
        "address": "黑龙江省黑河市北安市财富大道32号",
        "tel": "",
        "category": "基础设施:公共设施:公共厕所",
        "type": 0,
        "location": {
            "lat": 48.244763,
            "lng": 126.518844
        },
        "ad_info": {
            "adcode": 231181,
            "province": "黑龙江省",
            "city": "黑河市",
            "district": "北安市"
        }
    },
    {
        "id": "9579312037843418035",
        "title": "金隆酒店-洗手间",
        "address": "黑龙江省黑河市五大连池市德都大街与青山路交叉口正北方向31米左右",
        "tel": "",
        "category": "基础设施:公共设施:公共厕所",
        "type": 0,
        "location": {
            "lat": 48.515896,
            "lng": 126.198192
        },
        "ad_info": {
            "adcode": 231182,
            "province": "黑龙江省",
            "city": "黑河市",
            "district": "五大连池市"
        }
    },
    {
        "id": "14472679553129449439",
        "title": "青山公园-公共厕所",
        "address": "黑龙江省黑河市五大连池市德都大街与青山胡同交叉口东北方向191米左右",
        "tel": "",
        "category": "基础设施:公共设施:公共厕所",
        "type": 0,
        "location": {
            "lat": 48.515406,
            "lng": 126.19325
        },
        "ad_info": {
            "adcode": 231182,
            "province": "黑龙江省",
            "city": "黑河市",
            "district": "五大连池市"
        }
    },
    {
        "id": "17752209602815838549",
        "title": "嫩江服务区公共厕所",
        "address": "黑龙江省黑河市嫩江市前进镇嫩泰高速公路嫩江服务区",
        "tel": "",
        "category": "基础设施:公共设施:公共厕所",
        "type": 0,
        "location": {
            "lat": 49.053936,
            "lng": 125.21055
        },
        "ad_info": {
            "adcode": 231183,
            "province": "黑龙江省",
            "city": "黑河市",
            "district": "嫩江市"
        }
    },
    {
        "id": "1646700998218025219",
        "title": "五大连池服务区公共厕所",
        "address": "黑龙江省黑河市五大连池市S202前嫩高速西50米",
        "tel": "",
        "category": "基础设施:公共设施:公共厕所",
        "type": 0,
        "location": {
            "lat": 48.447323,
            "lng": 126.290189
        },
        "ad_info": {
            "adcode": 231182,
            "province": "黑龙江省",
            "city": "黑河市",
            "district": "五大连池市"
        }
    },
    {
        "id": "8992902716257499194",
        "title": "嫩江服务区公共厕所",
        "address": "黑龙江省黑河市嫩江市嫩泰高速公路",
        "tel": "",
        "category": "基础设施:公共设施:公共厕所",
        "type": 0,
        "location": {
            "lat": 49.053504,
            "lng": 125.212346
        },
        "ad_info": {
            "adcode": 231183,
            "province": "黑龙江省",
            "city": "黑河市",
            "district": "嫩江市"
        }
    },
    {
        "id": "534392881886370831",
        "title": "龙镇服务区公共厕所",
        "address": "黑龙江省黑河市五大连池市G1211吉黑高速与龙镇服务区交叉口东北220米",
        "tel": "",
        "category": "基础设施:公共设施:公共厕所",
        "type": 0,
        "location": {
            "lat": 48.534955,
            "lng": 126.570728
        },
        "ad_info": {
            "adcode": 231182,
            "province": "黑龙江省",
            "city": "黑河市",
            "district": "五大连池市"
        }
    },
    {
        "id": "8053103100757432102",
        "title": "北大荒庄园洗手间",
        "address": "黑龙江省黑河市五大连池市北大荒庄园",
        "tel": "",
        "category": "基础设施:公共设施:公共厕所",
        "type": 0,
        "location": {
            "lat": 48.71522,
            "lng": 126.227469
        },
        "ad_info": {
            "adcode": 231182,
            "province": "黑龙江省",
            "city": "黑河市",
            "district": "五大连池市"
        }
    },
    {
        "id": "12609225725782053286",
        "title": "曹集屯服务区公共厕所",
        "address": "黑龙江省黑河市爱辉区西岗子镇吉黑高速公路曹集屯服务区",
        "tel": "",
        "category": "基础设施:公共设施:公共厕所",
        "type": 0,
        "location": {
            "lat": 49.880182,
            "lng": 127.417232
        },
        "ad_info": {
            "adcode": 231102,
            "province": "黑龙江省",
            "city": "黑河市",
            "district": "爱辉区"
        }
    },
    {
        "id": "6024123574402234422",
        "title": "红星服务区公共厕所",
        "address": "黑龙江省黑河市北安市S12前嫩高速附近",
        "tel": "",
        "category": "基础设施:公共设施:公共厕所",
        "type": 0,
        "location": {
            "lat": 48.073328,
            "lng": 127.166964
        },
        "ad_info": {
            "adcode": 231181,
            "province": "黑龙江省",
            "city": "黑河市",
            "district": "北安市"
        }
    },
    {
        "id": "12138414916606223555",
        "title": "曹集屯服务区第一公共厕所",
        "address": "黑龙江省黑河市爱辉区Y002与曹集屯桥交叉口东南方向551米左右",
        "tel": "",
        "category": "基础设施:公共设施:公共厕所",
        "type": 0,
        "location": {
            "lat": 49.88104,
            "lng": 127.414407
        },
        "ad_info": {
            "adcode": 231102,
            "province": "黑龙江省",
            "city": "黑河市",
            "district": "爱辉区"
        }
    },
    {
        "id": "12341344179690404060",
        "title": "赵光服务区公共厕所",
        "address": "黑龙江省黑河市北安市S202绥北高速附近",
        "tel": "",
        "category": "基础设施:公共设施:公共厕所",
        "type": 0,
        "location": {
            "lat": 47.87122,
            "lng": 126.781175
        },
        "ad_info": {
            "adcode": 231181,
            "province": "黑龙江省",
            "city": "黑河市",
            "district": "北安市"
        }
    },
    {
        "id": "5731543137253964913",
        "title": "赵光服务区公共厕所",
        "address": "黑龙江省黑河市北安市赵光服务区东北30米",
        "tel": "",
        "category": "基础设施:公共设施:公共厕所",
        "type": 0,
        "location": {
            "lat": 47.871774,
            "lng": 126.779306
        },
        "ad_info": {
            "adcode": 231181,
            "province": "黑龙江省",
            "city": "黑河市",
            "district": "北安市"
        }
    },
    {
        "id": "10051533383290084559",
        "title": "五大连池服务区公共厕所",
        "address": "黑龙江省黑河市五大连池市兴隆乡前嫩高速公路服务区",
        "tel": "",
        "category": "基础设施:公共设施:公共厕所",
        "type": 0,
        "location": {
            "lat": 48.448273,
            "lng": 126.290901
        },
        "ad_info": {
            "adcode": 231182,
            "province": "黑龙江省",
            "city": "黑河市",
            "district": "五大连池市"
        }
    },
    {
        "id": "11341804278132983722",
        "title": "公共厕所",
        "address": "黑龙江省黑河市爱辉区邮政路黑河市实验小学",
        "tel": "",
        "category": "基础设施:公共设施:公共厕所",
        "type": 0,
        "location": {
            "lat": 50.244174,
            "lng": 127.497108
        },
        "ad_info": {
            "adcode": 231102,
            "province": "黑龙江省",
            "city": "黑河市",
            "district": "爱辉区"
        }
    },
    {
        "id": "1422362581564373268",
        "title": "公共厕所",
        "address": "黑龙江省黑河市爱辉区兴林街与双拥大街交叉口西北方向82米左右",
        "tel": "",
        "category": "基础设施:公共设施:公共厕所",
        "type": 0,
        "location": {
            "lat": 50.256937,
            "lng": 127.468572
        },
        "ad_info": {
            "adcode": 231102,
            "province": "黑龙江省",
            "city": "黑河市",
            "district": "爱辉区"
        }
    },
    {
        "id": "11443609310124942203",
        "title": "龙镇服务区公共厕所",
        "address": "黑龙江省黑河市五大连池市G1211吉黑高速与龙镇服务区交叉口西北260米",
        "tel": "",
        "category": "基础设施:公共设施:公共厕所",
        "type": 0,
        "location": {
            "lat": 48.535452,
            "lng": 126.568225
        },
        "ad_info": {
            "adcode": 231182,
            "province": "黑龙江省",
            "city": "黑河市",
            "district": "五大连池市"
        }
    },
    {
        "id": "3793524380693198629",
        "title": "公共厕所",
        "address": "黑龙江省黑河市嫩江市三阳胡同与福民大街交叉口正北方向127米左右",
        "tel": "",
        "category": "基础设施:公共设施:公共厕所",
        "type": 0,
        "location": {
            "lat": 49.181193,
            "lng": 125.225921
        },
        "ad_info": {
            "adcode": 231183,
            "province": "黑龙江省",
            "city": "黑河市",
            "district": "嫩江市"
        }
    },
    {
        "id": "4028605847670018343",
        "title": "公共厕所",
        "address": "黑龙江省黑河市北安市乌裕尔大街与长江路交叉口西北方向93米左右",
        "tel": "",
        "category": "基础设施:公共设施:公共厕所",
        "type": 0,
        "location": {
            "lat": 48.239997,
            "lng": 126.483261
        },
        "ad_info": {
            "adcode": 231181,
            "province": "黑龙江省",
            "city": "黑河市",
            "district": "北安市"
        }
    },
    {
        "id": "17174736412331927704",
        "title": "公共厕所",
        "address": "黑龙江省黑河市爱辉区港榆帝景小区东南(202国道南)",
        "tel": "",
        "category": "基础设施:公共设施:公共厕所",
        "type": 0,
        "location": {
            "lat": 49.905037,
            "lng": 127.357103
        },
        "ad_info": {
            "adcode": 231102,
            "province": "黑龙江省",
            "city": "黑河市",
            "district": "爱辉区"
        }
    },
    {
        "id": "13371862576047656901",
        "title": "公共厕所",
        "address": "黑龙江省黑河市嫩江市九三路与荣军街交叉口东南方向106米左右",
        "tel": "",
        "category": "基础设施:公共设施:公共厕所",
        "type": 0,
        "location": {
            "lat": 48.87485,
            "lng": 125.290723
        },
        "ad_info": {
            "adcode": 231183,
            "province": "黑龙江省",
            "city": "黑河市",
            "district": "嫩江市"
        }
    },
    {
        "id": "17166076427218362477",
        "title": "公共厕所",
        "address": "黑龙江省黑河市逊克县广场西五街与建设路交叉口东北方向27米左右",
        "tel": "",
        "category": "基础设施:公共设施:公共厕所",
        "type": 0,
        "location": {
            "lat": 49.573726,
            "lng": 128.471391
        },
        "ad_info": {
            "adcode": 231123,
            "province": "黑龙江省",
            "city": "黑河市",
            "district": "逊克县"
        }
    },
    {
        "id": "891628382857259669",
        "title": "公共厕所",
        "address": "黑龙江省黑河市北安市S214与中央街交叉口正西方向148米左右",
        "tel": "",
        "category": "基础设施:公共设施:公共厕所",
        "type": 0,
        "location": {
            "lat": 47.768141,
            "lng": 126.761914
        },
        "ad_info": {
            "adcode": 231181,
            "province": "黑龙江省",
            "city": "黑河市",
            "district": "北安市"
        }
    },
    {
        "id": "15012400310418719765",
        "title": "公共厕所",
        "address": "黑龙江省黑河市北安市北环大街与园区二路交叉口正西方向46米左右",
        "tel": "",
        "category": "基础设施:公共设施:公共厕所",
        "type": 0,
        "location": {
            "lat": 47.789287,
            "lng": 126.767644
        },
        "ad_info": {
            "adcode": 231181,
            "province": "黑龙江省",
            "city": "黑河市",
            "district": "北安市"
        }
    },
    {
        "id": "15967882982875801284",
        "title": "公共厕所",
        "address": "黑龙江省黑河市爱辉区五中新区公交站(环城西路南)",
        "tel": "",
        "category": "基础设施:公共设施:公共厕所",
        "type": 0,
        "location": {
            "lat": 50.247959,
            "lng": 127.472497
        },
        "ad_info": {
            "adcode": 231102,
            "province": "黑龙江省",
            "city": "黑河市",
            "district": "爱辉区"
        }
    },
    {
        "id": "9915690928100613824",
        "title": "公共厕所",
        "address": "黑龙江省黑河市嫩江市九荣线与南环路交叉口正北方向405米左右",
        "tel": "",
        "category": "基础设施:公共设施:公共厕所",
        "type": 0,
        "location": {
            "lat": 48.866272,
            "lng": 125.288687
        },
        "ad_info": {
            "adcode": 231183,
            "province": "黑龙江省",
            "city": "黑河市",
            "district": "嫩江市"
        }
    },
    {
        "id": "8061960714380458360",
        "title": "公共厕所",
        "address": "黑龙江省黑河市爱辉区中央东大街与龙滨路交叉口东北方向24米左右",
        "tel": "",
        "category": "基础设施:公共设施:公共厕所",
        "type": 0,
        "location": {
            "lat": 50.241614,
            "lng": 127.518295
        },
        "ad_info": {
            "adcode": 231102,
            "province": "黑龙江省",
            "city": "黑河市",
            "district": "爱辉区"
        }
    },
    {
        "id": "13331403108458266216",
        "title": "公共厕所",
        "address": "黑龙江省黑河市北安市华山街与龙江路交叉口正西方向458米左右",
        "tel": "",
        "category": "基础设施:公共设施:公共厕所",
        "type": 0,
        "location": {
            "lat": 48.255634,
            "lng": 126.495973
        },
        "ad_info": {
            "adcode": 231181,
            "province": "黑龙江省",
            "city": "黑河市",
            "district": "北安市"
        }
    },
    {
        "id": "12656634006754578612",
        "title": "公共厕所",
        "address": "黑龙江省黑河市嫩江市嫩兴路与旭光路交叉口西北方向71米左右",
        "tel": "",
        "category": "基础设施:公共设施:公共厕所",
        "type": 0,
        "location": {
            "lat": 49.174746,
            "lng": 125.207412
        },
        "ad_info": {
            "adcode": 231183,
            "province": "黑龙江省",
            "city": "黑河市",
            "district": "嫩江市"
        }
    },
    {
        "id": "16971766317946207894",
        "title": "公共厕所",
        "address": "黑龙江省黑河市爱辉区Y004与共青团路交叉口正北方向469米左右",
        "tel": "",
        "category": "基础设施:公共设施:公共厕所",
        "type": 0,
        "location": {
            "lat": 50.514266,
            "lng": 126.801166
        },
        "ad_info": {
            "adcode": 231102,
            "province": "黑龙江省",
            "city": "黑河市",
            "district": "爱辉区"
        }
    },
    {
        "id": "3108506909532255545",
        "title": "公共厕所",
        "address": "黑龙江省黑河市五大连池市兴隆大街与青山胡同交叉口东南方向199米左右",
        "tel": "",
        "category": "基础设施:公共设施:公共厕所",
        "type": 0,
        "location": {
            "lat": 48.512578,
            "lng": 126.193751
        },
        "ad_info": {
            "adcode": 231182,
            "province": "黑龙江省",
            "city": "黑河市",
            "district": "五大连池市"
        }
    },
    {
        "id": "756700491811277795",
        "title": "公共厕所",
        "address": "黑龙江省黑河市北安市惠民路与迎宾路交叉口西南方向215米左右",
        "tel": "",
        "category": "基础设施:公共设施:公共厕所",
        "type": 0,
        "location": {
            "lat": 48.063573,
            "lng": 126.739843
        },
        "ad_info": {
            "adcode": 231181,
            "province": "黑龙江省",
            "city": "黑河市",
            "district": "北安市"
        }
    },
    {
        "id": "17821229073227967321",
        "title": "公共厕所",
        "address": "黑龙江省黑河市北安市学府街与西直路交叉口正西方向284米左右",
        "tel": "",
        "category": "基础设施:公共设施:公共厕所",
        "type": 0,
        "location": {
            "lat": 47.776381,
            "lng": 126.769184
        },
        "ad_info": {
            "adcode": 231181,
            "province": "黑龙江省",
            "city": "黑河市",
            "district": "北安市"
        }
    },
    {
        "id": "3522219393635533965",
        "title": "公共厕所",
        "address": "黑龙江省黑河市北安市G202",
        "tel": "",
        "category": "基础设施:公共设施:公共厕所",
        "type": 0,
        "location": {
            "lat": 48.315952,
            "lng": 126.504016
        },
        "ad_info": {
            "adcode": 231181,
            "province": "黑龙江省",
            "city": "黑河市",
            "district": "北安市"
        }
    },
    {
        "id": "7741872750482314708",
        "title": "公共厕所",
        "address": "黑龙江省黑河市北安市南宅巷与铁南街交叉口正东方向70米左右",
        "tel": "",
        "category": "基础设施:公共设施:公共厕所",
        "type": 0,
        "location": {
            "lat": 48.231904,
            "lng": 126.512932
        },
        "ad_info": {
            "adcode": 231181,
            "province": "黑龙江省",
            "city": "黑河市",
            "district": "北安市"
        }
    },
    {
        "id": "16092035570017586334",
        "title": "公共厕所",
        "address": "黑龙江省黑河市爱辉区锦河站售票处北侧",
        "tel": "",
        "category": "基础设施:公共设施:公共厕所",
        "type": 0,
        "location": {
            "lat": 50.137685,
            "lng": 127.414297
        },
        "ad_info": {
            "adcode": 231102,
            "province": "黑龙江省",
            "city": "黑河市",
            "district": "爱辉区"
        }
    },
    {
        "id": "2450803234305045367",
        "title": "小兴安服务区公共厕所",
        "address": "黑龙江省黑河市五大连池市吉黑高速",
        "tel": "13846537684",
        "category": "基础设施:公共设施:公共厕所",
        "type": 0,
        "location": {
            "lat": 48.949759,
            "lng": 126.927648
        },
        "ad_info": {
            "adcode": 231182,
            "province": "黑龙江省",
            "city": "黑河市",
            "district": "五大连池市"
        }
    },
    {
        "id": "3122220748488080014",
        "title": "公共厕所",
        "address": "黑龙江省黑河市逊克县广场西街与建设路交叉口正东方向103米左右",
        "tel": "",
        "category": "基础设施:公共设施:公共厕所",
        "type": 0,
        "location": {
            "lat": 49.575458,
            "lng": 128.471942
        },
        "ad_info": {
            "adcode": 231123,
            "province": "黑龙江省",
            "city": "黑河市",
            "district": "逊克县"
        }
    },
    {
        "id": "12303424223302647058",
        "title": "公共厕所",
        "address": "黑龙江省黑河市五大连池市五大连池市实验小学北侧220米",
        "tel": "",
        "category": "基础设施:公共设施:公共厕所",
        "type": 0,
        "location": {
            "lat": 48.518249,
            "lng": 126.184138
        },
        "ad_info": {
            "adcode": 231182,
            "province": "黑龙江省",
            "city": "黑河市",
            "district": "五大连池市"
        }
    },
    {
        "id": "5482201646836431189",
        "title": "公共厕所",
        "address": "黑龙江省黑河市嫩江市S211与山河大道交叉口西南方向299米左右",
        "tel": "",
        "category": "基础设施:公共设施:公共厕所",
        "type": 0,
        "location": {
            "lat": 49.268073,
            "lng": 125.747777
        },
        "ad_info": {
            "adcode": 231183,
            "province": "黑龙江省",
            "city": "黑河市",
            "district": "嫩江市"
        }
    },
    {
        "id": "18042792504510308003",
        "title": "公共厕所",
        "address": "黑龙江省黑河市逊克县发展街与边防路交叉口西北方向37米左右",
        "tel": "",
        "category": "基础设施:公共设施:公共厕所",
        "type": 0,
        "location": {
            "lat": 49.583121,
            "lng": 128.472493
        },
        "ad_info": {
            "adcode": 231123,
            "province": "黑龙江省",
            "city": "黑河市",
            "district": "逊克县"
        }
    },
    {
        "id": "6689836165575144443",
        "title": "公共厕所",
        "address": "黑龙江省黑河市爱辉区王肃街与邮政路交叉口正北方向27米左右",
        "tel": "",
        "category": "基础设施:公共设施:公共厕所",
        "type": 0,
        "location": {
            "lat": 50.252367,
            "lng": 127.502886
        },
        "ad_info": {
            "adcode": 231102,
            "province": "黑龙江省",
            "city": "黑河市",
            "district": "爱辉区"
        }
    },
    {
        "id": "13707632454630094268",
        "title": "公共厕所",
        "address": "黑龙江省黑河市爱辉区G331与丹阿公路交叉口正东方向562米左右",
        "tel": "",
        "category": "基础设施:公共设施:公共厕所",
        "type": 0,
        "location": {
            "lat": 50.262051,
            "lng": 127.449749
        },
        "ad_info": {
            "adcode": 231102,
            "province": "黑龙江省",
            "city": "黑河市",
            "district": "爱辉区"
        }
    },
    {
        "id": "10477788786890676112",
        "title": "公共厕所",
        "address": "黑龙江省黑河市逊克县山湖街与曙光街交叉口正南方向29米左右",
        "tel": "",
        "category": "基础设施:公共设施:公共厕所",
        "type": 0,
        "location": {
            "lat": 49.582183,
            "lng": 128.483158
        },
        "ad_info": {
            "adcode": 231123,
            "province": "黑龙江省",
            "city": "黑河市",
            "district": "逊克县"
        }
    },
    {
        "id": "10246659336321221238",
        "title": "公共厕所",
        "address": "黑龙江省黑河市孙吴县交通大街与环城西路交叉口东南方向79米左右",
        "tel": "",
        "category": "基础设施:公共设施:公共厕所",
        "type": 0,
        "location": {
            "lat": 49.422253,
            "lng": 127.311634
        },
        "ad_info": {
            "adcode": 231124,
            "province": "黑龙江省",
            "city": "黑河市",
            "district": "孙吴县"
        }
    },
    {
        "id": "7114334406053429739",
        "title": "公共厕所",
        "address": "黑龙江省黑河市嫩江市尖山街与市场路交叉口东南方向179米左右",
        "tel": "",
        "category": "基础设施:公共设施:公共厕所",
        "type": 0,
        "location": {
            "lat": 48.869073,
            "lng": 125.294107
        },
        "ad_info": {
            "adcode": 231183,
            "province": "黑龙江省",
            "city": "黑河市",
            "district": "嫩江市"
        }
    },
    {
        "id": "18348857786733747867",
        "title": "公共厕所",
        "address": "黑龙江省黑河市嫩江市九三跨线大桥与九三路交叉口西北方向349米左右",
        "tel": "",
        "category": "基础设施:公共设施:公共厕所",
        "type": 0,
        "location": {
            "lat": 48.880765,
            "lng": 125.255764
        },
        "ad_info": {
            "adcode": 231183,
            "province": "黑龙江省",
            "city": "黑河市",
            "district": "嫩江市"
        }
    },
    {
        "id": "17133637949022525684",
        "title": "公共厕所",
        "address": "黑龙江省黑河市北安市庆华中路绿海花园",
        "tel": "",
        "category": "基础设施:公共设施:公共厕所",
        "type": 0,
        "location": {
            "lat": 48.239683,
            "lng": 126.540439
        },
        "ad_info": {
            "adcode": 231181,
            "province": "黑龙江省",
            "city": "黑河市",
            "district": "北安市"
        }
    },
    {
        "id": "8700010433304303506",
        "title": "公共厕所",
        "address": "黑龙江省黑河市爱辉区黑河有线广播电视台东侧50米",
        "tel": "",
        "category": "基础设施:公共设施:公共厕所",
        "type": 0,
        "location": {
            "lat": 50.254226,
            "lng": 127.493531
        },
        "ad_info": {
            "adcode": 231102,
            "province": "黑龙江省",
            "city": "黑河市",
            "district": "爱辉区"
        }
    },
    {
        "id": "1079956665618732191",
        "title": "红星服务区公共厕所",
        "address": "黑龙江省黑河市北安市S12前嫩高速附近",
        "tel": "",
        "category": "基础设施:公共设施:公共厕所",
        "type": 0,
        "location": {
            "lat": 48.072373,
            "lng": 127.164719
        },
        "ad_info": {
            "adcode": 231181,
            "province": "黑龙江省",
            "city": "黑河市",
            "district": "北安市"
        }
    }
]