[
    {
        "id": "11926103816219922626",
        "title": "公共厕所",
        "address": "贵州省黔南布依族苗族自治州都匀市广惠路与百子桥交叉口正西方向75米左右",
        "tel": "",
        "category": "基础设施:公共设施:公共厕所",
        "type": 0,
        "location": {
            "lat": 26.254638,
            "lng": 107.51538
        },
        "ad_info": {
            "adcode": 522701,
            "province": "贵州省",
            "city": "黔南布依族苗族自治州",
            "district": "都匀市"
        }
    },
    {
        "id": "3234896362548293382",
        "title": "公共厕所",
        "address": "贵州省黔南布依族苗族自治州都匀市步行街与民族路交叉口西南方向52米左右",
        "tel": "",
        "category": "基础设施:公共设施:公共厕所",
        "type": 0,
        "location": {
            "lat": 26.257349,
            "lng": 107.517687
        },
        "ad_info": {
            "adcode": 522701,
            "province": "贵州省",
            "city": "黔南布依族苗族自治州",
            "district": "都匀市"
        }
    },
    {
        "id": "6928483763874961192",
        "title": "公共厕所",
        "address": "贵州省黔南布依族苗族自治州都匀市斗篷山路83号",
        "tel": "",
        "category": "基础设施:公共设施:公共厕所",
        "type": 0,
        "location": {
            "lat": 26.28011,
            "lng": 107.516687
        },
        "ad_info": {
            "adcode": 522701,
            "province": "贵州省",
            "city": "黔南布依族苗族自治州",
            "district": "都匀市"
        }
    },
    {
        "id": "3792615393702538974",
        "title": "公共厕所",
        "address": "贵州省黔南布依族苗族自治州龙里县云栖路与中铁大道中段交叉口东360米",
        "tel": "",
        "category": "基础设施:公共设施:公共厕所",
        "type": 0,
        "location": {
            "lat": 26.49458,
            "lng": 106.856902
        },
        "ad_info": {
            "adcode": 522730,
            "province": "贵州省",
            "city": "黔南布依族苗族自治州",
            "district": "龙里县"
        }
    },
    {
        "id": "6781407248952269963",
        "title": "公共厕所",
        "address": "贵州省黔南布依族苗族自治州都匀市新华西巷与民族路交叉口东北方向53米左右",
        "tel": "",
        "category": "基础设施:公共设施:公共厕所",
        "type": 0,
        "location": {
            "lat": 26.258396,
            "lng": 107.515966
        },
        "ad_info": {
            "adcode": 522701,
            "province": "贵州省",
            "city": "黔南布依族苗族自治州",
            "district": "都匀市"
        }
    },
    {
        "id": "8033017225116466153",
        "title": "公共厕所",
        "address": "贵州省黔南布依族苗族自治州都匀市剑江大道中段与花园路交叉口西南方向25米左右",
        "tel": "",
        "category": "基础设施:公共设施:公共厕所",
        "type": 0,
        "location": {
            "lat": 26.252633,
            "lng": 107.514824
        },
        "ad_info": {
            "adcode": 522701,
            "province": "贵州省",
            "city": "黔南布依族苗族自治州",
            "district": "都匀市"
        }
    },
    {
        "id": "14779198199257144041",
        "title": "公共厕所",
        "address": "贵州省黔南布依族苗族自治州荔波县小七孔西门服务中心旅游厕所",
        "tel": "",
        "category": "基础设施:公共设施:公共厕所",
        "type": 0,
        "location": {
            "lat": 25.285983,
            "lng": 107.694824
        },
        "ad_info": {
            "adcode": 522722,
            "province": "贵州省",
            "city": "黔南布依族苗族自治州",
            "district": "荔波县"
        }
    },
    {
        "id": "7646530404089782878",
        "title": "公共厕所",
        "address": "贵州省黔南布依族苗族自治州都匀市毛尖大道东段与毛尖大道中段交叉口东60米",
        "tel": "",
        "category": "基础设施:公共设施:公共厕所",
        "type": 0,
        "location": {
            "lat": 26.298685,
            "lng": 107.523441
        },
        "ad_info": {
            "adcode": 522701,
            "province": "贵州省",
            "city": "黔南布依族苗族自治州",
            "district": "都匀市"
        }
    },
    {
        "id": "7318545135472951342",
        "title": "公共厕所",
        "address": "贵州省黔南布依族苗族自治州都匀市会仙路与剑江大道中段交叉口西北方向60米左右",
        "tel": "",
        "category": "基础设施:公共设施:公共厕所",
        "type": 0,
        "location": {
            "lat": 26.285458,
            "lng": 107.516579
        },
        "ad_info": {
            "adcode": 522701,
            "province": "贵州省",
            "city": "黔南布依族苗族自治州",
            "district": "都匀市"
        }
    },
    {
        "id": "4218128882045351453",
        "title": "公共厕所",
        "address": "贵州省黔南布依族苗族自治州都匀市七星路与云海路交叉口西南方向221米左右",
        "tel": "",
        "category": "基础设施:公共设施:公共厕所",
        "type": 0,
        "location": {
            "lat": 26.302961,
            "lng": 107.516187
        },
        "ad_info": {
            "adcode": 522701,
            "province": "贵州省",
            "city": "黔南布依族苗族自治州",
            "district": "都匀市"
        }
    },
    {
        "id": "13205430821283434964",
        "title": "公共厕所",
        "address": "贵州省黔南布依族苗族自治州惠水县凤山路与长征路交叉口正西方向38米左右",
        "tel": "",
        "category": "基础设施:公共设施:公共厕所",
        "type": 0,
        "location": {
            "lat": 26.131008,
            "lng": 106.657271
        },
        "ad_info": {
            "adcode": 522731,
            "province": "贵州省",
            "city": "黔南布依族苗族自治州",
            "district": "惠水县"
        }
    },
    {
        "id": "14618486659075501467",
        "title": "公共厕所",
        "address": "贵州省黔南布依族苗族自治州都匀市富强巷与新华路交叉口西北方向56米左右",
        "tel": "",
        "category": "基础设施:公共设施:公共厕所",
        "type": 0,
        "location": {
            "lat": 26.259414,
            "lng": 107.51596
        },
        "ad_info": {
            "adcode": 522701,
            "province": "贵州省",
            "city": "黔南布依族苗族自治州",
            "district": "都匀市"
        }
    },
    {
        "id": "17908232274777433836",
        "title": "公共厕所",
        "address": "贵州省黔南布依族苗族自治州都匀市剑江大道中段与阳宝山路交叉口正东方向120米左右",
        "tel": "",
        "category": "基础设施:公共设施:公共厕所",
        "type": 0,
        "location": {
            "lat": 26.291266,
            "lng": 107.518068
        },
        "ad_info": {
            "adcode": 522701,
            "province": "贵州省",
            "city": "黔南布依族苗族自治州",
            "district": "都匀市"
        }
    },
    {
        "id": "11697329900879741234",
        "title": "公共厕所",
        "address": "贵州省黔南布依族苗族自治州独山县和平路与紫泉路交叉口西北方向54米左右",
        "tel": "",
        "category": "基础设施:公共设施:公共厕所",
        "type": 0,
        "location": {
            "lat": 25.830327,
            "lng": 107.546178
        },
        "ad_info": {
            "adcode": 522726,
            "province": "贵州省",
            "city": "黔南布依族苗族自治州",
            "district": "独山县"
        }
    },
    {
        "id": "9942329469111553772",
        "title": "公共厕所",
        "address": "贵州省黔南布依族苗族自治州都匀市河滨路与绿茵路交叉口西南方向33米左右",
        "tel": "",
        "category": "基础设施:公共设施:公共厕所",
        "type": 0,
        "location": {
            "lat": 26.26714,
            "lng": 107.511531
        },
        "ad_info": {
            "adcode": 522701,
            "province": "贵州省",
            "city": "黔南布依族苗族自治州",
            "district": "都匀市"
        }
    },
    {
        "id": "13463922393841237820",
        "title": "公共厕所",
        "address": "贵州省黔南布依族苗族自治州都匀市伯爵美食街与华馨湾路交叉口东北方向252米左右",
        "tel": "",
        "category": "基础设施:公共设施:公共厕所",
        "type": 0,
        "location": {
            "lat": 26.27944,
            "lng": 107.521697
        },
        "ad_info": {
            "adcode": 522701,
            "province": "贵州省",
            "city": "黔南布依族苗族自治州",
            "district": "都匀市"
        }
    },
    {
        "id": "905662383280873943",
        "title": "公共厕所",
        "address": "贵州省黔南布依族苗族自治州三都水族自治县水族风情步行街与243国道交叉口西180米",
        "tel": "",
        "category": "基础设施:公共设施:公共厕所",
        "type": 0,
        "location": {
            "lat": 25.981391,
            "lng": 107.873516
        },
        "ad_info": {
            "adcode": 522732,
            "province": "贵州省",
            "city": "黔南布依族苗族自治州",
            "district": "三都水族自治县"
        }
    },
    {
        "id": "15290447329713291557",
        "title": "公共厕所",
        "address": "贵州省黔南布依族苗族自治州惠水县县府中路与和平路交叉口东南方向52米左右",
        "tel": "",
        "category": "基础设施:公共设施:公共厕所",
        "type": 0,
        "location": {
            "lat": 26.133221,
            "lng": 106.660846
        },
        "ad_info": {
            "adcode": 522731,
            "province": "贵州省",
            "city": "黔南布依族苗族自治州",
            "district": "惠水县"
        }
    },
    {
        "id": "10744557469712289382",
        "title": "公共厕所",
        "address": "贵州省黔南布依族苗族自治州都匀市凤凰路与振华路交叉口正北方向85米左右",
        "tel": "",
        "category": "基础设施:公共设施:公共厕所",
        "type": 0,
        "location": {
            "lat": 26.273419,
            "lng": 107.520998
        },
        "ad_info": {
            "adcode": 522701,
            "province": "贵州省",
            "city": "黔南布依族苗族自治州",
            "district": "都匀市"
        }
    },
    {
        "id": "2727350061498351305",
        "title": "公共厕所",
        "address": "贵州省黔南布依族苗族自治州都匀市文明路与河滨路交叉口正西方向241米左右",
        "tel": "",
        "category": "基础设施:公共设施:公共厕所",
        "type": 0,
        "location": {
            "lat": 26.261231,
            "lng": 107.51097
        },
        "ad_info": {
            "adcode": 522701,
            "province": "贵州省",
            "city": "黔南布依族苗族自治州",
            "district": "都匀市"
        }
    },
    {
        "id": "16193134785187428638",
        "title": "公共厕所",
        "address": "贵州省黔南布依族苗族自治州独山县中华南路2西南方向160米",
        "tel": "",
        "category": "基础设施:公共设施:公共厕所",
        "type": 0,
        "location": {
            "lat": 25.82569,
            "lng": 107.539872
        },
        "ad_info": {
            "adcode": 522726,
            "province": "贵州省",
            "city": "黔南布依族苗族自治州",
            "district": "独山县"
        }
    },
    {
        "id": "16534048253498207024",
        "title": "公共厕所",
        "address": "贵州省黔南布依族苗族自治州都匀市剑江大道中段与小河巷交叉口正西方向123米左右",
        "tel": "",
        "category": "基础设施:公共设施:公共厕所",
        "type": 0,
        "location": {
            "lat": 26.264111,
            "lng": 107.513258
        },
        "ad_info": {
            "adcode": 522701,
            "province": "贵州省",
            "city": "黔南布依族苗族自治州",
            "district": "都匀市"
        }
    },
    {
        "id": "7738707319701817568",
        "title": "公共厕所",
        "address": "贵州省黔南布依族苗族自治州都匀市云龙大道与旗山大道南段交叉口正东方向964米左右",
        "tel": "",
        "category": "基础设施:公共设施:公共厕所",
        "type": 0,
        "location": {
            "lat": 26.161578,
            "lng": 107.611905
        },
        "ad_info": {
            "adcode": 522701,
            "province": "贵州省",
            "city": "黔南布依族苗族自治州",
            "district": "都匀市"
        }
    },
    {
        "id": "10486807131803721781",
        "title": "公共厕所",
        "address": "贵州省黔南布依族苗族自治州罗甸县罗斛西路与联城路交叉口东南方向69米左右",
        "tel": "",
        "category": "基础设施:公共设施:公共厕所",
        "type": 0,
        "location": {
            "lat": 25.42777,
            "lng": 106.74454
        },
        "ad_info": {
            "adcode": 522728,
            "province": "贵州省",
            "city": "黔南布依族苗族自治州",
            "district": "罗甸县"
        }
    },
    {
        "id": "10488339636198828781",
        "title": "公共厕所",
        "address": "贵州省黔南布依族苗族自治州三都水族自治县环城东路与都江路交叉口东南方向49米左右",
        "tel": "",
        "category": "基础设施:公共设施:公共厕所",
        "type": 0,
        "location": {
            "lat": 25.986988,
            "lng": 107.876578
        },
        "ad_info": {
            "adcode": 522732,
            "province": "贵州省",
            "city": "黔南布依族苗族自治州",
            "district": "三都水族自治县"
        }
    },
    {
        "id": "12336619016565147408",
        "title": "公共厕所",
        "address": "贵州省黔南布依族苗族自治州都匀市华馨湾路与飞燕路交叉口东北方向101米左右",
        "tel": "",
        "category": "基础设施:公共设施:公共厕所",
        "type": 0,
        "location": {
            "lat": 26.271943,
            "lng": 107.516603
        },
        "ad_info": {
            "adcode": 522701,
            "province": "贵州省",
            "city": "黔南布依族苗族自治州",
            "district": "都匀市"
        }
    },
    {
        "id": "11851830699027214254",
        "title": "公共厕所",
        "address": "贵州省黔南布依族苗族自治州惠水县G321与X944交叉口东北方向1856米左右",
        "tel": "",
        "category": "基础设施:公共设施:公共厕所",
        "type": 0,
        "location": {
            "lat": 26.104208,
            "lng": 106.838954
        },
        "ad_info": {
            "adcode": 522731,
            "province": "贵州省",
            "city": "黔南布依族苗族自治州",
            "district": "惠水县"
        }
    },
    {
        "id": "7119636910289413265",
        "title": "公共厕所",
        "address": "贵州省黔南布依族苗族自治州福泉市洒金北路与金钟路交叉口正东方向115米左右",
        "tel": "",
        "category": "基础设施:公共设施:公共厕所",
        "type": 0,
        "location": {
            "lat": 26.692587,
            "lng": 107.519231
        },
        "ad_info": {
            "adcode": 522702,
            "province": "贵州省",
            "city": "黔南布依族苗族自治州",
            "district": "福泉市"
        }
    },
    {
        "id": "13656997585713391472",
        "title": "公共厕所",
        "address": "贵州省黔南布依族苗族自治州都匀市七星路与毛尖大道东段交叉口正东方向91米左右",
        "tel": "",
        "category": "基础设施:公共设施:公共厕所",
        "type": 0,
        "location": {
            "lat": 26.298719,
            "lng": 107.523709
        },
        "ad_info": {
            "adcode": 522701,
            "province": "贵州省",
            "city": "黔南布依族苗族自治州",
            "district": "都匀市"
        }
    },
    {
        "id": "1598649127919337286",
        "title": "公共厕所",
        "address": "贵州省黔南布依族苗族自治州独山县四通路与神河路交叉口西北方向44米左右",
        "tel": "",
        "category": "基础设施:公共设施:公共厕所",
        "type": 0,
        "location": {
            "lat": 25.82036,
            "lng": 107.53976
        },
        "ad_info": {
            "adcode": 522726,
            "province": "贵州省",
            "city": "黔南布依族苗族自治州",
            "district": "独山县"
        }
    },
    {
        "id": "3912728149606019359",
        "title": "公共厕所",
        "address": "贵州省黔南布依族苗族自治州福泉市Y014与朝阳路交叉口正南方向344米左右",
        "tel": "",
        "category": "基础设施:公共设施:公共厕所",
        "type": 0,
        "location": {
            "lat": 26.69479,
            "lng": 107.522263
        },
        "ad_info": {
            "adcode": 522702,
            "province": "贵州省",
            "city": "黔南布依族苗族自治州",
            "district": "福泉市"
        }
    },
    {
        "id": "5415473134937480247",
        "title": "公共厕所",
        "address": "贵州省黔南布依族苗族自治州都匀市普安路与民族路交叉口西北方向28米左右",
        "tel": "",
        "category": "基础设施:公共设施:公共厕所",
        "type": 0,
        "location": {
            "lat": 26.25854,
            "lng": 107.520414
        },
        "ad_info": {
            "adcode": 522701,
            "province": "贵州省",
            "city": "黔南布依族苗族自治州",
            "district": "都匀市"
        }
    },
    {
        "id": "13097021264741651808",
        "title": "公共厕所",
        "address": "贵州省黔南布依族苗族自治州都匀市闽C水泥砖厂西北侧120米",
        "tel": "",
        "category": "基础设施:公共设施:公共厕所",
        "type": 0,
        "location": {
            "lat": 26.148329,
            "lng": 107.608667
        },
        "ad_info": {
            "adcode": 522701,
            "province": "贵州省",
            "city": "黔南布依族苗族自治州",
            "district": "都匀市"
        }
    },
    {
        "id": "11692445616534504506",
        "title": "公共厕所",
        "address": "贵州省黔南布依族苗族自治州都匀市云宫路与月亮桥路交叉口东北方向103米左右",
        "tel": "",
        "category": "基础设施:公共设施:公共厕所",
        "type": 0,
        "location": {
            "lat": 26.24601,
            "lng": 107.518317
        },
        "ad_info": {
            "adcode": 522701,
            "province": "贵州省",
            "city": "黔南布依族苗族自治州",
            "district": "都匀市"
        }
    },
    {
        "id": "3501540372911850736",
        "title": "公共厕所",
        "address": "贵州省黔南布依族苗族自治州龙里县东门街与环城路交叉口正南方向229米左右",
        "tel": "",
        "category": "基础设施:公共设施:公共厕所",
        "type": 0,
        "location": {
            "lat": 26.443565,
            "lng": 106.98519
        },
        "ad_info": {
            "adcode": 522730,
            "province": "贵州省",
            "city": "黔南布依族苗族自治州",
            "district": "龙里县"
        }
    },
    {
        "id": "2072293353180420952",
        "title": "公共厕所",
        "address": "贵州省黔南布依族苗族自治州都匀市洒金谷路与环城西路交叉口正北方向43米左右",
        "tel": "",
        "category": "基础设施:公共设施:公共厕所",
        "type": 0,
        "location": {
            "lat": 26.267774,
            "lng": 107.510425
        },
        "ad_info": {
            "adcode": 522701,
            "province": "贵州省",
            "city": "黔南布依族苗族自治州",
            "district": "都匀市"
        }
    },
    {
        "id": "10582634458189902071",
        "title": "公共厕所",
        "address": "贵州省黔南布依族苗族自治州都匀市易捷便利店(向阳路店)东侧",
        "tel": "",
        "category": "基础设施:公共设施:公共厕所",
        "type": 0,
        "location": {
            "lat": 26.247084,
            "lng": 107.316284
        },
        "ad_info": {
            "adcode": 522701,
            "province": "贵州省",
            "city": "黔南布依族苗族自治州",
            "district": "都匀市"
        }
    },
    {
        "id": "11349292075510129132",
        "title": "公共厕所",
        "address": "贵州省黔南布依族苗族自治州都匀市奎星路与环西大道交叉口正西方向80米左右",
        "tel": "",
        "category": "基础设施:公共设施:公共厕所",
        "type": 0,
        "location": {
            "lat": 26.315203,
            "lng": 107.510485
        },
        "ad_info": {
            "adcode": 522701,
            "province": "贵州省",
            "city": "黔南布依族苗族自治州",
            "district": "都匀市"
        }
    },
    {
        "id": "1069927458164066471",
        "title": "公共厕所",
        "address": "贵州省黔南布依族苗族自治州都匀市剑江大道中段与剑江大道北段交叉口西北方向83米左右",
        "tel": "",
        "category": "基础设施:公共设施:公共厕所",
        "type": 0,
        "location": {
            "lat": 26.296756,
            "lng": 107.516525
        },
        "ad_info": {
            "adcode": 522701,
            "province": "贵州省",
            "city": "黔南布依族苗族自治州",
            "district": "都匀市"
        }
    },
    {
        "id": "16165280510757676671",
        "title": "公共厕所",
        "address": "贵州省黔南布依族苗族自治州三都水族自治县建设西路与凤凰路交叉口西北140米二楼",
        "tel": "",
        "category": "基础设施:公共设施:公共厕所",
        "type": 0,
        "location": {
            "lat": 25.983716,
            "lng": 107.870856
        },
        "ad_info": {
            "adcode": 522732,
            "province": "贵州省",
            "city": "黔南布依族苗族自治州",
            "district": "三都水族自治县"
        }
    },
    {
        "id": "10254859799620809570",
        "title": "公共厕所",
        "address": "贵州省黔南布依族苗族自治州都匀市七星路与毛尖大道东段交叉口正北方向289米左右",
        "tel": "",
        "category": "基础设施:公共设施:公共厕所",
        "type": 0,
        "location": {
            "lat": 26.301461,
            "lng": 107.521958
        },
        "ad_info": {
            "adcode": 522701,
            "province": "贵州省",
            "city": "黔南布依族苗族自治州",
            "district": "都匀市"
        }
    },
    {
        "id": "16824359378130746471",
        "title": "公共厕所",
        "address": "贵州省黔南布依族苗族自治州惠水县凤山路与振兴路交叉口正西方向35米左右",
        "tel": "",
        "category": "基础设施:公共设施:公共厕所",
        "type": 0,
        "location": {
            "lat": 26.12821,
            "lng": 106.658838
        },
        "ad_info": {
            "adcode": 522731,
            "province": "贵州省",
            "city": "黔南布依族苗族自治州",
            "district": "惠水县"
        }
    },
    {
        "id": "9816671062433002124",
        "title": "公共厕所",
        "address": "贵州省黔南布依族苗族自治州惠水县双拥街与惠民西路交叉口东南方向78米左右",
        "tel": "",
        "category": "基础设施:公共设施:公共厕所",
        "type": 0,
        "location": {
            "lat": 26.131317,
            "lng": 106.660374
        },
        "ad_info": {
            "adcode": 522731,
            "province": "贵州省",
            "city": "黔南布依族苗族自治州",
            "district": "惠水县"
        }
    },
    {
        "id": "16358612688171571592",
        "title": "公共厕所",
        "address": "贵州省黔南布依族苗族自治州都匀市斗篷山路与青龙路交叉口东南方向146米左右",
        "tel": "",
        "category": "基础设施:公共设施:公共厕所",
        "type": 0,
        "location": {
            "lat": 26.311,
            "lng": 107.514842
        },
        "ad_info": {
            "adcode": 522701,
            "province": "贵州省",
            "city": "黔南布依族苗族自治州",
            "district": "都匀市"
        }
    },
    {
        "id": "5791669841189864450",
        "title": "公共厕所",
        "address": "贵州省黔南布依族苗族自治州惠水县人民北路与惠民路交叉口正西方向101米左右",
        "tel": "",
        "category": "基础设施:公共设施:公共厕所",
        "type": 0,
        "location": {
            "lat": 26.12881,
            "lng": 106.65479
        },
        "ad_info": {
            "adcode": 522731,
            "province": "贵州省",
            "city": "黔南布依族苗族自治州",
            "district": "惠水县"
        }
    },
    {
        "id": "15155749559733237845",
        "title": "公共厕所",
        "address": "贵州省黔南布依族苗族自治州都匀市剑江大道中段与花园路交叉口正北方向111米左右",
        "tel": "",
        "category": "基础设施:公共设施:公共厕所",
        "type": 0,
        "location": {
            "lat": 26.253822,
            "lng": 107.515016
        },
        "ad_info": {
            "adcode": 522701,
            "province": "贵州省",
            "city": "黔南布依族苗族自治州",
            "district": "都匀市"
        }
    },
    {
        "id": "5641350030611167310",
        "title": "公共厕所",
        "address": "贵州省黔南布依族苗族自治州都匀市梦都影视城南侧150米",
        "tel": "",
        "category": "基础设施:公共设施:公共厕所",
        "type": 0,
        "location": {
            "lat": 26.230899,
            "lng": 107.607978
        },
        "ad_info": {
            "adcode": 522701,
            "province": "贵州省",
            "city": "黔南布依族苗族自治州",
            "district": "都匀市"
        }
    },
    {
        "id": "17915883511023397644",
        "title": "公共厕所",
        "address": "贵州省黔南布依族苗族自治州福泉市G551与X910交叉口西北方向80米左右",
        "tel": "",
        "category": "基础设施:公共设施:公共厕所",
        "type": 0,
        "location": {
            "lat": 26.633588,
            "lng": 107.627956
        },
        "ad_info": {
            "adcode": 522702,
            "province": "贵州省",
            "city": "黔南布依族苗族自治州",
            "district": "福泉市"
        }
    },
    {
        "id": "13837216128740941595",
        "title": "公共厕所",
        "address": "贵州省黔南布依族苗族自治州惠水县G212与厂兴路交叉口正东方向117米左右",
        "tel": "",
        "category": "基础设施:公共设施:公共厕所",
        "type": 0,
        "location": {
            "lat": 26.180958,
            "lng": 106.679302
        },
        "ad_info": {
            "adcode": 522731,
            "province": "贵州省",
            "city": "黔南布依族苗族自治州",
            "district": "惠水县"
        }
    },
    {
        "id": "11911752429161470591",
        "title": "公共厕所",
        "address": "贵州省黔南布依族苗族自治州惠水县惠民西路与振兴路交叉口东北方向74米左右",
        "tel": "",
        "category": "基础设施:公共设施:公共厕所",
        "type": 0,
        "location": {
            "lat": 26.129513,
            "lng": 106.661278
        },
        "ad_info": {
            "adcode": 522731,
            "province": "贵州省",
            "city": "黔南布依族苗族自治州",
            "district": "惠水县"
        }
    },
    {
        "id": "3659321195241798251",
        "title": "公共厕所",
        "address": "贵州省黔南布依族苗族自治州龙里县半边街与环城路交叉口正北方向52米左右",
        "tel": "",
        "category": "基础设施:公共设施:公共厕所",
        "type": 0,
        "location": {
            "lat": 26.44779,
            "lng": 106.9768
        },
        "ad_info": {
            "adcode": 522730,
            "province": "贵州省",
            "city": "黔南布依族苗族自治州",
            "district": "龙里县"
        }
    },
    {
        "id": "3984872576607862675",
        "title": "公共厕所",
        "address": "贵州省黔南布依族苗族自治州都匀市环湖路与黔南大道交叉口西南方向144米左右",
        "tel": "",
        "category": "基础设施:公共设施:公共厕所",
        "type": 0,
        "location": {
            "lat": 26.221073,
            "lng": 107.598536
        },
        "ad_info": {
            "adcode": 522701,
            "province": "贵州省",
            "city": "黔南布依族苗族自治州",
            "district": "都匀市"
        }
    },
    {
        "id": "9137413400988245117",
        "title": "公共厕所",
        "address": "贵州省黔南布依族苗族自治州瓮安县共和路与瓮水路交叉口东南方向127米左右",
        "tel": "",
        "category": "基础设施:公共设施:公共厕所",
        "type": 0,
        "location": {
            "lat": 27.05957,
            "lng": 107.476
        },
        "ad_info": {
            "adcode": 522725,
            "province": "贵州省",
            "city": "黔南布依族苗族自治州",
            "district": "瓮安县"
        }
    },
    {
        "id": "7020248604102871692",
        "title": "公共厕所",
        "address": "贵州省黔南布依族苗族自治州龙里县",
        "tel": "",
        "category": "基础设施:公共设施:公共厕所",
        "type": 0,
        "location": {
            "lat": 26.403637,
            "lng": 106.922547
        },
        "ad_info": {
            "adcode": 522730,
            "province": "贵州省",
            "city": "黔南布依族苗族自治州",
            "district": "龙里县"
        }
    },
    {
        "id": "7566828374829893248",
        "title": "公共厕所",
        "address": "贵州省黔南布依族苗族自治州罗甸县Y003与凤亭桥交叉口西南方向413米左右",
        "tel": "",
        "category": "基础设施:公共设施:公共厕所",
        "type": 0,
        "location": {
            "lat": 25.228771,
            "lng": 106.789674
        },
        "ad_info": {
            "adcode": 522728,
            "province": "贵州省",
            "city": "黔南布依族苗族自治州",
            "district": "罗甸县"
        }
    },
    {
        "id": "7265656382474217191",
        "title": "公共厕所",
        "address": "贵州省黔南布依族苗族自治州罗甸县红水河景区售票处东侧90米",
        "tel": "",
        "category": "基础设施:公共设施:公共厕所",
        "type": 0,
        "location": {
            "lat": 25.166141,
            "lng": 106.620799
        },
        "ad_info": {
            "adcode": 522728,
            "province": "贵州省",
            "city": "黔南布依族苗族自治州",
            "district": "罗甸县"
        }
    },
    {
        "id": "6883860423360488864",
        "title": "公共厕所",
        "address": "贵州省黔南布依族苗族自治州长顺县外环路与夜郎大道交叉口西北方向216米左右",
        "tel": "",
        "category": "基础设施:公共设施:公共厕所",
        "type": 0,
        "location": {
            "lat": 26.182324,
            "lng": 106.378149
        },
        "ad_info": {
            "adcode": 522729,
            "province": "贵州省",
            "city": "黔南布依族苗族自治州",
            "district": "长顺县"
        }
    },
    {
        "id": "3246171125040310105",
        "title": "公共厕所",
        "address": "贵州省黔南布依族苗族自治州惠水县惠民中路与滨江北路交叉口正南方向26米左右",
        "tel": "",
        "category": "基础设施:公共设施:公共厕所",
        "type": 0,
        "location": {
            "lat": 26.125501,
            "lng": 106.662099
        },
        "ad_info": {
            "adcode": 522731,
            "province": "贵州省",
            "city": "黔南布依族苗族自治州",
            "district": "惠水县"
        }
    },
    {
        "id": "3660901382912553228",
        "title": "公共厕所",
        "address": "贵州省黔南布依族苗族自治州惠水县程番路与西山路交叉口东北方向104米左右",
        "tel": "",
        "category": "基础设施:公共设施:公共厕所",
        "type": 0,
        "location": {
            "lat": 26.121739,
            "lng": 106.6528
        },
        "ad_info": {
            "adcode": 522731,
            "province": "贵州省",
            "city": "黔南布依族苗族自治州",
            "district": "惠水县"
        }
    },
    {
        "id": "5872738354320753886",
        "title": "公共厕所",
        "address": "贵州省黔南布依族苗族自治州荔波县312省道西50米",
        "tel": "",
        "category": "基础设施:公共设施:公共厕所",
        "type": 0,
        "location": {
            "lat": 25.59182,
            "lng": 107.713396
        },
        "ad_info": {
            "adcode": 522722,
            "province": "贵州省",
            "city": "黔南布依族苗族自治州",
            "district": "荔波县"
        }
    },
    {
        "id": "15790182972258738678",
        "title": "公共厕所",
        "address": "贵州省黔南布依族苗族自治州福泉市新泉西路15号",
        "tel": "",
        "category": "基础设施:公共设施:公共厕所",
        "type": 0,
        "location": {
            "lat": 26.702352,
            "lng": 107.509537
        },
        "ad_info": {
            "adcode": 522702,
            "province": "贵州省",
            "city": "黔南布依族苗族自治州",
            "district": "福泉市"
        }
    },
    {
        "id": "1544105168230422890",
        "title": "公共厕所",
        "address": "贵州省黔南布依族苗族自治州龙里县兴龙路与腾龙路交叉口东北方向76米左右",
        "tel": "",
        "category": "基础设施:公共设施:公共厕所",
        "type": 0,
        "location": {
            "lat": 26.452541,
            "lng": 106.981025
        },
        "ad_info": {
            "adcode": 522730,
            "province": "贵州省",
            "city": "黔南布依族苗族自治州",
            "district": "龙里县"
        }
    },
    {
        "id": "4988829761150900691",
        "title": "公共厕所",
        "address": "贵州省黔南布依族苗族自治州福泉市叠翠路与福源大道交叉口正北方向562米左右",
        "tel": "",
        "category": "基础设施:公共设施:公共厕所",
        "type": 0,
        "location": {
            "lat": 26.696,
            "lng": 107.526858
        },
        "ad_info": {
            "adcode": 522702,
            "province": "贵州省",
            "city": "黔南布依族苗族自治州",
            "district": "福泉市"
        }
    },
    {
        "id": "1868002586266671381",
        "title": "公共厕所",
        "address": "贵州省黔南布依族苗族自治州长顺县962县道附近",
        "tel": "",
        "category": "基础设施:公共设施:公共厕所",
        "type": 0,
        "location": {
            "lat": 26.213303,
            "lng": 106.353283
        },
        "ad_info": {
            "adcode": 522729,
            "province": "贵州省",
            "city": "黔南布依族苗族自治州",
            "district": "长顺县"
        }
    },
    {
        "id": "15287002301330886297",
        "title": "公共厕所",
        "address": "贵州省黔南布依族苗族自治州独山县尹珍路与西环大道交叉口东南方向375米左右",
        "tel": "",
        "category": "基础设施:公共设施:公共厕所",
        "type": 0,
        "location": {
            "lat": 25.814822,
            "lng": 107.533286
        },
        "ad_info": {
            "adcode": 522726,
            "province": "贵州省",
            "city": "黔南布依族苗族自治州",
            "district": "独山县"
        }
    },
    {
        "id": "1209511167037229633",
        "title": "风雨桥公共厕所",
        "address": "贵州省黔南布依族苗族自治州都匀市文峰路与迎宾路交叉口正东方向43米左右",
        "tel": "",
        "category": "基础设施:公共设施:公共厕所",
        "type": 0,
        "location": {
            "lat": 26.253294,
            "lng": 107.520562
        },
        "ad_info": {
            "adcode": 522701,
            "province": "贵州省",
            "city": "黔南布依族苗族自治州",
            "district": "都匀市"
        }
    },
    {
        "id": "392873367371987593",
        "title": "公共厕所",
        "address": "贵州省黔南布依族苗族自治州龙里县白晶谷38组团南侧170米",
        "tel": "",
        "category": "基础设施:公共设施:公共厕所",
        "type": 0,
        "location": {
            "lat": 26.478887,
            "lng": 106.82989
        },
        "ad_info": {
            "adcode": 522730,
            "province": "贵州省",
            "city": "黔南布依族苗族自治州",
            "district": "龙里县"
        }
    },
    {
        "id": "6681776171455928239",
        "title": "公共厕所",
        "address": "贵州省黔南布依族苗族自治州龙里县Y955与龙山大道交叉口正西方向734米左右",
        "tel": "",
        "category": "基础设施:公共设施:公共厕所",
        "type": 0,
        "location": {
            "lat": 26.441991,
            "lng": 106.926915
        },
        "ad_info": {
            "adcode": 522730,
            "province": "贵州省",
            "city": "黔南布依族苗族自治州",
            "district": "龙里县"
        }
    },
    {
        "id": "5215005522305733127",
        "title": "公共厕所",
        "address": "贵州省黔南布依族苗族自治州福泉市G210与G551交叉口正西方向909米左右",
        "tel": "",
        "category": "基础设施:公共设施:公共厕所",
        "type": 0,
        "location": {
            "lat": 26.628561,
            "lng": 107.584256
        },
        "ad_info": {
            "adcode": 522702,
            "province": "贵州省",
            "city": "黔南布依族苗族自治州",
            "district": "福泉市"
        }
    },
    {
        "id": "12147385657015964096",
        "title": "公共厕所",
        "address": "贵州省黔南布依族苗族自治州三都水族自治县G243与S517交叉口西南方向78米左右",
        "tel": "",
        "category": "基础设施:公共设施:公共厕所",
        "type": 0,
        "location": {
            "lat": 25.603934,
            "lng": 107.959699
        },
        "ad_info": {
            "adcode": 522732,
            "province": "贵州省",
            "city": "黔南布依族苗族自治州",
            "district": "三都水族自治县"
        }
    },
    {
        "id": "6881888856351663843",
        "title": "公共厕所",
        "address": "贵州省黔南布依族苗族自治州三都水族自治县文化路与河滨南路交叉口正南方向148米左右",
        "tel": "",
        "category": "基础设施:公共设施:公共厕所",
        "type": 0,
        "location": {
            "lat": 25.975933,
            "lng": 107.866135
        },
        "ad_info": {
            "adcode": 522732,
            "province": "贵州省",
            "city": "黔南布依族苗族自治州",
            "district": "三都水族自治县"
        }
    },
    {
        "id": "9405658679337191856",
        "title": "公共厕所",
        "address": "贵州省黔南布依族苗族自治州独山县满防线中国石化加油站",
        "tel": "",
        "category": "基础设施:公共设施:公共厕所",
        "type": 0,
        "location": {
            "lat": 25.345342,
            "lng": 107.453755
        },
        "ad_info": {
            "adcode": 522726,
            "province": "贵州省",
            "city": "黔南布依族苗族自治州",
            "district": "独山县"
        }
    },
    {
        "id": "1500377639037025709",
        "title": "荔波古镇公共厕所",
        "address": "贵州省黔南布依族苗族自治州荔波县向阳南路荔波古镇(西南角)",
        "tel": "",
        "category": "基础设施:公共设施:公共厕所",
        "type": 0,
        "location": {
            "lat": 25.408667,
            "lng": 107.8915
        },
        "ad_info": {
            "adcode": 522722,
            "province": "贵州省",
            "city": "黔南布依族苗族自治州",
            "district": "荔波县"
        }
    },
    {
        "id": "5928565152112487614",
        "title": "公共厕所",
        "address": "贵州省黔南布依族苗族自治州长顺县文化路与长兴北路交叉口西南方向135米左右",
        "tel": "",
        "category": "基础设施:公共设施:公共厕所",
        "type": 0,
        "location": {
            "lat": 26.004035,
            "lng": 106.439981
        },
        "ad_info": {
            "adcode": 522729,
            "province": "贵州省",
            "city": "黔南布依族苗族自治州",
            "district": "长顺县"
        }
    },
    {
        "id": "7001240401746430162",
        "title": "公共厕所",
        "address": "贵州省黔南布依族苗族自治州罗甸县商业街与莲花路交叉口西南方向24米左右",
        "tel": "",
        "category": "基础设施:公共设施:公共厕所",
        "type": 0,
        "location": {
            "lat": 25.42655,
            "lng": 106.746531
        },
        "ad_info": {
            "adcode": 522728,
            "province": "贵州省",
            "city": "黔南布依族苗族自治州",
            "district": "罗甸县"
        }
    },
    {
        "id": "4179572176856521429",
        "title": "公共厕所",
        "address": "贵州省黔南布依族苗族自治州龙里县兴龙路与环城路交叉口正西方向102米左右",
        "tel": "",
        "category": "基础设施:公共设施:公共厕所",
        "type": 0,
        "location": {
            "lat": 26.447981,
            "lng": 106.974248
        },
        "ad_info": {
            "adcode": 522730,
            "province": "贵州省",
            "city": "黔南布依族苗族自治州",
            "district": "龙里县"
        }
    },
    {
        "id": "17958799006787258927",
        "title": "公共厕所",
        "address": "贵州省黔南布依族苗族自治州惠水县惠水枢纽与都香高速交叉口正北方向898米左右",
        "tel": "",
        "category": "基础设施:公共设施:公共厕所",
        "type": 0,
        "location": {
            "lat": 26.100281,
            "lng": 106.646643
        },
        "ad_info": {
            "adcode": 522731,
            "province": "贵州省",
            "city": "黔南布依族苗族自治州",
            "district": "惠水县"
        }
    },
    {
        "id": "10510495715362764991",
        "title": "公共厕所",
        "address": "贵州省黔南布依族苗族自治州惠水县G212与龙泉大道交叉口正北方向514米左右",
        "tel": "",
        "category": "基础设施:公共设施:公共厕所",
        "type": 0,
        "location": {
            "lat": 26.282058,
            "lng": 106.683719
        },
        "ad_info": {
            "adcode": 522731,
            "province": "贵州省",
            "city": "黔南布依族苗族自治州",
            "district": "惠水县"
        }
    },
    {
        "id": "6209895271489545913",
        "title": "公共厕所",
        "address": "贵州省黔南布依族苗族自治州惠水县X964与X980交叉口西北方向1209米左右",
        "tel": "",
        "category": "基础设施:公共设施:公共厕所",
        "type": 0,
        "location": {
            "lat": 25.874664,
            "lng": 106.47994
        },
        "ad_info": {
            "adcode": 522731,
            "province": "贵州省",
            "city": "黔南布依族苗族自治州",
            "district": "惠水县"
        }
    },
    {
        "id": "3539166199433687444",
        "title": "公共厕所",
        "address": "贵州省黔南布依族苗族自治州平塘县新平路与玉水北路交叉口西南方向63米左右",
        "tel": "",
        "category": "基础设施:公共设施:公共厕所",
        "type": 0,
        "location": {
            "lat": 25.831944,
            "lng": 107.319825
        },
        "ad_info": {
            "adcode": 522727,
            "province": "贵州省",
            "city": "黔南布依族苗族自治州",
            "district": "平塘县"
        }
    },
    {
        "id": "4566527617916381301",
        "title": "无障碍公共厕所",
        "address": "贵州省黔南布依族苗族自治州都匀市书香路与旗山大道中段交叉口正西方向313米左右",
        "tel": "",
        "category": "基础设施:公共设施:公共厕所",
        "type": 0,
        "location": {
            "lat": 26.232306,
            "lng": 107.587734
        },
        "ad_info": {
            "adcode": 522701,
            "province": "贵州省",
            "city": "黔南布依族苗族自治州",
            "district": "都匀市"
        }
    },
    {
        "id": "8060185288172461032",
        "title": "公共厕所",
        "address": "贵州省黔南布依族苗族自治州都匀市广场路步行街与广惠路交叉口正西方向85米左右",
        "tel": "",
        "category": "基础设施:公共设施:公共厕所",
        "type": 0,
        "location": {
            "lat": 26.260354,
            "lng": 107.516454
        },
        "ad_info": {
            "adcode": 522701,
            "province": "贵州省",
            "city": "黔南布依族苗族自治州",
            "district": "都匀市"
        }
    },
    {
        "id": "11559865306284916843",
        "title": "文峰园公共厕所",
        "address": "贵州省黔南布依族苗族自治州都匀市花园路文峰园(西南角)",
        "tel": "",
        "category": "基础设施:公共设施:公共厕所",
        "type": 0,
        "location": {
            "lat": 26.250833,
            "lng": 107.518403
        },
        "ad_info": {
            "adcode": 522701,
            "province": "贵州省",
            "city": "黔南布依族苗族自治州",
            "district": "都匀市"
        }
    },
    {
        "id": "16363829562076832507",
        "title": "公共厕所",
        "address": "贵州省黔南布依族苗族自治州罗甸县东环路与河滨北路交叉口东南方向30米左右",
        "tel": "",
        "category": "基础设施:公共设施:公共厕所",
        "type": 0,
        "location": {
            "lat": 25.431534,
            "lng": 106.754338
        },
        "ad_info": {
            "adcode": 522728,
            "province": "贵州省",
            "city": "黔南布依族苗族自治州",
            "district": "罗甸县"
        }
    },
    {
        "id": "17171615100090561510",
        "title": "公共厕所",
        "address": "贵州省黔南布依族苗族自治州平塘县平湖镇迎宾大道一段251号",
        "tel": "",
        "category": "基础设施:公共设施:公共厕所",
        "type": 0,
        "location": {
            "lat": 25.827648,
            "lng": 107.33168
        },
        "ad_info": {
            "adcode": 522727,
            "province": "贵州省",
            "city": "黔南布依族苗族自治州",
            "district": "平塘县"
        }
    },
    {
        "id": "13326072351662258954",
        "title": "公共厕所",
        "address": "贵州省黔南布依族苗族自治州都匀市工人路与步行街交叉口正东方向79米左右",
        "tel": "",
        "category": "基础设施:公共设施:公共厕所",
        "type": 0,
        "location": {
            "lat": 26.256099,
            "lng": 107.518509
        },
        "ad_info": {
            "adcode": 522701,
            "province": "贵州省",
            "city": "黔南布依族苗族自治州",
            "district": "都匀市"
        }
    },
    {
        "id": "13789510459897973991",
        "title": "公共厕所",
        "address": "贵州省黔南布依族苗族自治州都匀市凤啭路与天池路交叉口正北方向147米左右",
        "tel": "",
        "category": "基础设施:公共设施:公共厕所",
        "type": 0,
        "location": {
            "lat": 26.277224,
            "lng": 107.512456
        },
        "ad_info": {
            "adcode": 522701,
            "province": "贵州省",
            "city": "黔南布依族苗族自治州",
            "district": "都匀市"
        }
    },
    {
        "id": "16059622539649617924",
        "title": "公共厕所",
        "address": "贵州省黔南布依族苗族自治州瓮安县兴隆路与金龙路交叉口东北方向28米左右",
        "tel": "",
        "category": "基础设施:公共设施:公共厕所",
        "type": 0,
        "location": {
            "lat": 27.067817,
            "lng": 107.474034
        },
        "ad_info": {
            "adcode": 522725,
            "province": "贵州省",
            "city": "黔南布依族苗族自治州",
            "district": "瓮安县"
        }
    },
    {
        "id": "2619014274626109420",
        "title": "公共厕所",
        "address": "贵州省黔南布依族苗族自治州都匀市大兴街与工人路交叉口西南方向52米左右",
        "tel": "",
        "category": "基础设施:公共设施:公共厕所",
        "type": 0,
        "location": {
            "lat": 26.256539,
            "lng": 107.515286
        },
        "ad_info": {
            "adcode": 522701,
            "province": "贵州省",
            "city": "黔南布依族苗族自治州",
            "district": "都匀市"
        }
    },
    {
        "id": "15916870599254757549",
        "title": "公共厕所",
        "address": "贵州省黔南布依族苗族自治州福泉市建设路与藜峨路交叉口正北方向85米左右",
        "tel": "",
        "category": "基础设施:公共设施:公共厕所",
        "type": 0,
        "location": {
            "lat": 26.699498,
            "lng": 107.514965
        },
        "ad_info": {
            "adcode": 522702,
            "province": "贵州省",
            "city": "黔南布依族苗族自治州",
            "district": "福泉市"
        }
    },
    {
        "id": "8520297539213513225",
        "title": "大七孔景区公共厕所",
        "address": "贵州省黔南布依族苗族自治州荔波县Y005与王蒙大桥交叉口正北方向658米左右",
        "tel": "",
        "category": "基础设施:公共设施:公共厕所",
        "type": 0,
        "location": {
            "lat": 25.279116,
            "lng": 107.75603
        },
        "ad_info": {
            "adcode": 522722,
            "province": "贵州省",
            "city": "黔南布依族苗族自治州",
            "district": "荔波县"
        }
    },
    {
        "id": "15777806914722424328",
        "title": "公共厕所",
        "address": "贵州省黔南布依族苗族自治州都匀市云宫路与剑江大道中段交叉口正南方向97米左右",
        "tel": "",
        "category": "基础设施:公共设施:公共厕所",
        "type": 0,
        "location": {
            "lat": 26.244413,
            "lng": 107.516214
        },
        "ad_info": {
            "adcode": 522701,
            "province": "贵州省",
            "city": "黔南布依族苗族自治州",
            "district": "都匀市"
        }
    },
    {
        "id": "4902688581497766481",
        "title": "公共厕所",
        "address": "贵州省黔南布依族苗族自治州都匀市平桥北路与广惠路交叉口东北方向20米左右",
        "tel": "",
        "category": "基础设施:公共设施:公共厕所",
        "type": 0,
        "location": {
            "lat": 26.268222,
            "lng": 107.519519
        },
        "ad_info": {
            "adcode": 522701,
            "province": "贵州省",
            "city": "黔南布依族苗族自治州",
            "district": "都匀市"
        }
    },
    {
        "id": "3427538441599336196",
        "title": "公共厕所",
        "address": "贵州省黔南布依族苗族自治州罗甸县建设路与新华路交叉口正南方向13米左右",
        "tel": "",
        "category": "基础设施:公共设施:公共厕所",
        "type": 0,
        "location": {
            "lat": 25.428129,
            "lng": 106.754594
        },
        "ad_info": {
            "adcode": 522728,
            "province": "贵州省",
            "city": "黔南布依族苗族自治州",
            "district": "罗甸县"
        }
    },
    {
        "id": "13002535260642556352",
        "title": "汽运司公共厕所",
        "address": "贵州省黔南布依族苗族自治州都匀市华馨湾路与龙江路交叉口东南方向98米左右",
        "tel": "",
        "category": "基础设施:公共设施:公共厕所",
        "type": 0,
        "location": {
            "lat": 26.27233,
            "lng": 107.51823
        },
        "ad_info": {
            "adcode": 522701,
            "province": "贵州省",
            "city": "黔南布依族苗族自治州",
            "district": "都匀市"
        }
    },
    {
        "id": "17866297716353439018",
        "title": "公共厕所",
        "address": "贵州省黔南布依族苗族自治州惠水县县府东路与园台东路交叉口正北方向118米左右",
        "tel": "",
        "category": "基础设施:公共设施:公共厕所",
        "type": 0,
        "location": {
            "lat": 26.134662,
            "lng": 106.665551
        },
        "ad_info": {
            "adcode": 522731,
            "province": "贵州省",
            "city": "黔南布依族苗族自治州",
            "district": "惠水县"
        }
    },
    {
        "id": "11029736677547703918",
        "title": "都匀服务区公共厕所",
        "address": "贵州省黔南布依族苗族自治州都匀市东来路与长虹路交叉口正西方向381米左右",
        "tel": "",
        "category": "基础设施:公共设施:公共厕所",
        "type": 0,
        "location": {
            "lat": 26.308475,
            "lng": 107.504701
        },
        "ad_info": {
            "adcode": 522701,
            "province": "贵州省",
            "city": "黔南布依族苗族自治州",
            "district": "都匀市"
        }
    },
    {
        "id": "16377087467208556887",
        "title": "公共厕所",
        "address": "贵州省黔南布依族苗族自治州瓮安县文峰南路与花竹园中街交叉口西北方向34米左右",
        "tel": "",
        "category": "基础设施:公共设施:公共厕所",
        "type": 0,
        "location": {
            "lat": 27.061326,
            "lng": 107.478017
        },
        "ad_info": {
            "adcode": 522725,
            "province": "贵州省",
            "city": "黔南布依族苗族自治州",
            "district": "瓮安县"
        }
    },
    {
        "id": "1272074828773922024",
        "title": "涟江公园公共厕所",
        "address": "贵州省黔南布依族苗族自治州惠水县涟江中路涟江公园内(西南角)",
        "tel": "",
        "category": "基础设施:公共设施:公共厕所",
        "type": 0,
        "location": {
            "lat": 26.12735,
            "lng": 106.662703
        },
        "ad_info": {
            "adcode": 522731,
            "province": "贵州省",
            "city": "黔南布依族苗族自治州",
            "district": "惠水县"
        }
    },
    {
        "id": "10745640183584799481",
        "title": "公共厕所",
        "address": "贵州省黔南布依族苗族自治州贵定县X014与贡茶路交叉口正东方向158米左右",
        "tel": "",
        "category": "基础设施:公共设施:公共厕所",
        "type": 0,
        "location": {
            "lat": 26.216788,
            "lng": 107.08056
        },
        "ad_info": {
            "adcode": 522723,
            "province": "贵州省",
            "city": "黔南布依族苗族自治州",
            "district": "贵定县"
        }
    },
    {
        "id": "10813364905542624946",
        "title": "公共厕所",
        "address": "贵州省黔南布依族苗族自治州贵定县新桥街与迎宾大道交叉口西北方向71米左右",
        "tel": "",
        "category": "基础设施:公共设施:公共厕所",
        "type": 0,
        "location": {
            "lat": 26.576132,
            "lng": 107.233748
        },
        "ad_info": {
            "adcode": 522723,
            "province": "贵州省",
            "city": "黔南布依族苗族自治州",
            "district": "贵定县"
        }
    },
    {
        "id": "12932272734482954307",
        "title": "公共厕所",
        "address": "贵州省黔南布依族苗族自治州贵定县中山东路与自由路交叉口正西方向103米左右",
        "tel": "",
        "category": "基础设施:公共设施:公共厕所",
        "type": 0,
        "location": {
            "lat": 26.575064,
            "lng": 107.241354
        },
        "ad_info": {
            "adcode": 522723,
            "province": "贵州省",
            "city": "黔南布依族苗族自治州",
            "district": "贵定县"
        }
    },
    {
        "id": "1904816838036199833",
        "title": "公共厕所",
        "address": "贵州省黔南布依族苗族自治州贵定县河滨西路与金都桥交叉口正北方向70米左右",
        "tel": "",
        "category": "基础设施:公共设施:公共厕所",
        "type": 0,
        "location": {
            "lat": 26.578936,
            "lng": 107.234176
        },
        "ad_info": {
            "adcode": 522723,
            "province": "贵州省",
            "city": "黔南布依族苗族自治州",
            "district": "贵定县"
        }
    },
    {
        "id": "9190902930872266600",
        "title": "龙里服务区公共厕所",
        "address": "贵州省黔南布依族苗族自治州龙里县宏基路与高新大道交叉口东南方向387米左右",
        "tel": "",
        "category": "基础设施:公共设施:公共厕所",
        "type": 0,
        "location": {
            "lat": 26.462224,
            "lng": 106.987627
        },
        "ad_info": {
            "adcode": 522730,
            "province": "贵州省",
            "city": "黔南布依族苗族自治州",
            "district": "龙里县"
        }
    },
    {
        "id": "11882166132500257189",
        "title": "公共厕所",
        "address": "贵州省黔南布依族苗族自治州平塘县甲茶路与腾龙大道交叉口正东方向93米左右",
        "tel": "",
        "category": "基础设施:公共设施:公共厕所",
        "type": 0,
        "location": {
            "lat": 25.820998,
            "lng": 107.319203
        },
        "ad_info": {
            "adcode": 522727,
            "province": "贵州省",
            "city": "黔南布依族苗族自治州",
            "district": "平塘县"
        }
    },
    {
        "id": "17060949287064549268",
        "title": "公共厕所",
        "address": "贵州省黔南布依族苗族自治州贵定县兴明路与安定路交叉口东南方向280米左右",
        "tel": "",
        "category": "基础设施:公共设施:公共厕所",
        "type": 0,
        "location": {
            "lat": 26.345411,
            "lng": 107.189766
        },
        "ad_info": {
            "adcode": 522723,
            "province": "贵州省",
            "city": "黔南布依族苗族自治州",
            "district": "贵定县"
        }
    },
    {
        "id": "6281750045230338872",
        "title": "清水江服务区第一公共厕所",
        "address": "贵州省黔南布依族苗族自治州都匀市都匀绕城高速与都香高速交叉口西北方向372米左右",
        "tel": "",
        "category": "基础设施:公共设施:公共厕所",
        "type": 0,
        "location": {
            "lat": 26.162573,
            "lng": 107.684975
        },
        "ad_info": {
            "adcode": 522701,
            "province": "贵州省",
            "city": "黔南布依族苗族自治州",
            "district": "都匀市"
        }
    },
    {
        "id": "13880136174337266486",
        "title": "公共厕所",
        "address": "贵州省黔南布依族苗族自治州贵定县平等北路与民主路交叉口正北方向92米左右",
        "tel": "",
        "category": "基础设施:公共设施:公共厕所",
        "type": 0,
        "location": {
            "lat": 26.577872,
            "lng": 107.239177
        },
        "ad_info": {
            "adcode": 522723,
            "province": "贵州省",
            "city": "黔南布依族苗族自治州",
            "district": "贵定县"
        }
    },
    {
        "id": "9398611597943569676",
        "title": "上堡服务区公共厕所",
        "address": "贵州省黔南布依族苗族自治州都匀市G75兰海高速附近",
        "tel": "",
        "category": "基础设施:公共设施:公共厕所",
        "type": 0,
        "location": {
            "lat": 26.126398,
            "lng": 107.468863
        },
        "ad_info": {
            "adcode": 522701,
            "province": "贵州省",
            "city": "黔南布依族苗族自治州",
            "district": "都匀市"
        }
    },
    {
        "id": "12723835347291421277",
        "title": "惠水服务区公共厕所",
        "address": "贵州省黔南布依族苗族自治州惠水县G69银百高速与惠水服务区交叉口西160米",
        "tel": "",
        "category": "基础设施:公共设施:公共厕所",
        "type": 0,
        "location": {
            "lat": 26.153542,
            "lng": 106.68784
        },
        "ad_info": {
            "adcode": 522731,
            "province": "贵州省",
            "city": "黔南布依族苗族自治州",
            "district": "惠水县"
        }
    },
    {
        "id": "16788629486012766769",
        "title": "清水江服务区第二公共厕所",
        "address": "贵州省黔南布依族苗族自治州都匀市都匀绕城高速与都香高速交叉口正北方向270米左右",
        "tel": "",
        "category": "基础设施:公共设施:公共厕所",
        "type": 0,
        "location": {
            "lat": 26.162098,
            "lng": 107.687225
        },
        "ad_info": {
            "adcode": 522701,
            "province": "贵州省",
            "city": "黔南布依族苗族自治州",
            "district": "都匀市"
        }
    },
    {
        "id": "15352800396771506914",
        "title": "紫林山停车区公共厕所",
        "address": "贵州省黔南布依族苗族自治州独山县S62余安高速与紫林山停车区交叉口西南140米",
        "tel": "",
        "category": "基础设施:公共设施:公共厕所",
        "type": 0,
        "location": {
            "lat": 25.895026,
            "lng": 107.582452
        },
        "ad_info": {
            "adcode": 522726,
            "province": "贵州省",
            "city": "黔南布依族苗族自治州",
            "district": "独山县"
        }
    },
    {
        "id": "13144487908720679936",
        "title": "长顺服务区公共厕所",
        "address": "贵州省黔南布依族苗族自治州长顺县G354与和平路交叉口西北方向1031米左右",
        "tel": "",
        "category": "基础设施:公共设施:公共厕所",
        "type": 0,
        "location": {
            "lat": 26.02792,
            "lng": 106.505188
        },
        "ad_info": {
            "adcode": 522729,
            "province": "贵州省",
            "city": "黔南布依族苗族自治州",
            "district": "长顺县"
        }
    },
    {
        "id": "9753860880200604067",
        "title": "新寨服务区公共厕所",
        "address": "贵州省黔南布依族苗族自治州独山县G75兰海高速与G75兰海高速出口交叉口东南150米",
        "tel": "",
        "category": "基础设施:公共设施:公共厕所",
        "type": 0,
        "location": {
            "lat": 25.315508,
            "lng": 107.433915
        },
        "ad_info": {
            "adcode": 522726,
            "province": "贵州省",
            "city": "黔南布依族苗族自治州",
            "district": "独山县"
        }
    },
    {
        "id": "15850006030572866887",
        "title": "三洞服务区公共厕所",
        "address": "贵州省黔南布依族苗族自治州三都水族自治县三荔高速三洞服务区",
        "tel": "",
        "category": "基础设施:公共设施:公共厕所",
        "type": 0,
        "location": {
            "lat": 25.761467,
            "lng": 107.894906
        },
        "ad_info": {
            "adcode": 522732,
            "province": "贵州省",
            "city": "黔南布依族苗族自治州",
            "district": "三都水族自治县"
        }
    },
    {
        "id": "7834681192279914395",
        "title": "新寨服务区公共厕所",
        "address": "贵州省黔南布依族苗族自治州独山县加油站与新寨服务区交叉路口西北侧",
        "tel": "",
        "category": "基础设施:公共设施:公共厕所",
        "type": 0,
        "location": {
            "lat": 25.3133,
            "lng": 107.4302
        },
        "ad_info": {
            "adcode": 522726,
            "province": "贵州省",
            "city": "黔南布依族苗族自治州",
            "district": "独山县"
        }
    },
    {
        "id": "16361962340365164759",
        "title": "紫林山停车区公共厕所",
        "address": "贵州省黔南布依族苗族自治州独山县S62余安高速与紫林山停车区交叉口西280米",
        "tel": "",
        "category": "基础设施:公共设施:公共厕所",
        "type": 0,
        "location": {
            "lat": 25.896685,
            "lng": 107.580989
        },
        "ad_info": {
            "adcode": 522726,
            "province": "贵州省",
            "city": "黔南布依族苗族自治州",
            "district": "独山县"
        }
    },
    {
        "id": "6903727306666536876",
        "title": "牟珠洞服务区第一公共厕所",
        "address": "贵州省黔南布依族苗族自治州贵定县沪昆高速",
        "tel": "",
        "category": "基础设施:公共设施:公共厕所",
        "type": 0,
        "location": {
            "lat": 26.519638,
            "lng": 107.194164
        },
        "ad_info": {
            "adcode": 522723,
            "province": "贵州省",
            "city": "黔南布依族苗族自治州",
            "district": "贵定县"
        }
    },
    {
        "id": "17780039911650520967",
        "title": "牟珠洞服务区第二公共厕所",
        "address": "贵州省黔南布依族苗族自治州贵定县牟珠洞服务区与G60沪昆高速交叉口南60米",
        "tel": "",
        "category": "基础设施:公共设施:公共厕所",
        "type": 0,
        "location": {
            "lat": 26.520619,
            "lng": 107.195145
        },
        "ad_info": {
            "adcode": 522723,
            "province": "贵州省",
            "city": "黔南布依族苗族自治州",
            "district": "贵定县"
        }
    },
    {
        "id": "12731916528976666285",
        "title": "公共厕所",
        "address": "贵州省黔南布依族苗族自治州都匀市红水河路与剑江大道南段交叉口东500米",
        "tel": "",
        "category": "基础设施:公共设施:公共厕所",
        "type": 0,
        "location": {
            "lat": 26.23978,
            "lng": 107.52098
        },
        "ad_info": {
            "adcode": 522701,
            "province": "贵州省",
            "city": "黔南布依族苗族自治州",
            "district": "都匀市"
        }
    },
    {
        "id": "12214071520728120465",
        "title": "公共厕所",
        "address": "贵州省黔南布依族苗族自治州福泉市古驿道与宏福路交叉口正西方向51米左右",
        "tel": "",
        "category": "基础设施:公共设施:公共厕所",
        "type": 0,
        "location": {
            "lat": 26.629086,
            "lng": 107.534341
        },
        "ad_info": {
            "adcode": 522702,
            "province": "贵州省",
            "city": "黔南布依族苗族自治州",
            "district": "福泉市"
        }
    },
    {
        "id": "13151439501544848740",
        "title": "公共厕所",
        "address": "贵州省黔南布依族苗族自治州三都水族自治县振兴路与深圳路交叉口西北方向70米左右",
        "tel": "",
        "category": "基础设施:公共设施:公共厕所",
        "type": 0,
        "location": {
            "lat": 25.984267,
            "lng": 107.879357
        },
        "ad_info": {
            "adcode": 522732,
            "province": "贵州省",
            "city": "黔南布依族苗族自治州",
            "district": "三都水族自治县"
        }
    },
    {
        "id": "9913617781041352078",
        "title": "公共厕所",
        "address": "贵州省黔南布依族苗族自治州荔波县盼头牛肉粉店西南侧",
        "tel": "",
        "category": "基础设施:公共设施:公共厕所",
        "type": 0,
        "location": {
            "lat": 25.311941,
            "lng": 107.793885
        },
        "ad_info": {
            "adcode": 522722,
            "province": "贵州省",
            "city": "黔南布依族苗族自治州",
            "district": "荔波县"
        }
    },
    {
        "id": "16197998289198328875",
        "title": "公共厕所",
        "address": "贵州省黔南布依族苗族自治州福泉市S205与泡卜线交叉口东南方向537米左右",
        "tel": "",
        "category": "基础设施:公共设施:公共厕所",
        "type": 0,
        "location": {
            "lat": 26.900554,
            "lng": 107.445753
        },
        "ad_info": {
            "adcode": 522702,
            "province": "贵州省",
            "city": "黔南布依族苗族自治州",
            "district": "福泉市"
        }
    },
    {
        "id": "16571937905081496797",
        "title": "公共厕所",
        "address": "贵州省黔南布依族苗族自治州荔波县民生路与梨园路交叉口北20米",
        "tel": "",
        "category": "基础设施:公共设施:公共厕所",
        "type": 0,
        "location": {
            "lat": 25.409324,
            "lng": 107.880416
        },
        "ad_info": {
            "adcode": 522722,
            "province": "贵州省",
            "city": "黔南布依族苗族自治州",
            "district": "荔波县"
        }
    },
    {
        "id": "9561662147595168600",
        "title": "公共厕所",
        "address": "贵州省黔南布依族苗族自治州都匀市剑江大道南段与独山路交叉口正北方向77米左右",
        "tel": "",
        "category": "基础设施:公共设施:公共厕所",
        "type": 0,
        "location": {
            "lat": 26.226779,
            "lng": 107.514346
        },
        "ad_info": {
            "adcode": 522701,
            "province": "贵州省",
            "city": "黔南布依族苗族自治州",
            "district": "都匀市"
        }
    },
    {
        "id": "3505780123575422293",
        "title": "公共厕所",
        "address": "贵州省黔南布依族苗族自治州惠水县S309中国石油加油站",
        "tel": "",
        "category": "基础设施:公共设施:公共厕所",
        "type": 0,
        "location": {
            "lat": 26.072126,
            "lng": 106.576759
        },
        "ad_info": {
            "adcode": 522731,
            "province": "贵州省",
            "city": "黔南布依族苗族自治州",
            "district": "惠水县"
        }
    },
    {
        "id": "11184435464022436692",
        "title": "独山紫林山国家森林公园会议中心酒店洗手间",
        "address": "贵州省黔南布依族苗族自治州独山县紫林山国家公园",
        "tel": "",
        "category": "基础设施:公共设施:公共厕所",
        "type": 0,
        "location": {
            "lat": 25.815717,
            "lng": 107.50897
        },
        "ad_info": {
            "adcode": 522726,
            "province": "贵州省",
            "city": "黔南布依族苗族自治州",
            "district": "独山县"
        }
    },
    {
        "id": "9153171797756295745",
        "title": "公共厕所",
        "address": "贵州省黔南布依族苗族自治州瓮安县G354与东街交叉口西北方向340米左右",
        "tel": "",
        "category": "基础设施:公共设施:公共厕所",
        "type": 0,
        "location": {
            "lat": 27.148066,
            "lng": 107.260579
        },
        "ad_info": {
            "adcode": 522725,
            "province": "贵州省",
            "city": "黔南布依族苗族自治州",
            "district": "瓮安县"
        }
    },
    {
        "id": "11841578391869840326",
        "title": "旅游公共厕所",
        "address": "贵州省黔南布依族苗族自治州都匀市杉木湖景区售票处西侧60米",
        "tel": "",
        "category": "基础设施:公共设施:公共厕所",
        "type": 0,
        "location": {
            "lat": 26.219949,
            "lng": 107.591349
        },
        "ad_info": {
            "adcode": 522701,
            "province": "贵州省",
            "city": "黔南布依族苗族自治州",
            "district": "都匀市"
        }
    },
    {
        "id": "8922787634064651242",
        "title": "公共厕所",
        "address": "贵州省黔南布依族苗族自治州独山县G210",
        "tel": "",
        "category": "基础设施:公共设施:公共厕所",
        "type": 0,
        "location": {
            "lat": 25.997504,
            "lng": 107.5457
        },
        "ad_info": {
            "adcode": 522726,
            "province": "贵州省",
            "city": "黔南布依族苗族自治州",
            "district": "独山县"
        }
    },
    {
        "id": "942206148975488881",
        "title": "公共厕所",
        "address": "贵州省黔南布依族苗族自治州都匀市会仙路与观澜路交叉口正北方向273米左右",
        "tel": "",
        "category": "基础设施:公共设施:公共厕所",
        "type": 0,
        "location": {
            "lat": 26.287072,
            "lng": 107.520938
        },
        "ad_info": {
            "adcode": 522701,
            "province": "贵州省",
            "city": "黔南布依族苗族自治州",
            "district": "都匀市"
        }
    },
    {
        "id": "6074165137141928679",
        "title": "公共厕所",
        "address": "贵州省黔南布依族苗族自治州平塘县Y923附近",
        "tel": "",
        "category": "基础设施:公共设施:公共厕所",
        "type": 0,
        "location": {
            "lat": 25.602482,
            "lng": 107.013563
        },
        "ad_info": {
            "adcode": 522727,
            "province": "贵州省",
            "city": "黔南布依族苗族自治州",
            "district": "平塘县"
        }
    },
    {
        "id": "8979557578378106066",
        "title": "瓮安西服务区第二公共厕所",
        "address": "贵州省黔南布依族苗族自治州瓮安县贵瓮高速附近",
        "tel": "",
        "category": "基础设施:公共设施:公共厕所",
        "type": 0,
        "location": {
            "lat": 27.070655,
            "lng": 107.352545
        },
        "ad_info": {
            "adcode": 522725,
            "province": "贵州省",
            "city": "黔南布依族苗族自治州",
            "district": "瓮安县"
        }
    },
    {
        "id": "9222743755778255851",
        "title": "公共厕所",
        "address": "贵州省黔南布依族苗族自治州独山县G210与S312交叉口正东方向361米左右",
        "tel": "",
        "category": "基础设施:公共设施:公共厕所",
        "type": 0,
        "location": {
            "lat": 25.795813,
            "lng": 107.543506
        },
        "ad_info": {
            "adcode": 522726,
            "province": "贵州省",
            "city": "黔南布依族苗族自治州",
            "district": "独山县"
        }
    },
    {
        "id": "8908795344032008515",
        "title": "公共厕所",
        "address": "贵州省黔南布依族苗族自治州长顺县G354与长征大道交叉口西北方向45米左右",
        "tel": "",
        "category": "基础设施:公共设施:公共厕所",
        "type": 0,
        "location": {
            "lat": 26.014016,
            "lng": 106.44126
        },
        "ad_info": {
            "adcode": 522729,
            "province": "贵州省",
            "city": "黔南布依族苗族自治州",
            "district": "长顺县"
        }
    },
    {
        "id": "10421954283048329088",
        "title": "通州停车区公共厕所",
        "address": "贵州省黔南布依族苗族自治州平塘县通州停车区与S62余安高速交叉口西北200米",
        "tel": "",
        "category": "基础设施:公共设施:公共厕所",
        "type": 0,
        "location": {
            "lat": 25.77214,
            "lng": 107.03994
        },
        "ad_info": {
            "adcode": 522727,
            "province": "贵州省",
            "city": "黔南布依族苗族自治州",
            "district": "平塘县"
        }
    },
    {
        "id": "16461958362169143248",
        "title": "公共厕所",
        "address": "贵州省黔南布依族苗族自治州独山县G552与中山路交叉口西北方向217米左右",
        "tel": "",
        "category": "基础设施:公共设施:公共厕所",
        "type": 0,
        "location": {
            "lat": 25.700843,
            "lng": 107.645463
        },
        "ad_info": {
            "adcode": 522726,
            "province": "贵州省",
            "city": "黔南布依族苗族自治州",
            "district": "独山县"
        }
    },
    {
        "id": "10674888045769784267",
        "title": "公共厕所",
        "address": "贵州省黔南布依族苗族自治州长顺县长兴西路与长征大道交叉口东北方向84米左右",
        "tel": "",
        "category": "基础设施:公共设施:公共厕所",
        "type": 0,
        "location": {
            "lat": 26.021734,
            "lng": 106.445481
        },
        "ad_info": {
            "adcode": 522729,
            "province": "贵州省",
            "city": "黔南布依族苗族自治州",
            "district": "长顺县"
        }
    },
    {
        "id": "16952949902479777806",
        "title": "公共厕所",
        "address": "贵州省黔南布依族苗族自治州都匀市斗篷山路与青龙路交叉口西北方向70米左右",
        "tel": "",
        "category": "基础设施:公共设施:公共厕所",
        "type": 0,
        "location": {
            "lat": 26.316245,
            "lng": 107.512845
        },
        "ad_info": {
            "adcode": 522701,
            "province": "贵州省",
            "city": "黔南布依族苗族自治州",
            "district": "都匀市"
        }
    },
    {
        "id": "4402686553641384775",
        "title": "公共厕所",
        "address": "贵州省黔南布依族苗族自治州贵定县人民路与杨柳大道交叉口正南方向89米左右",
        "tel": "",
        "category": "基础设施:公共设施:公共厕所",
        "type": 0,
        "location": {
            "lat": 26.572375,
            "lng": 107.239435
        },
        "ad_info": {
            "adcode": 522723,
            "province": "贵州省",
            "city": "黔南布依族苗族自治州",
            "district": "贵定县"
        }
    },
    {
        "id": "10137043235740041389",
        "title": "荔波服务区公共厕所",
        "address": "贵州省黔南布依族苗族自治州荔波县中国海油荔波服务区加油站南侧100米",
        "tel": "",
        "category": "基础设施:公共设施:公共厕所",
        "type": 0,
        "location": {
            "lat": 25.465576,
            "lng": 107.956738
        },
        "ad_info": {
            "adcode": 522722,
            "province": "贵州省",
            "city": "黔南布依族苗族自治州",
            "district": "荔波县"
        }
    },
    {
        "id": "5198278771490498318",
        "title": "公共厕所",
        "address": "贵州省黔南布依族苗族自治州都匀市兰溪路与绿茵路交叉口东北方向336米左右",
        "tel": "",
        "category": "基础设施:公共设施:公共厕所",
        "type": 0,
        "location": {
            "lat": 26.279078,
            "lng": 107.504322
        },
        "ad_info": {
            "adcode": 522701,
            "province": "贵州省",
            "city": "黔南布依族苗族自治州",
            "district": "都匀市"
        }
    },
    {
        "id": "3651491741968268193",
        "title": "无障碍公共厕所",
        "address": "贵州省黔南布依族苗族自治州龙里县兴龙路与环城路交叉口正西方向136米左右",
        "tel": "",
        "category": "基础设施:公共设施:公共厕所",
        "type": 0,
        "location": {
            "lat": 26.447901,
            "lng": 106.973928
        },
        "ad_info": {
            "adcode": 522730,
            "province": "贵州省",
            "city": "黔南布依族苗族自治州",
            "district": "龙里县"
        }
    },
    {
        "id": "1810039544967508572",
        "title": "公共厕所",
        "address": "贵州省黔南布依族苗族自治州长顺县X007与白云西路交叉口西北方向54米左右",
        "tel": "",
        "category": "基础设施:公共设施:公共厕所",
        "type": 0,
        "location": {
            "lat": 26.19396,
            "lng": 106.544555
        },
        "ad_info": {
            "adcode": 522729,
            "province": "贵州省",
            "city": "黔南布依族苗族自治州",
            "district": "长顺县"
        }
    },
    {
        "id": "15783769352851455285",
        "title": "福泉服务区第二公共厕所",
        "address": "贵州省黔南布依族苗族自治州福泉市S35安福高速与福泉服务区交叉口西北380米",
        "tel": "",
        "category": "基础设施:公共设施:公共厕所",
        "type": 0,
        "location": {
            "lat": 26.65362,
            "lng": 107.564397
        },
        "ad_info": {
            "adcode": 522702,
            "province": "贵州省",
            "city": "黔南布依族苗族自治州",
            "district": "福泉市"
        }
    },
    {
        "id": "584154890671142099",
        "title": "公共厕所",
        "address": "贵州省黔南布依族苗族自治州贵定县公园路与荷花路交叉口正西方向127米左右",
        "tel": "",
        "category": "基础设施:公共设施:公共厕所",
        "type": 0,
        "location": {
            "lat": 26.581189,
            "lng": 107.229054
        },
        "ad_info": {
            "adcode": 522723,
            "province": "贵州省",
            "city": "黔南布依族苗族自治州",
            "district": "贵定县"
        }
    },
    {
        "id": "13621263403710617488",
        "title": "公共厕所",
        "address": "贵州省黔南布依族苗族自治州瓮安县乌江南路与红军路交叉口正北方向39米左右",
        "tel": "",
        "category": "基础设施:公共设施:公共厕所",
        "type": 0,
        "location": {
            "lat": 27.065227,
            "lng": 107.472257
        },
        "ad_info": {
            "adcode": 522725,
            "province": "贵州省",
            "city": "黔南布依族苗族自治州",
            "district": "瓮安县"
        }
    },
    {
        "id": "16615103044033443296",
        "title": "公共厕所",
        "address": "贵州省黔南布依族苗族自治州平塘县X944与五号路交叉口正北方向161米左右",
        "tel": "",
        "category": "基础设施:公共设施:公共厕所",
        "type": 0,
        "location": {
            "lat": 25.935572,
            "lng": 106.945153
        },
        "ad_info": {
            "adcode": 522727,
            "province": "贵州省",
            "city": "黔南布依族苗族自治州",
            "district": "平塘县"
        }
    },
    {
        "id": "10200461281306832636",
        "title": "公共厕所",
        "address": "贵州省黔南布依族苗族自治州都匀市云龙大道与旗山大道南段交叉口正东方向993米左右",
        "tel": "",
        "category": "基础设施:公共设施:公共厕所",
        "type": 0,
        "location": {
            "lat": 26.160875,
            "lng": 107.612206
        },
        "ad_info": {
            "adcode": 522701,
            "province": "贵州省",
            "city": "黔南布依族苗族自治州",
            "district": "都匀市"
        }
    },
    {
        "id": "14442640162347379918",
        "title": "公共厕所",
        "address": "贵州省黔南布依族苗族自治州贵定县利民南路与利民路交叉口正北方向126米左右",
        "tel": "",
        "category": "基础设施:公共设施:公共厕所",
        "type": 0,
        "location": {
            "lat": 26.560249,
            "lng": 107.23297
        },
        "ad_info": {
            "adcode": 522723,
            "province": "贵州省",
            "city": "黔南布依族苗族自治州",
            "district": "贵定县"
        }
    },
    {
        "id": "8933034044180248742",
        "title": "旅游公共厕所",
        "address": "贵州省黔南布依族苗族自治州惠水县朝顺·公园道1号东侧100米",
        "tel": "",
        "category": "基础设施:公共设施:公共厕所",
        "type": 0,
        "location": {
            "lat": 26.139511,
            "lng": 106.670011
        },
        "ad_info": {
            "adcode": 522731,
            "province": "贵州省",
            "city": "黔南布依族苗族自治州",
            "district": "惠水县"
        }
    },
    {
        "id": "13527023786477107901",
        "title": "公共厕所",
        "address": "贵州省黔南布依族苗族自治州三都水族自治县水族风情步行街",
        "tel": "",
        "category": "基础设施:公共设施:公共厕所",
        "type": 0,
        "location": {
            "lat": 25.980991,
            "lng": 107.87256
        },
        "ad_info": {
            "adcode": 522732,
            "province": "贵州省",
            "city": "黔南布依族苗族自治州",
            "district": "三都水族自治县"
        }
    },
    {
        "id": "11063066199473662964",
        "title": "公共厕所",
        "address": "贵州省黔南布依族苗族自治州荔波县樟江东路与漳江大桥交叉口正北方向81米左右",
        "tel": "",
        "category": "基础设施:公共设施:公共厕所",
        "type": 0,
        "location": {
            "lat": 25.416697,
            "lng": 107.885611
        },
        "ad_info": {
            "adcode": 522722,
            "province": "贵州省",
            "city": "黔南布依族苗族自治州",
            "district": "荔波县"
        }
    },
    {
        "id": "8752314485247697781",
        "title": "好花红服务区公共厕所",
        "address": "贵州省黔南布依族苗族自治州惠水县G212与甲戎道班中桥交叉口正北方向1586米左右",
        "tel": "",
        "category": "基础设施:公共设施:公共厕所",
        "type": 0,
        "location": {
            "lat": 25.949178,
            "lng": 106.575473
        },
        "ad_info": {
            "adcode": 522731,
            "province": "贵州省",
            "city": "黔南布依族苗族自治州",
            "district": "惠水县"
        }
    },
    {
        "id": "12934399101538741160",
        "title": "公共厕所",
        "address": "贵州省黔南布依族苗族自治州惠水县G321与惠民路交叉口西南方向339米左右",
        "tel": "",
        "category": "基础设施:公共设施:公共厕所",
        "type": 0,
        "location": {
            "lat": 26.1215,
            "lng": 106.664329
        },
        "ad_info": {
            "adcode": 522731,
            "province": "贵州省",
            "city": "黔南布依族苗族自治州",
            "district": "惠水县"
        }
    },
    {
        "id": "6638221010268197249",
        "title": "公共厕所",
        "address": "贵州省黔南布依族苗族自治州瓮安县北关路与土产巷交叉口东南方向79米左右",
        "tel": "",
        "category": "基础设施:公共设施:公共厕所",
        "type": 0,
        "location": {
            "lat": 27.070819,
            "lng": 107.477271
        },
        "ad_info": {
            "adcode": 522725,
            "province": "贵州省",
            "city": "黔南布依族苗族自治州",
            "district": "瓮安县"
        }
    },
    {
        "id": "8630833860198298471",
        "title": "瓮安西服务区公共厕所",
        "address": "贵州省黔南布依族苗族自治州瓮安县银百高速瓮安西服务区",
        "tel": "",
        "category": "基础设施:公共设施:公共厕所",
        "type": 0,
        "location": {
            "lat": 27.071435,
            "lng": 107.355486
        },
        "ad_info": {
            "adcode": 522725,
            "province": "贵州省",
            "city": "黔南布依族苗族自治州",
            "district": "瓮安县"
        }
    },
    {
        "id": "13238982638120194130",
        "title": "公共厕所",
        "address": "贵州省黔南布依族苗族自治州三都水族自治县G243与河滨南路交叉口正南方向170米左右",
        "tel": "",
        "category": "基础设施:公共设施:公共厕所",
        "type": 0,
        "location": {
            "lat": 25.979006,
            "lng": 107.875517
        },
        "ad_info": {
            "adcode": 522732,
            "province": "贵州省",
            "city": "黔南布依族苗族自治州",
            "district": "三都水族自治县"
        }
    },
    {
        "id": "3666059674905461168",
        "title": "公共厕所",
        "address": "贵州省黔南布依族苗族自治州瓮安县乌江南路与文昌路交叉口东北方向98米左右",
        "tel": "",
        "category": "基础设施:公共设施:公共厕所",
        "type": 0,
        "location": {
            "lat": 27.055281,
            "lng": 107.469837
        },
        "ad_info": {
            "adcode": 522725,
            "province": "贵州省",
            "city": "黔南布依族苗族自治州",
            "district": "瓮安县"
        }
    },
    {
        "id": "10608747136989987753",
        "title": "公共厕所",
        "address": "贵州省黔南布依族苗族自治州瓮安县乌江南路与兴隆路交叉口正北方向65米左右",
        "tel": "",
        "category": "基础设施:公共设施:公共厕所",
        "type": 0,
        "location": {
            "lat": 27.068451,
            "lng": 107.471977
        },
        "ad_info": {
            "adcode": 522725,
            "province": "贵州省",
            "city": "黔南布依族苗族自治州",
            "district": "瓮安县"
        }
    },
    {
        "id": "9284432374915347866",
        "title": "公共厕所",
        "address": "贵州省黔南布依族苗族自治州平塘县文明路与新华路交叉口正南方向102米左右",
        "tel": "",
        "category": "基础设施:公共设施:公共厕所",
        "type": 0,
        "location": {
            "lat": 25.829662,
            "lng": 107.32025
        },
        "ad_info": {
            "adcode": 522727,
            "province": "贵州省",
            "city": "黔南布依族苗族自治州",
            "district": "平塘县"
        }
    },
    {
        "id": "9940476291107069297",
        "title": "公共厕所",
        "address": "贵州省黔南布依族苗族自治州福泉市210国道与G60沪昆高速入口交叉口西南300米",
        "tel": "",
        "category": "基础设施:公共设施:公共厕所",
        "type": 0,
        "location": {
            "lat": 26.623053,
            "lng": 107.516563
        },
        "ad_info": {
            "adcode": 522702,
            "province": "贵州省",
            "city": "黔南布依族苗族自治州",
            "district": "福泉市"
        }
    },
    {
        "id": "7231522322809284726",
        "title": "公共厕所",
        "address": "贵州省黔南布依族苗族自治州长顺县968县道北50米",
        "tel": "",
        "category": "基础设施:公共设施:公共厕所",
        "type": 0,
        "location": {
            "lat": 25.730693,
            "lng": 106.427339
        },
        "ad_info": {
            "adcode": 522729,
            "province": "贵州省",
            "city": "黔南布依族苗族自治州",
            "district": "长顺县"
        }
    },
    {
        "id": "101733995758778272",
        "title": "公共厕所",
        "address": "贵州省黔南布依族苗族自治州都匀市旗山大道中段与旗山大道北段交叉口正北方向395米左右",
        "tel": "",
        "category": "基础设施:公共设施:公共厕所",
        "type": 0,
        "location": {
            "lat": 26.240329,
            "lng": 107.588116
        },
        "ad_info": {
            "adcode": 522701,
            "province": "贵州省",
            "city": "黔南布依族苗族自治州",
            "district": "都匀市"
        }
    },
    {
        "id": "9359454948107373941",
        "title": "公共厕所",
        "address": "贵州省黔南布依族苗族自治州独山县和平路与毋敛大道交叉口正北方向101米左右",
        "tel": "",
        "category": "基础设施:公共设施:公共厕所",
        "type": 0,
        "location": {
            "lat": 25.833813,
            "lng": 107.550118
        },
        "ad_info": {
            "adcode": 522726,
            "province": "贵州省",
            "city": "黔南布依族苗族自治州",
            "district": "独山县"
        }
    },
    {
        "id": "16257140209466814333",
        "title": "公共厕所",
        "address": "贵州省黔南布依族苗族自治州平塘县瑞泽路与鑫元路交叉口正东方向68米左右",
        "tel": "",
        "category": "基础设施:公共设施:公共厕所",
        "type": 0,
        "location": {
            "lat": 25.823217,
            "lng": 107.323463
        },
        "ad_info": {
            "adcode": 522727,
            "province": "贵州省",
            "city": "黔南布依族苗族自治州",
            "district": "平塘县"
        }
    },
    {
        "id": "1232257381868460011",
        "title": "公共厕所",
        "address": "贵州省黔南布依族苗族自治州瓮安县文安路与文峰中路交叉口西南方向175米左右",
        "tel": "",
        "category": "基础设施:公共设施:公共厕所",
        "type": 0,
        "location": {
            "lat": 27.068284,
            "lng": 107.479207
        },
        "ad_info": {
            "adcode": 522725,
            "province": "贵州省",
            "city": "黔南布依族苗族自治州",
            "district": "瓮安县"
        }
    },
    {
        "id": "8250628693789444757",
        "title": "清水江服务区公共厕所",
        "address": "贵州省黔南布依族苗族自治州都匀市都匀绕城高速与都香高速交叉口正北方向319米左右",
        "tel": "",
        "category": "基础设施:公共设施:公共厕所",
        "type": 0,
        "location": {
            "lat": 26.162459,
            "lng": 107.68601
        },
        "ad_info": {
            "adcode": 522701,
            "province": "贵州省",
            "city": "黔南布依族苗族自治州",
            "district": "都匀市"
        }
    },
    {
        "id": "12371362161300147885",
        "title": "公共厕所",
        "address": "贵州省黔南布依族苗族自治州惠水县厂兴路与科技路交叉口西南方向1642米左右",
        "tel": "",
        "category": "基础设施:公共设施:公共厕所",
        "type": 0,
        "location": {
            "lat": 26.168451,
            "lng": 106.6691
        },
        "ad_info": {
            "adcode": 522731,
            "province": "贵州省",
            "city": "黔南布依族苗族自治州",
            "district": "惠水县"
        }
    },
    {
        "id": "4102119713430530003",
        "title": "公共厕所",
        "address": "贵州省黔南布依族苗族自治州罗甸县信邦三巷与信邦路交叉口正南方向17米左右",
        "tel": "",
        "category": "基础设施:公共设施:公共厕所",
        "type": 0,
        "location": {
            "lat": 25.418159,
            "lng": 106.737081
        },
        "ad_info": {
            "adcode": 522728,
            "province": "贵州省",
            "city": "黔南布依族苗族自治州",
            "district": "罗甸县"
        }
    },
    {
        "id": "2381194153127919259",
        "title": "大小井服务区公共厕所",
        "address": "贵州省黔南布依族苗族自治州罗甸县S62余安高速与大小井服务区交叉口东北360米",
        "tel": "",
        "category": "基础设施:公共设施:公共厕所",
        "type": 0,
        "location": {
            "lat": 25.500189,
            "lng": 106.808535
        },
        "ad_info": {
            "adcode": 522728,
            "province": "贵州省",
            "city": "黔南布依族苗族自治州",
            "district": "罗甸县"
        }
    },
    {
        "id": "17776859686130101512",
        "title": "公共厕所",
        "address": "贵州省黔南布依族苗族自治州都匀市斗篷山路与青龙路交叉口东南方向77米左右",
        "tel": "",
        "category": "基础设施:公共设施:公共厕所",
        "type": 0,
        "location": {
            "lat": 26.31522,
            "lng": 107.513757
        },
        "ad_info": {
            "adcode": 522701,
            "province": "贵州省",
            "city": "黔南布依族苗族自治州",
            "district": "都匀市"
        }
    },
    {
        "id": "9251229593118203192",
        "title": "公共厕所",
        "address": "贵州省黔南布依族苗族自治州都匀市G210与Y875交叉口西北方向1220米左右",
        "tel": "",
        "category": "基础设施:公共设施:公共厕所",
        "type": 0,
        "location": {
            "lat": 26.103921,
            "lng": 107.468325
        },
        "ad_info": {
            "adcode": 522701,
            "province": "贵州省",
            "city": "黔南布依族苗族自治州",
            "district": "都匀市"
        }
    },
    {
        "id": "11950139456159534608",
        "title": "公共厕所",
        "address": "贵州省黔南布依族苗族自治州都匀市匀东大道中段与青云湖大道东段交叉口西北140米",
        "tel": "",
        "category": "基础设施:公共设施:公共厕所",
        "type": 0,
        "location": {
            "lat": 26.24205,
            "lng": 107.622008
        },
        "ad_info": {
            "adcode": 522701,
            "province": "贵州省",
            "city": "黔南布依族苗族自治州",
            "district": "都匀市"
        }
    },
    {
        "id": "1145889109079079915",
        "title": "公共厕所",
        "address": "贵州省黔南布依族苗族自治州都匀市新火车站路与火车站路交叉口东北方向450米左右",
        "tel": "",
        "category": "基础设施:公共设施:公共厕所",
        "type": 0,
        "location": {
            "lat": 26.235104,
            "lng": 107.520206
        },
        "ad_info": {
            "adcode": 522701,
            "province": "贵州省",
            "city": "黔南布依族苗族自治州",
            "district": "都匀市"
        }
    },
    {
        "id": "16676409124336895730",
        "title": "公共厕所",
        "address": "贵州省黔南布依族苗族自治州都匀市中国石化都匀摆忙加油站东南侧60米",
        "tel": "",
        "category": "基础设施:公共设施:公共厕所",
        "type": 0,
        "location": {
            "lat": 26.24663,
            "lng": 107.316592
        },
        "ad_info": {
            "adcode": 522701,
            "province": "贵州省",
            "city": "黔南布依族苗族自治州",
            "district": "都匀市"
        }
    },
    {
        "id": "7183969615873375093",
        "title": "公共厕所",
        "address": "贵州省黔南布依族苗族自治州长顺县G354与长兴南路交叉口正东方向214米左右",
        "tel": "",
        "category": "基础设施:公共设施:公共厕所",
        "type": 0,
        "location": {
            "lat": 26.011547,
            "lng": 106.443252
        },
        "ad_info": {
            "adcode": 522729,
            "province": "贵州省",
            "city": "黔南布依族苗族自治州",
            "district": "长顺县"
        }
    },
    {
        "id": "11964990470931476596",
        "title": "公共厕所",
        "address": "贵州省黔南布依族苗族自治州福泉市山水北苑西南侧200米",
        "tel": "",
        "category": "基础设施:公共设施:公共厕所",
        "type": 0,
        "location": {
            "lat": 26.712395,
            "lng": 107.509751
        },
        "ad_info": {
            "adcode": 522702,
            "province": "贵州省",
            "city": "黔南布依族苗族自治州",
            "district": "福泉市"
        }
    },
    {
        "id": "16485569864971067392",
        "title": "公共厕所",
        "address": "贵州省黔南布依族苗族自治州荔波县阳光大道都市山庄",
        "tel": "",
        "category": "基础设施:公共设施:公共厕所",
        "type": 0,
        "location": {
            "lat": 25.420616,
            "lng": 107.894065
        },
        "ad_info": {
            "adcode": 522722,
            "province": "贵州省",
            "city": "黔南布依族苗族自治州",
            "district": "荔波县"
        }
    },
    {
        "id": "14762518752632039029",
        "title": "公共厕所",
        "address": "贵州省黔南布依族苗族自治州独山县沙祠路与泰康路交叉口东南方向36米左右",
        "tel": "",
        "category": "基础设施:公共设施:公共厕所",
        "type": 0,
        "location": {
            "lat": 25.467356,
            "lng": 107.430785
        },
        "ad_info": {
            "adcode": 522726,
            "province": "贵州省",
            "city": "黔南布依族苗族自治州",
            "district": "独山县"
        }
    },
    {
        "id": "2686238420243464350",
        "title": "公共厕所",
        "address": "贵州省黔南布依族苗族自治州贵定县迎宾大道与金山路交叉口正北方向253米左右",
        "tel": "",
        "category": "基础设施:公共设施:公共厕所",
        "type": 0,
        "location": {
            "lat": 26.573096,
            "lng": 107.233392
        },
        "ad_info": {
            "adcode": 522723,
            "province": "贵州省",
            "city": "黔南布依族苗族自治州",
            "district": "贵定县"
        }
    },
    {
        "id": "17330530484472843066",
        "title": "公共厕所",
        "address": "贵州省黔南布依族苗族自治州惠水县县府中路与园塘街交叉口正西方向129米左右",
        "tel": "",
        "category": "基础设施:公共设施:公共厕所",
        "type": 0,
        "location": {
            "lat": 26.132251,
            "lng": 106.656227
        },
        "ad_info": {
            "adcode": 522731,
            "province": "贵州省",
            "city": "黔南布依族苗族自治州",
            "district": "惠水县"
        }
    },
    {
        "id": "15652429001258085532",
        "title": "公共厕所",
        "address": "贵州省黔南布依族苗族自治州瓮安县建安中路与文安路交叉口东南方向184米左右",
        "tel": "",
        "category": "基础设施:公共设施:公共厕所",
        "type": 0,
        "location": {
            "lat": 27.071086,
            "lng": 107.472053
        },
        "ad_info": {
            "adcode": 522725,
            "province": "贵州省",
            "city": "黔南布依族苗族自治州",
            "district": "瓮安县"
        }
    },
    {
        "id": "4380652158491865240",
        "title": "公共厕所",
        "address": "贵州省黔南布依族苗族自治州独山县G210与土井立交桥交叉口正南方向1883米左右",
        "tel": "",
        "category": "基础设施:公共设施:公共厕所",
        "type": 0,
        "location": {
            "lat": 25.638972,
            "lng": 107.488409
        },
        "ad_info": {
            "adcode": 522726,
            "province": "贵州省",
            "city": "黔南布依族苗族自治州",
            "district": "独山县"
        }
    },
    {
        "id": "1411748173358240426",
        "title": "公共厕所",
        "address": "贵州省黔南布依族苗族自治州福泉市天顺宾馆南侧90米",
        "tel": "",
        "category": "基础设施:公共设施:公共厕所",
        "type": 0,
        "location": {
            "lat": 26.779696,
            "lng": 107.465321
        },
        "ad_info": {
            "adcode": 522702,
            "province": "贵州省",
            "city": "黔南布依族苗族自治州",
            "district": "福泉市"
        }
    },
    {
        "id": "13788530588000423403",
        "title": "公共厕所",
        "address": "贵州省黔南布依族苗族自治州福泉市王兴国农家庄园西北侧280米",
        "tel": "",
        "category": "基础设施:公共设施:公共厕所",
        "type": 0,
        "location": {
            "lat": 26.574774,
            "lng": 107.399862
        },
        "ad_info": {
            "adcode": 522702,
            "province": "贵州省",
            "city": "黔南布依族苗族自治州",
            "district": "福泉市"
        }
    },
    {
        "id": "8028280340363619245",
        "title": "罗甸停车区公共厕所",
        "address": "贵州省黔南布依族苗族自治州罗甸县惠罗高速与银百高速交叉口东北方向141米左右",
        "tel": "",
        "category": "基础设施:公共设施:公共厕所",
        "type": 0,
        "location": {
            "lat": 25.413481,
            "lng": 106.702271
        },
        "ad_info": {
            "adcode": 522728,
            "province": "贵州省",
            "city": "黔南布依族苗族自治州",
            "district": "罗甸县"
        }
    },
    {
        "id": "15493831451295381253",
        "title": "公共厕所",
        "address": "贵州省黔南布依族苗族自治州瓮安县玉山镇卫生院西北侧60米",
        "tel": "",
        "category": "基础设施:公共设施:公共厕所",
        "type": 0,
        "location": {
            "lat": 27.212743,
            "lng": 107.337792
        },
        "ad_info": {
            "adcode": 522725,
            "province": "贵州省",
            "city": "黔南布依族苗族自治州",
            "district": "瓮安县"
        }
    },
    {
        "id": "8128198037751670779",
        "title": "公共厕所",
        "address": "贵州省黔南布依族苗族自治州龙里县兴龙路与环北路交叉口东南方向244米左右",
        "tel": "",
        "category": "基础设施:公共设施:公共厕所",
        "type": 0,
        "location": {
            "lat": 26.454596,
            "lng": 106.985175
        },
        "ad_info": {
            "adcode": 522730,
            "province": "贵州省",
            "city": "黔南布依族苗族自治州",
            "district": "龙里县"
        }
    },
    {
        "id": "9603381548393666740",
        "title": "公共厕所(黔南州都匀市绿博园游客服务中心)",
        "address": "贵州省黔南布依族苗族自治州都匀市绿博园东门流动图书点旁",
        "tel": "",
        "category": "基础设施:公共设施:公共厕所",
        "type": 0,
        "location": {
            "lat": 26.266112,
            "lng": 107.560763
        },
        "ad_info": {
            "adcode": 522701,
            "province": "贵州省",
            "city": "黔南布依族苗族自治州",
            "district": "都匀市"
        }
    },
    {
        "id": "11710531207371554239",
        "title": "公共厕所",
        "address": "贵州省黔南布依族苗族自治州福泉市龙昌加油站北侧290米",
        "tel": "",
        "category": "基础设施:公共设施:公共厕所",
        "type": 0,
        "location": {
            "lat": 26.782227,
            "lng": 107.46461
        },
        "ad_info": {
            "adcode": 522702,
            "province": "贵州省",
            "city": "黔南布依族苗族自治州",
            "district": "福泉市"
        }
    },
    {
        "id": "13450554871879427698",
        "title": "云雾服务区公共厕所",
        "address": "贵州省黔南布依族苗族自治州贵定县云雾服务区北侧",
        "tel": "",
        "category": "基础设施:公共设施:公共厕所",
        "type": 0,
        "location": {
            "lat": 26.193408,
            "lng": 107.034216
        },
        "ad_info": {
            "adcode": 522723,
            "province": "贵州省",
            "city": "黔南布依族苗族自治州",
            "district": "贵定县"
        }
    },
    {
        "id": "14002982586883593199",
        "title": "排洞停车区公共厕所",
        "address": "贵州省黔南布依族苗族自治州三都水族自治县排洞停车区东北侧",
        "tel": "",
        "category": "基础设施:公共设施:公共厕所",
        "type": 0,
        "location": {
            "lat": 26.051146,
            "lng": 108.025995
        },
        "ad_info": {
            "adcode": 522732,
            "province": "贵州省",
            "city": "黔南布依族苗族自治州",
            "district": "三都水族自治县"
        }
    },
    {
        "id": "5388468421691520668",
        "title": "公共厕所",
        "address": "贵州省黔南布依族苗族自治州福泉市马场坪枢纽与210国道交叉口东北60米",
        "tel": "",
        "category": "基础设施:公共设施:公共厕所",
        "type": 0,
        "location": {
            "lat": 26.63026,
            "lng": 107.562951
        },
        "ad_info": {
            "adcode": 522702,
            "province": "贵州省",
            "city": "黔南布依族苗族自治州",
            "district": "福泉市"
        }
    },
    {
        "id": "1690619043191099714",
        "title": "龙里停车区公共厕所",
        "address": "贵州省黔南布依族苗族自治州龙里县龙里停车区南50米",
        "tel": "",
        "category": "基础设施:公共设施:公共厕所",
        "type": 0,
        "location": {
            "lat": 26.426137,
            "lng": 107.025624
        },
        "ad_info": {
            "adcode": 522730,
            "province": "贵州省",
            "city": "黔南布依族苗族自治州",
            "district": "龙里县"
        }
    },
    {
        "id": "16556661374231417450",
        "title": "龙里洗马停车区公共厕所",
        "address": "贵州省黔南布依族苗族自治州龙里县S36玉盘高速与龙里洗马停车区交叉口西360米",
        "tel": "",
        "category": "基础设施:公共设施:公共厕所",
        "type": 0,
        "location": {
            "lat": 26.701784,
            "lng": 107.127063
        },
        "ad_info": {
            "adcode": 522730,
            "province": "贵州省",
            "city": "黔南布依族苗族自治州",
            "district": "龙里县"
        }
    },
    {
        "id": "700360653456948259",
        "title": "摆塘服务区公共厕所",
        "address": "贵州省黔南布依族苗族自治州长顺县摆塘服务区北30米",
        "tel": "",
        "category": "基础设施:公共设施:公共厕所",
        "type": 0,
        "location": {
            "lat": 26.078557,
            "lng": 106.483747
        },
        "ad_info": {
            "adcode": 522729,
            "province": "贵州省",
            "city": "黔南布依族苗族自治州",
            "district": "长顺县"
        }
    },
    {
        "id": "14197068815272347456",
        "title": "京都广场公厕",
        "address": "贵州省黔南布依族苗族自治州都匀市平桥北路13号1-5号",
        "tel": "",
        "category": "基础设施:公共设施:公共厕所",
        "type": 0,
        "location": {
            "lat": 26.268228,
            "lng": 107.516028
        },
        "ad_info": {
            "adcode": 522701,
            "province": "贵州省",
            "city": "黔南布依族苗族自治州",
            "district": "都匀市"
        }
    },
    {
        "id": "16645987793887896304",
        "title": "洛邦停车区第一公共厕所",
        "address": "贵州省黔南布依族苗族自治州福泉市洛邦停车区与S42凯福高速交叉口东南260米",
        "tel": "",
        "category": "基础设施:公共设施:公共厕所",
        "type": 0,
        "location": {
            "lat": 26.63156,
            "lng": 107.719278
        },
        "ad_info": {
            "adcode": 522702,
            "province": "贵州省",
            "city": "黔南布依族苗族自治州",
            "district": "福泉市"
        }
    },
    {
        "id": "14762518752632039029",
        "title": "公共厕所",
        "address": "贵州省黔南布依族苗族自治州独山县沙祠路与泰康路交叉口东南方向36米左右",
        "tel": "",
        "category": "基础设施:公共设施:公共厕所",
        "type": 0,
        "location": {
            "lat": 25.467356,
            "lng": 107.430785
        },
        "ad_info": {
            "adcode": 522726,
            "province": "贵州省",
            "city": "黔南布依族苗族自治州",
            "district": "独山县"
        }
    },
    {
        "id": "2686238420243464350",
        "title": "公共厕所",
        "address": "贵州省黔南布依族苗族自治州贵定县迎宾大道与金山路交叉口正北方向253米左右",
        "tel": "",
        "category": "基础设施:公共设施:公共厕所",
        "type": 0,
        "location": {
            "lat": 26.573096,
            "lng": 107.233392
        },
        "ad_info": {
            "adcode": 522723,
            "province": "贵州省",
            "city": "黔南布依族苗族自治州",
            "district": "贵定县"
        }
    },
    {
        "id": "17330530484472843066",
        "title": "公共厕所",
        "address": "贵州省黔南布依族苗族自治州惠水县县府中路与园塘街交叉口正西方向129米左右",
        "tel": "",
        "category": "基础设施:公共设施:公共厕所",
        "type": 0,
        "location": {
            "lat": 26.132251,
            "lng": 106.656227
        },
        "ad_info": {
            "adcode": 522731,
            "province": "贵州省",
            "city": "黔南布依族苗族自治州",
            "district": "惠水县"
        }
    },
    {
        "id": "15652429001258085532",
        "title": "公共厕所",
        "address": "贵州省黔南布依族苗族自治州瓮安县建安中路与文安路交叉口东南方向184米左右",
        "tel": "",
        "category": "基础设施:公共设施:公共厕所",
        "type": 0,
        "location": {
            "lat": 27.071086,
            "lng": 107.472053
        },
        "ad_info": {
            "adcode": 522725,
            "province": "贵州省",
            "city": "黔南布依族苗族自治州",
            "district": "瓮安县"
        }
    },
    {
        "id": "4380652158491865240",
        "title": "公共厕所",
        "address": "贵州省黔南布依族苗族自治州独山县G210与土井立交桥交叉口正南方向1883米左右",
        "tel": "",
        "category": "基础设施:公共设施:公共厕所",
        "type": 0,
        "location": {
            "lat": 25.638972,
            "lng": 107.488409
        },
        "ad_info": {
            "adcode": 522726,
            "province": "贵州省",
            "city": "黔南布依族苗族自治州",
            "district": "独山县"
        }
    },
    {
        "id": "1411748173358240426",
        "title": "公共厕所",
        "address": "贵州省黔南布依族苗族自治州福泉市天顺宾馆南侧90米",
        "tel": "",
        "category": "基础设施:公共设施:公共厕所",
        "type": 0,
        "location": {
            "lat": 26.779696,
            "lng": 107.465321
        },
        "ad_info": {
            "adcode": 522702,
            "province": "贵州省",
            "city": "黔南布依族苗族自治州",
            "district": "福泉市"
        }
    },
    {
        "id": "13788530588000423403",
        "title": "公共厕所",
        "address": "贵州省黔南布依族苗族自治州福泉市王兴国农家庄园西北侧280米",
        "tel": "",
        "category": "基础设施:公共设施:公共厕所",
        "type": 0,
        "location": {
            "lat": 26.574774,
            "lng": 107.399862
        },
        "ad_info": {
            "adcode": 522702,
            "province": "贵州省",
            "city": "黔南布依族苗族自治州",
            "district": "福泉市"
        }
    },
    {
        "id": "8028280340363619245",
        "title": "罗甸停车区公共厕所",
        "address": "贵州省黔南布依族苗族自治州罗甸县惠罗高速与银百高速交叉口东北方向141米左右",
        "tel": "",
        "category": "基础设施:公共设施:公共厕所",
        "type": 0,
        "location": {
            "lat": 25.413481,
            "lng": 106.702271
        },
        "ad_info": {
            "adcode": 522728,
            "province": "贵州省",
            "city": "黔南布依族苗族自治州",
            "district": "罗甸县"
        }
    },
    {
        "id": "15493831451295381253",
        "title": "公共厕所",
        "address": "贵州省黔南布依族苗族自治州瓮安县玉山镇卫生院西北侧60米",
        "tel": "",
        "category": "基础设施:公共设施:公共厕所",
        "type": 0,
        "location": {
            "lat": 27.212743,
            "lng": 107.337792
        },
        "ad_info": {
            "adcode": 522725,
            "province": "贵州省",
            "city": "黔南布依族苗族自治州",
            "district": "瓮安县"
        }
    },
    {
        "id": "8128198037751670779",
        "title": "公共厕所",
        "address": "贵州省黔南布依族苗族自治州龙里县兴龙路与环北路交叉口东南方向244米左右",
        "tel": "",
        "category": "基础设施:公共设施:公共厕所",
        "type": 0,
        "location": {
            "lat": 26.454596,
            "lng": 106.985175
        },
        "ad_info": {
            "adcode": 522730,
            "province": "贵州省",
            "city": "黔南布依族苗族自治州",
            "district": "龙里县"
        }
    },
    {
        "id": "9603381548393666740",
        "title": "公共厕所(黔南州都匀市绿博园游客服务中心)",
        "address": "贵州省黔南布依族苗族自治州都匀市绿博园东门流动图书点旁",
        "tel": "",
        "category": "基础设施:公共设施:公共厕所",
        "type": 0,
        "location": {
            "lat": 26.266112,
            "lng": 107.560763
        },
        "ad_info": {
            "adcode": 522701,
            "province": "贵州省",
            "city": "黔南布依族苗族自治州",
            "district": "都匀市"
        }
    },
    {
        "id": "11710531207371554239",
        "title": "公共厕所",
        "address": "贵州省黔南布依族苗族自治州福泉市龙昌加油站北侧290米",
        "tel": "",
        "category": "基础设施:公共设施:公共厕所",
        "type": 0,
        "location": {
            "lat": 26.782227,
            "lng": 107.46461
        },
        "ad_info": {
            "adcode": 522702,
            "province": "贵州省",
            "city": "黔南布依族苗族自治州",
            "district": "福泉市"
        }
    },
    {
        "id": "13450554871879427698",
        "title": "云雾服务区公共厕所",
        "address": "贵州省黔南布依族苗族自治州贵定县云雾服务区北侧",
        "tel": "",
        "category": "基础设施:公共设施:公共厕所",
        "type": 0,
        "location": {
            "lat": 26.193408,
            "lng": 107.034216
        },
        "ad_info": {
            "adcode": 522723,
            "province": "贵州省",
            "city": "黔南布依族苗族自治州",
            "district": "贵定县"
        }
    },
    {
        "id": "14002982586883593199",
        "title": "排洞停车区公共厕所",
        "address": "贵州省黔南布依族苗族自治州三都水族自治县排洞停车区东北侧",
        "tel": "",
        "category": "基础设施:公共设施:公共厕所",
        "type": 0,
        "location": {
            "lat": 26.051146,
            "lng": 108.025995
        },
        "ad_info": {
            "adcode": 522732,
            "province": "贵州省",
            "city": "黔南布依族苗族自治州",
            "district": "三都水族自治县"
        }
    },
    {
        "id": "5388468421691520668",
        "title": "公共厕所",
        "address": "贵州省黔南布依族苗族自治州福泉市马场坪枢纽与210国道交叉口东北60米",
        "tel": "",
        "category": "基础设施:公共设施:公共厕所",
        "type": 0,
        "location": {
            "lat": 26.63026,
            "lng": 107.562951
        },
        "ad_info": {
            "adcode": 522702,
            "province": "贵州省",
            "city": "黔南布依族苗族自治州",
            "district": "福泉市"
        }
    },
    {
        "id": "1690619043191099714",
        "title": "龙里停车区公共厕所",
        "address": "贵州省黔南布依族苗族自治州龙里县龙里停车区南50米",
        "tel": "",
        "category": "基础设施:公共设施:公共厕所",
        "type": 0,
        "location": {
            "lat": 26.426137,
            "lng": 107.025624
        },
        "ad_info": {
            "adcode": 522730,
            "province": "贵州省",
            "city": "黔南布依族苗族自治州",
            "district": "龙里县"
        }
    },
    {
        "id": "16556661374231417450",
        "title": "龙里洗马停车区公共厕所",
        "address": "贵州省黔南布依族苗族自治州龙里县S36玉盘高速与龙里洗马停车区交叉口西360米",
        "tel": "",
        "category": "基础设施:公共设施:公共厕所",
        "type": 0,
        "location": {
            "lat": 26.701784,
            "lng": 107.127063
        },
        "ad_info": {
            "adcode": 522730,
            "province": "贵州省",
            "city": "黔南布依族苗族自治州",
            "district": "龙里县"
        }
    },
    {
        "id": "700360653456948259",
        "title": "摆塘服务区公共厕所",
        "address": "贵州省黔南布依族苗族自治州长顺县摆塘服务区北30米",
        "tel": "",
        "category": "基础设施:公共设施:公共厕所",
        "type": 0,
        "location": {
            "lat": 26.078557,
            "lng": 106.483747
        },
        "ad_info": {
            "adcode": 522729,
            "province": "贵州省",
            "city": "黔南布依族苗族自治州",
            "district": "长顺县"
        }
    },
    {
        "id": "14197068815272347456",
        "title": "京都广场公厕",
        "address": "贵州省黔南布依族苗族自治州都匀市平桥北路13号1-5号",
        "tel": "",
        "category": "基础设施:公共设施:公共厕所",
        "type": 0,
        "location": {
            "lat": 26.268228,
            "lng": 107.516028
        },
        "ad_info": {
            "adcode": 522701,
            "province": "贵州省",
            "city": "黔南布依族苗族自治州",
            "district": "都匀市"
        }
    },
    {
        "id": "16645987793887896304",
        "title": "洛邦停车区第一公共厕所",
        "address": "贵州省黔南布依族苗族自治州福泉市洛邦停车区与S42凯福高速交叉口东南260米",
        "tel": "",
        "category": "基础设施:公共设施:公共厕所",
        "type": 0,
        "location": {
            "lat": 26.63156,
            "lng": 107.719278
        },
        "ad_info": {
            "adcode": 522702,
            "province": "贵州省",
            "city": "黔南布依族苗族自治州",
            "district": "福泉市"
        }
    },
    {
        "id": "14762518752632039029",
        "title": "公共厕所",
        "address": "贵州省黔南布依族苗族自治州独山县沙祠路与泰康路交叉口东南方向36米左右",
        "tel": "",
        "category": "基础设施:公共设施:公共厕所",
        "type": 0,
        "location": {
            "lat": 25.467356,
            "lng": 107.430785
        },
        "ad_info": {
            "adcode": 522726,
            "province": "贵州省",
            "city": "黔南布依族苗族自治州",
            "district": "独山县"
        }
    },
    {
        "id": "2686238420243464350",
        "title": "公共厕所",
        "address": "贵州省黔南布依族苗族自治州贵定县迎宾大道与金山路交叉口正北方向253米左右",
        "tel": "",
        "category": "基础设施:公共设施:公共厕所",
        "type": 0,
        "location": {
            "lat": 26.573096,
            "lng": 107.233392
        },
        "ad_info": {
            "adcode": 522723,
            "province": "贵州省",
            "city": "黔南布依族苗族自治州",
            "district": "贵定县"
        }
    },
    {
        "id": "17330530484472843066",
        "title": "公共厕所",
        "address": "贵州省黔南布依族苗族自治州惠水县县府中路与园塘街交叉口正西方向129米左右",
        "tel": "",
        "category": "基础设施:公共设施:公共厕所",
        "type": 0,
        "location": {
            "lat": 26.132251,
            "lng": 106.656227
        },
        "ad_info": {
            "adcode": 522731,
            "province": "贵州省",
            "city": "黔南布依族苗族自治州",
            "district": "惠水县"
        }
    },
    {
        "id": "15652429001258085532",
        "title": "公共厕所",
        "address": "贵州省黔南布依族苗族自治州瓮安县建安中路与文安路交叉口东南方向184米左右",
        "tel": "",
        "category": "基础设施:公共设施:公共厕所",
        "type": 0,
        "location": {
            "lat": 27.071086,
            "lng": 107.472053
        },
        "ad_info": {
            "adcode": 522725,
            "province": "贵州省",
            "city": "黔南布依族苗族自治州",
            "district": "瓮安县"
        }
    },
    {
        "id": "4380652158491865240",
        "title": "公共厕所",
        "address": "贵州省黔南布依族苗族自治州独山县G210与土井立交桥交叉口正南方向1883米左右",
        "tel": "",
        "category": "基础设施:公共设施:公共厕所",
        "type": 0,
        "location": {
            "lat": 25.638972,
            "lng": 107.488409
        },
        "ad_info": {
            "adcode": 522726,
            "province": "贵州省",
            "city": "黔南布依族苗族自治州",
            "district": "独山县"
        }
    },
    {
        "id": "1411748173358240426",
        "title": "公共厕所",
        "address": "贵州省黔南布依族苗族自治州福泉市天顺宾馆南侧90米",
        "tel": "",
        "category": "基础设施:公共设施:公共厕所",
        "type": 0,
        "location": {
            "lat": 26.779696,
            "lng": 107.465321
        },
        "ad_info": {
            "adcode": 522702,
            "province": "贵州省",
            "city": "黔南布依族苗族自治州",
            "district": "福泉市"
        }
    },
    {
        "id": "13788530588000423403",
        "title": "公共厕所",
        "address": "贵州省黔南布依族苗族自治州福泉市王兴国农家庄园西北侧280米",
        "tel": "",
        "category": "基础设施:公共设施:公共厕所",
        "type": 0,
        "location": {
            "lat": 26.574774,
            "lng": 107.399862
        },
        "ad_info": {
            "adcode": 522702,
            "province": "贵州省",
            "city": "黔南布依族苗族自治州",
            "district": "福泉市"
        }
    },
    {
        "id": "8028280340363619245",
        "title": "罗甸停车区公共厕所",
        "address": "贵州省黔南布依族苗族自治州罗甸县惠罗高速与银百高速交叉口东北方向141米左右",
        "tel": "",
        "category": "基础设施:公共设施:公共厕所",
        "type": 0,
        "location": {
            "lat": 25.413481,
            "lng": 106.702271
        },
        "ad_info": {
            "adcode": 522728,
            "province": "贵州省",
            "city": "黔南布依族苗族自治州",
            "district": "罗甸县"
        }
    },
    {
        "id": "15493831451295381253",
        "title": "公共厕所",
        "address": "贵州省黔南布依族苗族自治州瓮安县玉山镇卫生院西北侧60米",
        "tel": "",
        "category": "基础设施:公共设施:公共厕所",
        "type": 0,
        "location": {
            "lat": 27.212743,
            "lng": 107.337792
        },
        "ad_info": {
            "adcode": 522725,
            "province": "贵州省",
            "city": "黔南布依族苗族自治州",
            "district": "瓮安县"
        }
    },
    {
        "id": "8128198037751670779",
        "title": "公共厕所",
        "address": "贵州省黔南布依族苗族自治州龙里县兴龙路与环北路交叉口东南方向244米左右",
        "tel": "",
        "category": "基础设施:公共设施:公共厕所",
        "type": 0,
        "location": {
            "lat": 26.454596,
            "lng": 106.985175
        },
        "ad_info": {
            "adcode": 522730,
            "province": "贵州省",
            "city": "黔南布依族苗族自治州",
            "district": "龙里县"
        }
    },
    {
        "id": "9603381548393666740",
        "title": "公共厕所(黔南州都匀市绿博园游客服务中心)",
        "address": "贵州省黔南布依族苗族自治州都匀市绿博园东门流动图书点旁",
        "tel": "",
        "category": "基础设施:公共设施:公共厕所",
        "type": 0,
        "location": {
            "lat": 26.266112,
            "lng": 107.560763
        },
        "ad_info": {
            "adcode": 522701,
            "province": "贵州省",
            "city": "黔南布依族苗族自治州",
            "district": "都匀市"
        }
    },
    {
        "id": "11710531207371554239",
        "title": "公共厕所",
        "address": "贵州省黔南布依族苗族自治州福泉市龙昌加油站北侧290米",
        "tel": "",
        "category": "基础设施:公共设施:公共厕所",
        "type": 0,
        "location": {
            "lat": 26.782227,
            "lng": 107.46461
        },
        "ad_info": {
            "adcode": 522702,
            "province": "贵州省",
            "city": "黔南布依族苗族自治州",
            "district": "福泉市"
        }
    },
    {
        "id": "13450554871879427698",
        "title": "云雾服务区公共厕所",
        "address": "贵州省黔南布依族苗族自治州贵定县云雾服务区北侧",
        "tel": "",
        "category": "基础设施:公共设施:公共厕所",
        "type": 0,
        "location": {
            "lat": 26.193408,
            "lng": 107.034216
        },
        "ad_info": {
            "adcode": 522723,
            "province": "贵州省",
            "city": "黔南布依族苗族自治州",
            "district": "贵定县"
        }
    },
    {
        "id": "14002982586883593199",
        "title": "排洞停车区公共厕所",
        "address": "贵州省黔南布依族苗族自治州三都水族自治县排洞停车区东北侧",
        "tel": "",
        "category": "基础设施:公共设施:公共厕所",
        "type": 0,
        "location": {
            "lat": 26.051146,
            "lng": 108.025995
        },
        "ad_info": {
            "adcode": 522732,
            "province": "贵州省",
            "city": "黔南布依族苗族自治州",
            "district": "三都水族自治县"
        }
    },
    {
        "id": "5388468421691520668",
        "title": "公共厕所",
        "address": "贵州省黔南布依族苗族自治州福泉市马场坪枢纽与210国道交叉口东北60米",
        "tel": "",
        "category": "基础设施:公共设施:公共厕所",
        "type": 0,
        "location": {
            "lat": 26.63026,
            "lng": 107.562951
        },
        "ad_info": {
            "adcode": 522702,
            "province": "贵州省",
            "city": "黔南布依族苗族自治州",
            "district": "福泉市"
        }
    },
    {
        "id": "1690619043191099714",
        "title": "龙里停车区公共厕所",
        "address": "贵州省黔南布依族苗族自治州龙里县龙里停车区南50米",
        "tel": "",
        "category": "基础设施:公共设施:公共厕所",
        "type": 0,
        "location": {
            "lat": 26.426137,
            "lng": 107.025624
        },
        "ad_info": {
            "adcode": 522730,
            "province": "贵州省",
            "city": "黔南布依族苗族自治州",
            "district": "龙里县"
        }
    },
    {
        "id": "16556661374231417450",
        "title": "龙里洗马停车区公共厕所",
        "address": "贵州省黔南布依族苗族自治州龙里县S36玉盘高速与龙里洗马停车区交叉口西360米",
        "tel": "",
        "category": "基础设施:公共设施:公共厕所",
        "type": 0,
        "location": {
            "lat": 26.701784,
            "lng": 107.127063
        },
        "ad_info": {
            "adcode": 522730,
            "province": "贵州省",
            "city": "黔南布依族苗族自治州",
            "district": "龙里县"
        }
    },
    {
        "id": "700360653456948259",
        "title": "摆塘服务区公共厕所",
        "address": "贵州省黔南布依族苗族自治州长顺县摆塘服务区北30米",
        "tel": "",
        "category": "基础设施:公共设施:公共厕所",
        "type": 0,
        "location": {
            "lat": 26.078557,
            "lng": 106.483747
        },
        "ad_info": {
            "adcode": 522729,
            "province": "贵州省",
            "city": "黔南布依族苗族自治州",
            "district": "长顺县"
        }
    },
    {
        "id": "14197068815272347456",
        "title": "京都广场公厕",
        "address": "贵州省黔南布依族苗族自治州都匀市平桥北路13号1-5号",
        "tel": "",
        "category": "基础设施:公共设施:公共厕所",
        "type": 0,
        "location": {
            "lat": 26.268228,
            "lng": 107.516028
        },
        "ad_info": {
            "adcode": 522701,
            "province": "贵州省",
            "city": "黔南布依族苗族自治州",
            "district": "都匀市"
        }
    },
    {
        "id": "16645987793887896304",
        "title": "洛邦停车区第一公共厕所",
        "address": "贵州省黔南布依族苗族自治州福泉市洛邦停车区与S42凯福高速交叉口东南260米",
        "tel": "",
        "category": "基础设施:公共设施:公共厕所",
        "type": 0,
        "location": {
            "lat": 26.63156,
            "lng": 107.719278
        },
        "ad_info": {
            "adcode": 522702,
            "province": "贵州省",
            "city": "黔南布依族苗族自治州",
            "district": "福泉市"
        }
    },
    {
        "id": "14762518752632039029",
        "title": "公共厕所",
        "address": "贵州省黔南布依族苗族自治州独山县沙祠路与泰康路交叉口东南方向36米左右",
        "tel": "",
        "category": "基础设施:公共设施:公共厕所",
        "type": 0,
        "location": {
            "lat": 25.467356,
            "lng": 107.430785
        },
        "ad_info": {
            "adcode": 522726,
            "province": "贵州省",
            "city": "黔南布依族苗族自治州",
            "district": "独山县"
        }
    },
    {
        "id": "2686238420243464350",
        "title": "公共厕所",
        "address": "贵州省黔南布依族苗族自治州贵定县迎宾大道与金山路交叉口正北方向253米左右",
        "tel": "",
        "category": "基础设施:公共设施:公共厕所",
        "type": 0,
        "location": {
            "lat": 26.573096,
            "lng": 107.233392
        },
        "ad_info": {
            "adcode": 522723,
            "province": "贵州省",
            "city": "黔南布依族苗族自治州",
            "district": "贵定县"
        }
    },
    {
        "id": "17330530484472843066",
        "title": "公共厕所",
        "address": "贵州省黔南布依族苗族自治州惠水县县府中路与园塘街交叉口正西方向129米左右",
        "tel": "",
        "category": "基础设施:公共设施:公共厕所",
        "type": 0,
        "location": {
            "lat": 26.132251,
            "lng": 106.656227
        },
        "ad_info": {
            "adcode": 522731,
            "province": "贵州省",
            "city": "黔南布依族苗族自治州",
            "district": "惠水县"
        }
    },
    {
        "id": "15652429001258085532",
        "title": "公共厕所",
        "address": "贵州省黔南布依族苗族自治州瓮安县建安中路与文安路交叉口东南方向184米左右",
        "tel": "",
        "category": "基础设施:公共设施:公共厕所",
        "type": 0,
        "location": {
            "lat": 27.071086,
            "lng": 107.472053
        },
        "ad_info": {
            "adcode": 522725,
            "province": "贵州省",
            "city": "黔南布依族苗族自治州",
            "district": "瓮安县"
        }
    },
    {
        "id": "4380652158491865240",
        "title": "公共厕所",
        "address": "贵州省黔南布依族苗族自治州独山县G210与土井立交桥交叉口正南方向1883米左右",
        "tel": "",
        "category": "基础设施:公共设施:公共厕所",
        "type": 0,
        "location": {
            "lat": 25.638972,
            "lng": 107.488409
        },
        "ad_info": {
            "adcode": 522726,
            "province": "贵州省",
            "city": "黔南布依族苗族自治州",
            "district": "独山县"
        }
    },
    {
        "id": "1411748173358240426",
        "title": "公共厕所",
        "address": "贵州省黔南布依族苗族自治州福泉市天顺宾馆南侧90米",
        "tel": "",
        "category": "基础设施:公共设施:公共厕所",
        "type": 0,
        "location": {
            "lat": 26.779696,
            "lng": 107.465321
        },
        "ad_info": {
            "adcode": 522702,
            "province": "贵州省",
            "city": "黔南布依族苗族自治州",
            "district": "福泉市"
        }
    },
    {
        "id": "13788530588000423403",
        "title": "公共厕所",
        "address": "贵州省黔南布依族苗族自治州福泉市王兴国农家庄园西北侧280米",
        "tel": "",
        "category": "基础设施:公共设施:公共厕所",
        "type": 0,
        "location": {
            "lat": 26.574774,
            "lng": 107.399862
        },
        "ad_info": {
            "adcode": 522702,
            "province": "贵州省",
            "city": "黔南布依族苗族自治州",
            "district": "福泉市"
        }
    },
    {
        "id": "8028280340363619245",
        "title": "罗甸停车区公共厕所",
        "address": "贵州省黔南布依族苗族自治州罗甸县惠罗高速与银百高速交叉口东北方向141米左右",
        "tel": "",
        "category": "基础设施:公共设施:公共厕所",
        "type": 0,
        "location": {
            "lat": 25.413481,
            "lng": 106.702271
        },
        "ad_info": {
            "adcode": 522728,
            "province": "贵州省",
            "city": "黔南布依族苗族自治州",
            "district": "罗甸县"
        }
    },
    {
        "id": "15493831451295381253",
        "title": "公共厕所",
        "address": "贵州省黔南布依族苗族自治州瓮安县玉山镇卫生院西北侧60米",
        "tel": "",
        "category": "基础设施:公共设施:公共厕所",
        "type": 0,
        "location": {
            "lat": 27.212743,
            "lng": 107.337792
        },
        "ad_info": {
            "adcode": 522725,
            "province": "贵州省",
            "city": "黔南布依族苗族自治州",
            "district": "瓮安县"
        }
    },
    {
        "id": "8128198037751670779",
        "title": "公共厕所",
        "address": "贵州省黔南布依族苗族自治州龙里县兴龙路与环北路交叉口东南方向244米左右",
        "tel": "",
        "category": "基础设施:公共设施:公共厕所",
        "type": 0,
        "location": {
            "lat": 26.454596,
            "lng": 106.985175
        },
        "ad_info": {
            "adcode": 522730,
            "province": "贵州省",
            "city": "黔南布依族苗族自治州",
            "district": "龙里县"
        }
    },
    {
        "id": "9603381548393666740",
        "title": "公共厕所(黔南州都匀市绿博园游客服务中心)",
        "address": "贵州省黔南布依族苗族自治州都匀市绿博园东门流动图书点旁",
        "tel": "",
        "category": "基础设施:公共设施:公共厕所",
        "type": 0,
        "location": {
            "lat": 26.266112,
            "lng": 107.560763
        },
        "ad_info": {
            "adcode": 522701,
            "province": "贵州省",
            "city": "黔南布依族苗族自治州",
            "district": "都匀市"
        }
    },
    {
        "id": "11710531207371554239",
        "title": "公共厕所",
        "address": "贵州省黔南布依族苗族自治州福泉市龙昌加油站北侧290米",
        "tel": "",
        "category": "基础设施:公共设施:公共厕所",
        "type": 0,
        "location": {
            "lat": 26.782227,
            "lng": 107.46461
        },
        "ad_info": {
            "adcode": 522702,
            "province": "贵州省",
            "city": "黔南布依族苗族自治州",
            "district": "福泉市"
        }
    },
    {
        "id": "13450554871879427698",
        "title": "云雾服务区公共厕所",
        "address": "贵州省黔南布依族苗族自治州贵定县云雾服务区北侧",
        "tel": "",
        "category": "基础设施:公共设施:公共厕所",
        "type": 0,
        "location": {
            "lat": 26.193408,
            "lng": 107.034216
        },
        "ad_info": {
            "adcode": 522723,
            "province": "贵州省",
            "city": "黔南布依族苗族自治州",
            "district": "贵定县"
        }
    },
    {
        "id": "14002982586883593199",
        "title": "排洞停车区公共厕所",
        "address": "贵州省黔南布依族苗族自治州三都水族自治县排洞停车区东北侧",
        "tel": "",
        "category": "基础设施:公共设施:公共厕所",
        "type": 0,
        "location": {
            "lat": 26.051146,
            "lng": 108.025995
        },
        "ad_info": {
            "adcode": 522732,
            "province": "贵州省",
            "city": "黔南布依族苗族自治州",
            "district": "三都水族自治县"
        }
    },
    {
        "id": "5388468421691520668",
        "title": "公共厕所",
        "address": "贵州省黔南布依族苗族自治州福泉市马场坪枢纽与210国道交叉口东北60米",
        "tel": "",
        "category": "基础设施:公共设施:公共厕所",
        "type": 0,
        "location": {
            "lat": 26.63026,
            "lng": 107.562951
        },
        "ad_info": {
            "adcode": 522702,
            "province": "贵州省",
            "city": "黔南布依族苗族自治州",
            "district": "福泉市"
        }
    },
    {
        "id": "1690619043191099714",
        "title": "龙里停车区公共厕所",
        "address": "贵州省黔南布依族苗族自治州龙里县龙里停车区南50米",
        "tel": "",
        "category": "基础设施:公共设施:公共厕所",
        "type": 0,
        "location": {
            "lat": 26.426137,
            "lng": 107.025624
        },
        "ad_info": {
            "adcode": 522730,
            "province": "贵州省",
            "city": "黔南布依族苗族自治州",
            "district": "龙里县"
        }
    },
    {
        "id": "16556661374231417450",
        "title": "龙里洗马停车区公共厕所",
        "address": "贵州省黔南布依族苗族自治州龙里县S36玉盘高速与龙里洗马停车区交叉口西360米",
        "tel": "",
        "category": "基础设施:公共设施:公共厕所",
        "type": 0,
        "location": {
            "lat": 26.701784,
            "lng": 107.127063
        },
        "ad_info": {
            "adcode": 522730,
            "province": "贵州省",
            "city": "黔南布依族苗族自治州",
            "district": "龙里县"
        }
    },
    {
        "id": "700360653456948259",
        "title": "摆塘服务区公共厕所",
        "address": "贵州省黔南布依族苗族自治州长顺县摆塘服务区北30米",
        "tel": "",
        "category": "基础设施:公共设施:公共厕所",
        "type": 0,
        "location": {
            "lat": 26.078557,
            "lng": 106.483747
        },
        "ad_info": {
            "adcode": 522729,
            "province": "贵州省",
            "city": "黔南布依族苗族自治州",
            "district": "长顺县"
        }
    },
    {
        "id": "14197068815272347456",
        "title": "京都广场公厕",
        "address": "贵州省黔南布依族苗族自治州都匀市平桥北路13号1-5号",
        "tel": "",
        "category": "基础设施:公共设施:公共厕所",
        "type": 0,
        "location": {
            "lat": 26.268228,
            "lng": 107.516028
        },
        "ad_info": {
            "adcode": 522701,
            "province": "贵州省",
            "city": "黔南布依族苗族自治州",
            "district": "都匀市"
        }
    },
    {
        "id": "16645987793887896304",
        "title": "洛邦停车区第一公共厕所",
        "address": "贵州省黔南布依族苗族自治州福泉市洛邦停车区与S42凯福高速交叉口东南260米",
        "tel": "",
        "category": "基础设施:公共设施:公共厕所",
        "type": 0,
        "location": {
            "lat": 26.63156,
            "lng": 107.719278
        },
        "ad_info": {
            "adcode": 522702,
            "province": "贵州省",
            "city": "黔南布依族苗族自治州",
            "district": "福泉市"
        }
    },
    {
        "id": "14762518752632039029",
        "title": "公共厕所",
        "address": "贵州省黔南布依族苗族自治州独山县沙祠路与泰康路交叉口东南方向36米左右",
        "tel": "",
        "category": "基础设施:公共设施:公共厕所",
        "type": 0,
        "location": {
            "lat": 25.467356,
            "lng": 107.430785
        },
        "ad_info": {
            "adcode": 522726,
            "province": "贵州省",
            "city": "黔南布依族苗族自治州",
            "district": "独山县"
        }
    },
    {
        "id": "2686238420243464350",
        "title": "公共厕所",
        "address": "贵州省黔南布依族苗族自治州贵定县迎宾大道与金山路交叉口正北方向253米左右",
        "tel": "",
        "category": "基础设施:公共设施:公共厕所",
        "type": 0,
        "location": {
            "lat": 26.573096,
            "lng": 107.233392
        },
        "ad_info": {
            "adcode": 522723,
            "province": "贵州省",
            "city": "黔南布依族苗族自治州",
            "district": "贵定县"
        }
    },
    {
        "id": "17330530484472843066",
        "title": "公共厕所",
        "address": "贵州省黔南布依族苗族自治州惠水县县府中路与园塘街交叉口正西方向129米左右",
        "tel": "",
        "category": "基础设施:公共设施:公共厕所",
        "type": 0,
        "location": {
            "lat": 26.132251,
            "lng": 106.656227
        },
        "ad_info": {
            "adcode": 522731,
            "province": "贵州省",
            "city": "黔南布依族苗族自治州",
            "district": "惠水县"
        }
    },
    {
        "id": "15652429001258085532",
        "title": "公共厕所",
        "address": "贵州省黔南布依族苗族自治州瓮安县建安中路与文安路交叉口东南方向184米左右",
        "tel": "",
        "category": "基础设施:公共设施:公共厕所",
        "type": 0,
        "location": {
            "lat": 27.071086,
            "lng": 107.472053
        },
        "ad_info": {
            "adcode": 522725,
            "province": "贵州省",
            "city": "黔南布依族苗族自治州",
            "district": "瓮安县"
        }
    },
    {
        "id": "4380652158491865240",
        "title": "公共厕所",
        "address": "贵州省黔南布依族苗族自治州独山县G210与土井立交桥交叉口正南方向1883米左右",
        "tel": "",
        "category": "基础设施:公共设施:公共厕所",
        "type": 0,
        "location": {
            "lat": 25.638972,
            "lng": 107.488409
        },
        "ad_info": {
            "adcode": 522726,
            "province": "贵州省",
            "city": "黔南布依族苗族自治州",
            "district": "独山县"
        }
    },
    {
        "id": "1411748173358240426",
        "title": "公共厕所",
        "address": "贵州省黔南布依族苗族自治州福泉市天顺宾馆南侧90米",
        "tel": "",
        "category": "基础设施:公共设施:公共厕所",
        "type": 0,
        "location": {
            "lat": 26.779696,
            "lng": 107.465321
        },
        "ad_info": {
            "adcode": 522702,
            "province": "贵州省",
            "city": "黔南布依族苗族自治州",
            "district": "福泉市"
        }
    },
    {
        "id": "13788530588000423403",
        "title": "公共厕所",
        "address": "贵州省黔南布依族苗族自治州福泉市王兴国农家庄园西北侧280米",
        "tel": "",
        "category": "基础设施:公共设施:公共厕所",
        "type": 0,
        "location": {
            "lat": 26.574774,
            "lng": 107.399862
        },
        "ad_info": {
            "adcode": 522702,
            "province": "贵州省",
            "city": "黔南布依族苗族自治州",
            "district": "福泉市"
        }
    },
    {
        "id": "8028280340363619245",
        "title": "罗甸停车区公共厕所",
        "address": "贵州省黔南布依族苗族自治州罗甸县惠罗高速与银百高速交叉口东北方向141米左右",
        "tel": "",
        "category": "基础设施:公共设施:公共厕所",
        "type": 0,
        "location": {
            "lat": 25.413481,
            "lng": 106.702271
        },
        "ad_info": {
            "adcode": 522728,
            "province": "贵州省",
            "city": "黔南布依族苗族自治州",
            "district": "罗甸县"
        }
    },
    {
        "id": "15493831451295381253",
        "title": "公共厕所",
        "address": "贵州省黔南布依族苗族自治州瓮安县玉山镇卫生院西北侧60米",
        "tel": "",
        "category": "基础设施:公共设施:公共厕所",
        "type": 0,
        "location": {
            "lat": 27.212743,
            "lng": 107.337792
        },
        "ad_info": {
            "adcode": 522725,
            "province": "贵州省",
            "city": "黔南布依族苗族自治州",
            "district": "瓮安县"
        }
    },
    {
        "id": "8128198037751670779",
        "title": "公共厕所",
        "address": "贵州省黔南布依族苗族自治州龙里县兴龙路与环北路交叉口东南方向244米左右",
        "tel": "",
        "category": "基础设施:公共设施:公共厕所",
        "type": 0,
        "location": {
            "lat": 26.454596,
            "lng": 106.985175
        },
        "ad_info": {
            "adcode": 522730,
            "province": "贵州省",
            "city": "黔南布依族苗族自治州",
            "district": "龙里县"
        }
    },
    {
        "id": "9603381548393666740",
        "title": "公共厕所(黔南州都匀市绿博园游客服务中心)",
        "address": "贵州省黔南布依族苗族自治州都匀市绿博园东门流动图书点旁",
        "tel": "",
        "category": "基础设施:公共设施:公共厕所",
        "type": 0,
        "location": {
            "lat": 26.266112,
            "lng": 107.560763
        },
        "ad_info": {
            "adcode": 522701,
            "province": "贵州省",
            "city": "黔南布依族苗族自治州",
            "district": "都匀市"
        }
    },
    {
        "id": "11710531207371554239",
        "title": "公共厕所",
        "address": "贵州省黔南布依族苗族自治州福泉市龙昌加油站北侧290米",
        "tel": "",
        "category": "基础设施:公共设施:公共厕所",
        "type": 0,
        "location": {
            "lat": 26.782227,
            "lng": 107.46461
        },
        "ad_info": {
            "adcode": 522702,
            "province": "贵州省",
            "city": "黔南布依族苗族自治州",
            "district": "福泉市"
        }
    },
    {
        "id": "13450554871879427698",
        "title": "云雾服务区公共厕所",
        "address": "贵州省黔南布依族苗族自治州贵定县云雾服务区北侧",
        "tel": "",
        "category": "基础设施:公共设施:公共厕所",
        "type": 0,
        "location": {
            "lat": 26.193408,
            "lng": 107.034216
        },
        "ad_info": {
            "adcode": 522723,
            "province": "贵州省",
            "city": "黔南布依族苗族自治州",
            "district": "贵定县"
        }
    },
    {
        "id": "14002982586883593199",
        "title": "排洞停车区公共厕所",
        "address": "贵州省黔南布依族苗族自治州三都水族自治县排洞停车区东北侧",
        "tel": "",
        "category": "基础设施:公共设施:公共厕所",
        "type": 0,
        "location": {
            "lat": 26.051146,
            "lng": 108.025995
        },
        "ad_info": {
            "adcode": 522732,
            "province": "贵州省",
            "city": "黔南布依族苗族自治州",
            "district": "三都水族自治县"
        }
    },
    {
        "id": "5388468421691520668",
        "title": "公共厕所",
        "address": "贵州省黔南布依族苗族自治州福泉市马场坪枢纽与210国道交叉口东北60米",
        "tel": "",
        "category": "基础设施:公共设施:公共厕所",
        "type": 0,
        "location": {
            "lat": 26.63026,
            "lng": 107.562951
        },
        "ad_info": {
            "adcode": 522702,
            "province": "贵州省",
            "city": "黔南布依族苗族自治州",
            "district": "福泉市"
        }
    },
    {
        "id": "1690619043191099714",
        "title": "龙里停车区公共厕所",
        "address": "贵州省黔南布依族苗族自治州龙里县龙里停车区南50米",
        "tel": "",
        "category": "基础设施:公共设施:公共厕所",
        "type": 0,
        "location": {
            "lat": 26.426137,
            "lng": 107.025624
        },
        "ad_info": {
            "adcode": 522730,
            "province": "贵州省",
            "city": "黔南布依族苗族自治州",
            "district": "龙里县"
        }
    },
    {
        "id": "16556661374231417450",
        "title": "龙里洗马停车区公共厕所",
        "address": "贵州省黔南布依族苗族自治州龙里县S36玉盘高速与龙里洗马停车区交叉口西360米",
        "tel": "",
        "category": "基础设施:公共设施:公共厕所",
        "type": 0,
        "location": {
            "lat": 26.701784,
            "lng": 107.127063
        },
        "ad_info": {
            "adcode": 522730,
            "province": "贵州省",
            "city": "黔南布依族苗族自治州",
            "district": "龙里县"
        }
    },
    {
        "id": "700360653456948259",
        "title": "摆塘服务区公共厕所",
        "address": "贵州省黔南布依族苗族自治州长顺县摆塘服务区北30米",
        "tel": "",
        "category": "基础设施:公共设施:公共厕所",
        "type": 0,
        "location": {
            "lat": 26.078557,
            "lng": 106.483747
        },
        "ad_info": {
            "adcode": 522729,
            "province": "贵州省",
            "city": "黔南布依族苗族自治州",
            "district": "长顺县"
        }
    },
    {
        "id": "14197068815272347456",
        "title": "京都广场公厕",
        "address": "贵州省黔南布依族苗族自治州都匀市平桥北路13号1-5号",
        "tel": "",
        "category": "基础设施:公共设施:公共厕所",
        "type": 0,
        "location": {
            "lat": 26.268228,
            "lng": 107.516028
        },
        "ad_info": {
            "adcode": 522701,
            "province": "贵州省",
            "city": "黔南布依族苗族自治州",
            "district": "都匀市"
        }
    },
    {
        "id": "16645987793887896304",
        "title": "洛邦停车区第一公共厕所",
        "address": "贵州省黔南布依族苗族自治州福泉市洛邦停车区与S42凯福高速交叉口东南260米",
        "tel": "",
        "category": "基础设施:公共设施:公共厕所",
        "type": 0,
        "location": {
            "lat": 26.63156,
            "lng": 107.719278
        },
        "ad_info": {
            "adcode": 522702,
            "province": "贵州省",
            "city": "黔南布依族苗族自治州",
            "district": "福泉市"
        }
    },
    {
        "id": "14762518752632039029",
        "title": "公共厕所",
        "address": "贵州省黔南布依族苗族自治州独山县沙祠路与泰康路交叉口东南方向36米左右",
        "tel": "",
        "category": "基础设施:公共设施:公共厕所",
        "type": 0,
        "location": {
            "lat": 25.467356,
            "lng": 107.430785
        },
        "ad_info": {
            "adcode": 522726,
            "province": "贵州省",
            "city": "黔南布依族苗族自治州",
            "district": "独山县"
        }
    },
    {
        "id": "2686238420243464350",
        "title": "公共厕所",
        "address": "贵州省黔南布依族苗族自治州贵定县迎宾大道与金山路交叉口正北方向253米左右",
        "tel": "",
        "category": "基础设施:公共设施:公共厕所",
        "type": 0,
        "location": {
            "lat": 26.573096,
            "lng": 107.233392
        },
        "ad_info": {
            "adcode": 522723,
            "province": "贵州省",
            "city": "黔南布依族苗族自治州",
            "district": "贵定县"
        }
    },
    {
        "id": "17330530484472843066",
        "title": "公共厕所",
        "address": "贵州省黔南布依族苗族自治州惠水县县府中路与园塘街交叉口正西方向129米左右",
        "tel": "",
        "category": "基础设施:公共设施:公共厕所",
        "type": 0,
        "location": {
            "lat": 26.132251,
            "lng": 106.656227
        },
        "ad_info": {
            "adcode": 522731,
            "province": "贵州省",
            "city": "黔南布依族苗族自治州",
            "district": "惠水县"
        }
    },
    {
        "id": "15652429001258085532",
        "title": "公共厕所",
        "address": "贵州省黔南布依族苗族自治州瓮安县建安中路与文安路交叉口东南方向184米左右",
        "tel": "",
        "category": "基础设施:公共设施:公共厕所",
        "type": 0,
        "location": {
            "lat": 27.071086,
            "lng": 107.472053
        },
        "ad_info": {
            "adcode": 522725,
            "province": "贵州省",
            "city": "黔南布依族苗族自治州",
            "district": "瓮安县"
        }
    },
    {
        "id": "4380652158491865240",
        "title": "公共厕所",
        "address": "贵州省黔南布依族苗族自治州独山县G210与土井立交桥交叉口正南方向1883米左右",
        "tel": "",
        "category": "基础设施:公共设施:公共厕所",
        "type": 0,
        "location": {
            "lat": 25.638972,
            "lng": 107.488409
        },
        "ad_info": {
            "adcode": 522726,
            "province": "贵州省",
            "city": "黔南布依族苗族自治州",
            "district": "独山县"
        }
    },
    {
        "id": "1411748173358240426",
        "title": "公共厕所",
        "address": "贵州省黔南布依族苗族自治州福泉市天顺宾馆南侧90米",
        "tel": "",
        "category": "基础设施:公共设施:公共厕所",
        "type": 0,
        "location": {
            "lat": 26.779696,
            "lng": 107.465321
        },
        "ad_info": {
            "adcode": 522702,
            "province": "贵州省",
            "city": "黔南布依族苗族自治州",
            "district": "福泉市"
        }
    },
    {
        "id": "13788530588000423403",
        "title": "公共厕所",
        "address": "贵州省黔南布依族苗族自治州福泉市王兴国农家庄园西北侧280米",
        "tel": "",
        "category": "基础设施:公共设施:公共厕所",
        "type": 0,
        "location": {
            "lat": 26.574774,
            "lng": 107.399862
        },
        "ad_info": {
            "adcode": 522702,
            "province": "贵州省",
            "city": "黔南布依族苗族自治州",
            "district": "福泉市"
        }
    },
    {
        "id": "8028280340363619245",
        "title": "罗甸停车区公共厕所",
        "address": "贵州省黔南布依族苗族自治州罗甸县惠罗高速与银百高速交叉口东北方向141米左右",
        "tel": "",
        "category": "基础设施:公共设施:公共厕所",
        "type": 0,
        "location": {
            "lat": 25.413481,
            "lng": 106.702271
        },
        "ad_info": {
            "adcode": 522728,
            "province": "贵州省",
            "city": "黔南布依族苗族自治州",
            "district": "罗甸县"
        }
    },
    {
        "id": "15493831451295381253",
        "title": "公共厕所",
        "address": "贵州省黔南布依族苗族自治州瓮安县玉山镇卫生院西北侧60米",
        "tel": "",
        "category": "基础设施:公共设施:公共厕所",
        "type": 0,
        "location": {
            "lat": 27.212743,
            "lng": 107.337792
        },
        "ad_info": {
            "adcode": 522725,
            "province": "贵州省",
            "city": "黔南布依族苗族自治州",
            "district": "瓮安县"
        }
    },
    {
        "id": "8128198037751670779",
        "title": "公共厕所",
        "address": "贵州省黔南布依族苗族自治州龙里县兴龙路与环北路交叉口东南方向244米左右",
        "tel": "",
        "category": "基础设施:公共设施:公共厕所",
        "type": 0,
        "location": {
            "lat": 26.454596,
            "lng": 106.985175
        },
        "ad_info": {
            "adcode": 522730,
            "province": "贵州省",
            "city": "黔南布依族苗族自治州",
            "district": "龙里县"
        }
    },
    {
        "id": "9603381548393666740",
        "title": "公共厕所(黔南州都匀市绿博园游客服务中心)",
        "address": "贵州省黔南布依族苗族自治州都匀市绿博园东门流动图书点旁",
        "tel": "",
        "category": "基础设施:公共设施:公共厕所",
        "type": 0,
        "location": {
            "lat": 26.266112,
            "lng": 107.560763
        },
        "ad_info": {
            "adcode": 522701,
            "province": "贵州省",
            "city": "黔南布依族苗族自治州",
            "district": "都匀市"
        }
    },
    {
        "id": "11710531207371554239",
        "title": "公共厕所",
        "address": "贵州省黔南布依族苗族自治州福泉市龙昌加油站北侧290米",
        "tel": "",
        "category": "基础设施:公共设施:公共厕所",
        "type": 0,
        "location": {
            "lat": 26.782227,
            "lng": 107.46461
        },
        "ad_info": {
            "adcode": 522702,
            "province": "贵州省",
            "city": "黔南布依族苗族自治州",
            "district": "福泉市"
        }
    },
    {
        "id": "13450554871879427698",
        "title": "云雾服务区公共厕所",
        "address": "贵州省黔南布依族苗族自治州贵定县云雾服务区北侧",
        "tel": "",
        "category": "基础设施:公共设施:公共厕所",
        "type": 0,
        "location": {
            "lat": 26.193408,
            "lng": 107.034216
        },
        "ad_info": {
            "adcode": 522723,
            "province": "贵州省",
            "city": "黔南布依族苗族自治州",
            "district": "贵定县"
        }
    },
    {
        "id": "14002982586883593199",
        "title": "排洞停车区公共厕所",
        "address": "贵州省黔南布依族苗族自治州三都水族自治县排洞停车区东北侧",
        "tel": "",
        "category": "基础设施:公共设施:公共厕所",
        "type": 0,
        "location": {
            "lat": 26.051146,
            "lng": 108.025995
        },
        "ad_info": {
            "adcode": 522732,
            "province": "贵州省",
            "city": "黔南布依族苗族自治州",
            "district": "三都水族自治县"
        }
    },
    {
        "id": "5388468421691520668",
        "title": "公共厕所",
        "address": "贵州省黔南布依族苗族自治州福泉市马场坪枢纽与210国道交叉口东北60米",
        "tel": "",
        "category": "基础设施:公共设施:公共厕所",
        "type": 0,
        "location": {
            "lat": 26.63026,
            "lng": 107.562951
        },
        "ad_info": {
            "adcode": 522702,
            "province": "贵州省",
            "city": "黔南布依族苗族自治州",
            "district": "福泉市"
        }
    },
    {
        "id": "1690619043191099714",
        "title": "龙里停车区公共厕所",
        "address": "贵州省黔南布依族苗族自治州龙里县龙里停车区南50米",
        "tel": "",
        "category": "基础设施:公共设施:公共厕所",
        "type": 0,
        "location": {
            "lat": 26.426137,
            "lng": 107.025624
        },
        "ad_info": {
            "adcode": 522730,
            "province": "贵州省",
            "city": "黔南布依族苗族自治州",
            "district": "龙里县"
        }
    },
    {
        "id": "16556661374231417450",
        "title": "龙里洗马停车区公共厕所",
        "address": "贵州省黔南布依族苗族自治州龙里县S36玉盘高速与龙里洗马停车区交叉口西360米",
        "tel": "",
        "category": "基础设施:公共设施:公共厕所",
        "type": 0,
        "location": {
            "lat": 26.701784,
            "lng": 107.127063
        },
        "ad_info": {
            "adcode": 522730,
            "province": "贵州省",
            "city": "黔南布依族苗族自治州",
            "district": "龙里县"
        }
    },
    {
        "id": "700360653456948259",
        "title": "摆塘服务区公共厕所",
        "address": "贵州省黔南布依族苗族自治州长顺县摆塘服务区北30米",
        "tel": "",
        "category": "基础设施:公共设施:公共厕所",
        "type": 0,
        "location": {
            "lat": 26.078557,
            "lng": 106.483747
        },
        "ad_info": {
            "adcode": 522729,
            "province": "贵州省",
            "city": "黔南布依族苗族自治州",
            "district": "长顺县"
        }
    },
    {
        "id": "14197068815272347456",
        "title": "京都广场公厕",
        "address": "贵州省黔南布依族苗族自治州都匀市平桥北路13号1-5号",
        "tel": "",
        "category": "基础设施:公共设施:公共厕所",
        "type": 0,
        "location": {
            "lat": 26.268228,
            "lng": 107.516028
        },
        "ad_info": {
            "adcode": 522701,
            "province": "贵州省",
            "city": "黔南布依族苗族自治州",
            "district": "都匀市"
        }
    },
    {
        "id": "16645987793887896304",
        "title": "洛邦停车区第一公共厕所",
        "address": "贵州省黔南布依族苗族自治州福泉市洛邦停车区与S42凯福高速交叉口东南260米",
        "tel": "",
        "category": "基础设施:公共设施:公共厕所",
        "type": 0,
        "location": {
            "lat": 26.63156,
            "lng": 107.719278
        },
        "ad_info": {
            "adcode": 522702,
            "province": "贵州省",
            "city": "黔南布依族苗族自治州",
            "district": "福泉市"
        }
    },
    {
        "id": "14762518752632039029",
        "title": "公共厕所",
        "address": "贵州省黔南布依族苗族自治州独山县沙祠路与泰康路交叉口东南方向36米左右",
        "tel": "",
        "category": "基础设施:公共设施:公共厕所",
        "type": 0,
        "location": {
            "lat": 25.467356,
            "lng": 107.430785
        },
        "ad_info": {
            "adcode": 522726,
            "province": "贵州省",
            "city": "黔南布依族苗族自治州",
            "district": "独山县"
        }
    },
    {
        "id": "2686238420243464350",
        "title": "公共厕所",
        "address": "贵州省黔南布依族苗族自治州贵定县迎宾大道与金山路交叉口正北方向253米左右",
        "tel": "",
        "category": "基础设施:公共设施:公共厕所",
        "type": 0,
        "location": {
            "lat": 26.573096,
            "lng": 107.233392
        },
        "ad_info": {
            "adcode": 522723,
            "province": "贵州省",
            "city": "黔南布依族苗族自治州",
            "district": "贵定县"
        }
    },
    {
        "id": "17330530484472843066",
        "title": "公共厕所",
        "address": "贵州省黔南布依族苗族自治州惠水县县府中路与园塘街交叉口正西方向129米左右",
        "tel": "",
        "category": "基础设施:公共设施:公共厕所",
        "type": 0,
        "location": {
            "lat": 26.132251,
            "lng": 106.656227
        },
        "ad_info": {
            "adcode": 522731,
            "province": "贵州省",
            "city": "黔南布依族苗族自治州",
            "district": "惠水县"
        }
    },
    {
        "id": "15652429001258085532",
        "title": "公共厕所",
        "address": "贵州省黔南布依族苗族自治州瓮安县建安中路与文安路交叉口东南方向184米左右",
        "tel": "",
        "category": "基础设施:公共设施:公共厕所",
        "type": 0,
        "location": {
            "lat": 27.071086,
            "lng": 107.472053
        },
        "ad_info": {
            "adcode": 522725,
            "province": "贵州省",
            "city": "黔南布依族苗族自治州",
            "district": "瓮安县"
        }
    },
    {
        "id": "4380652158491865240",
        "title": "公共厕所",
        "address": "贵州省黔南布依族苗族自治州独山县G210与土井立交桥交叉口正南方向1883米左右",
        "tel": "",
        "category": "基础设施:公共设施:公共厕所",
        "type": 0,
        "location": {
            "lat": 25.638972,
            "lng": 107.488409
        },
        "ad_info": {
            "adcode": 522726,
            "province": "贵州省",
            "city": "黔南布依族苗族自治州",
            "district": "独山县"
        }
    },
    {
        "id": "1411748173358240426",
        "title": "公共厕所",
        "address": "贵州省黔南布依族苗族自治州福泉市天顺宾馆南侧90米",
        "tel": "",
        "category": "基础设施:公共设施:公共厕所",
        "type": 0,
        "location": {
            "lat": 26.779696,
            "lng": 107.465321
        },
        "ad_info": {
            "adcode": 522702,
            "province": "贵州省",
            "city": "黔南布依族苗族自治州",
            "district": "福泉市"
        }
    },
    {
        "id": "13788530588000423403",
        "title": "公共厕所",
        "address": "贵州省黔南布依族苗族自治州福泉市王兴国农家庄园西北侧280米",
        "tel": "",
        "category": "基础设施:公共设施:公共厕所",
        "type": 0,
        "location": {
            "lat": 26.574774,
            "lng": 107.399862
        },
        "ad_info": {
            "adcode": 522702,
            "province": "贵州省",
            "city": "黔南布依族苗族自治州",
            "district": "福泉市"
        }
    },
    {
        "id": "8028280340363619245",
        "title": "罗甸停车区公共厕所",
        "address": "贵州省黔南布依族苗族自治州罗甸县惠罗高速与银百高速交叉口东北方向141米左右",
        "tel": "",
        "category": "基础设施:公共设施:公共厕所",
        "type": 0,
        "location": {
            "lat": 25.413481,
            "lng": 106.702271
        },
        "ad_info": {
            "adcode": 522728,
            "province": "贵州省",
            "city": "黔南布依族苗族自治州",
            "district": "罗甸县"
        }
    },
    {
        "id": "15493831451295381253",
        "title": "公共厕所",
        "address": "贵州省黔南布依族苗族自治州瓮安县玉山镇卫生院西北侧60米",
        "tel": "",
        "category": "基础设施:公共设施:公共厕所",
        "type": 0,
        "location": {
            "lat": 27.212743,
            "lng": 107.337792
        },
        "ad_info": {
            "adcode": 522725,
            "province": "贵州省",
            "city": "黔南布依族苗族自治州",
            "district": "瓮安县"
        }
    },
    {
        "id": "8128198037751670779",
        "title": "公共厕所",
        "address": "贵州省黔南布依族苗族自治州龙里县兴龙路与环北路交叉口东南方向244米左右",
        "tel": "",
        "category": "基础设施:公共设施:公共厕所",
        "type": 0,
        "location": {
            "lat": 26.454596,
            "lng": 106.985175
        },
        "ad_info": {
            "adcode": 522730,
            "province": "贵州省",
            "city": "黔南布依族苗族自治州",
            "district": "龙里县"
        }
    },
    {
        "id": "9603381548393666740",
        "title": "公共厕所(黔南州都匀市绿博园游客服务中心)",
        "address": "贵州省黔南布依族苗族自治州都匀市绿博园东门流动图书点旁",
        "tel": "",
        "category": "基础设施:公共设施:公共厕所",
        "type": 0,
        "location": {
            "lat": 26.266112,
            "lng": 107.560763
        },
        "ad_info": {
            "adcode": 522701,
            "province": "贵州省",
            "city": "黔南布依族苗族自治州",
            "district": "都匀市"
        }
    },
    {
        "id": "11710531207371554239",
        "title": "公共厕所",
        "address": "贵州省黔南布依族苗族自治州福泉市龙昌加油站北侧290米",
        "tel": "",
        "category": "基础设施:公共设施:公共厕所",
        "type": 0,
        "location": {
            "lat": 26.782227,
            "lng": 107.46461
        },
        "ad_info": {
            "adcode": 522702,
            "province": "贵州省",
            "city": "黔南布依族苗族自治州",
            "district": "福泉市"
        }
    },
    {
        "id": "13450554871879427698",
        "title": "云雾服务区公共厕所",
        "address": "贵州省黔南布依族苗族自治州贵定县云雾服务区北侧",
        "tel": "",
        "category": "基础设施:公共设施:公共厕所",
        "type": 0,
        "location": {
            "lat": 26.193408,
            "lng": 107.034216
        },
        "ad_info": {
            "adcode": 522723,
            "province": "贵州省",
            "city": "黔南布依族苗族自治州",
            "district": "贵定县"
        }
    },
    {
        "id": "14002982586883593199",
        "title": "排洞停车区公共厕所",
        "address": "贵州省黔南布依族苗族自治州三都水族自治县排洞停车区东北侧",
        "tel": "",
        "category": "基础设施:公共设施:公共厕所",
        "type": 0,
        "location": {
            "lat": 26.051146,
            "lng": 108.025995
        },
        "ad_info": {
            "adcode": 522732,
            "province": "贵州省",
            "city": "黔南布依族苗族自治州",
            "district": "三都水族自治县"
        }
    },
    {
        "id": "5388468421691520668",
        "title": "公共厕所",
        "address": "贵州省黔南布依族苗族自治州福泉市马场坪枢纽与210国道交叉口东北60米",
        "tel": "",
        "category": "基础设施:公共设施:公共厕所",
        "type": 0,
        "location": {
            "lat": 26.63026,
            "lng": 107.562951
        },
        "ad_info": {
            "adcode": 522702,
            "province": "贵州省",
            "city": "黔南布依族苗族自治州",
            "district": "福泉市"
        }
    },
    {
        "id": "1690619043191099714",
        "title": "龙里停车区公共厕所",
        "address": "贵州省黔南布依族苗族自治州龙里县龙里停车区南50米",
        "tel": "",
        "category": "基础设施:公共设施:公共厕所",
        "type": 0,
        "location": {
            "lat": 26.426137,
            "lng": 107.025624
        },
        "ad_info": {
            "adcode": 522730,
            "province": "贵州省",
            "city": "黔南布依族苗族自治州",
            "district": "龙里县"
        }
    },
    {
        "id": "16556661374231417450",
        "title": "龙里洗马停车区公共厕所",
        "address": "贵州省黔南布依族苗族自治州龙里县S36玉盘高速与龙里洗马停车区交叉口西360米",
        "tel": "",
        "category": "基础设施:公共设施:公共厕所",
        "type": 0,
        "location": {
            "lat": 26.701784,
            "lng": 107.127063
        },
        "ad_info": {
            "adcode": 522730,
            "province": "贵州省",
            "city": "黔南布依族苗族自治州",
            "district": "龙里县"
        }
    },
    {
        "id": "700360653456948259",
        "title": "摆塘服务区公共厕所",
        "address": "贵州省黔南布依族苗族自治州长顺县摆塘服务区北30米",
        "tel": "",
        "category": "基础设施:公共设施:公共厕所",
        "type": 0,
        "location": {
            "lat": 26.078557,
            "lng": 106.483747
        },
        "ad_info": {
            "adcode": 522729,
            "province": "贵州省",
            "city": "黔南布依族苗族自治州",
            "district": "长顺县"
        }
    },
    {
        "id": "14197068815272347456",
        "title": "京都广场公厕",
        "address": "贵州省黔南布依族苗族自治州都匀市平桥北路13号1-5号",
        "tel": "",
        "category": "基础设施:公共设施:公共厕所",
        "type": 0,
        "location": {
            "lat": 26.268228,
            "lng": 107.516028
        },
        "ad_info": {
            "adcode": 522701,
            "province": "贵州省",
            "city": "黔南布依族苗族自治州",
            "district": "都匀市"
        }
    },
    {
        "id": "16645987793887896304",
        "title": "洛邦停车区第一公共厕所",
        "address": "贵州省黔南布依族苗族自治州福泉市洛邦停车区与S42凯福高速交叉口东南260米",
        "tel": "",
        "category": "基础设施:公共设施:公共厕所",
        "type": 0,
        "location": {
            "lat": 26.63156,
            "lng": 107.719278
        },
        "ad_info": {
            "adcode": 522702,
            "province": "贵州省",
            "city": "黔南布依族苗族自治州",
            "district": "福泉市"
        }
    },
    {
        "id": "14762518752632039029",
        "title": "公共厕所",
        "address": "贵州省黔南布依族苗族自治州独山县沙祠路与泰康路交叉口东南方向36米左右",
        "tel": "",
        "category": "基础设施:公共设施:公共厕所",
        "type": 0,
        "location": {
            "lat": 25.467356,
            "lng": 107.430785
        },
        "ad_info": {
            "adcode": 522726,
            "province": "贵州省",
            "city": "黔南布依族苗族自治州",
            "district": "独山县"
        }
    },
    {
        "id": "2686238420243464350",
        "title": "公共厕所",
        "address": "贵州省黔南布依族苗族自治州贵定县迎宾大道与金山路交叉口正北方向253米左右",
        "tel": "",
        "category": "基础设施:公共设施:公共厕所",
        "type": 0,
        "location": {
            "lat": 26.573096,
            "lng": 107.233392
        },
        "ad_info": {
            "adcode": 522723,
            "province": "贵州省",
            "city": "黔南布依族苗族自治州",
            "district": "贵定县"
        }
    },
    {
        "id": "17330530484472843066",
        "title": "公共厕所",
        "address": "贵州省黔南布依族苗族自治州惠水县县府中路与园塘街交叉口正西方向129米左右",
        "tel": "",
        "category": "基础设施:公共设施:公共厕所",
        "type": 0,
        "location": {
            "lat": 26.132251,
            "lng": 106.656227
        },
        "ad_info": {
            "adcode": 522731,
            "province": "贵州省",
            "city": "黔南布依族苗族自治州",
            "district": "惠水县"
        }
    },
    {
        "id": "15652429001258085532",
        "title": "公共厕所",
        "address": "贵州省黔南布依族苗族自治州瓮安县建安中路与文安路交叉口东南方向184米左右",
        "tel": "",
        "category": "基础设施:公共设施:公共厕所",
        "type": 0,
        "location": {
            "lat": 27.071086,
            "lng": 107.472053
        },
        "ad_info": {
            "adcode": 522725,
            "province": "贵州省",
            "city": "黔南布依族苗族自治州",
            "district": "瓮安县"
        }
    },
    {
        "id": "4380652158491865240",
        "title": "公共厕所",
        "address": "贵州省黔南布依族苗族自治州独山县G210与土井立交桥交叉口正南方向1883米左右",
        "tel": "",
        "category": "基础设施:公共设施:公共厕所",
        "type": 0,
        "location": {
            "lat": 25.638972,
            "lng": 107.488409
        },
        "ad_info": {
            "adcode": 522726,
            "province": "贵州省",
            "city": "黔南布依族苗族自治州",
            "district": "独山县"
        }
    },
    {
        "id": "1411748173358240426",
        "title": "公共厕所",
        "address": "贵州省黔南布依族苗族自治州福泉市天顺宾馆南侧90米",
        "tel": "",
        "category": "基础设施:公共设施:公共厕所",
        "type": 0,
        "location": {
            "lat": 26.779696,
            "lng": 107.465321
        },
        "ad_info": {
            "adcode": 522702,
            "province": "贵州省",
            "city": "黔南布依族苗族自治州",
            "district": "福泉市"
        }
    },
    {
        "id": "13788530588000423403",
        "title": "公共厕所",
        "address": "贵州省黔南布依族苗族自治州福泉市王兴国农家庄园西北侧280米",
        "tel": "",
        "category": "基础设施:公共设施:公共厕所",
        "type": 0,
        "location": {
            "lat": 26.574774,
            "lng": 107.399862
        },
        "ad_info": {
            "adcode": 522702,
            "province": "贵州省",
            "city": "黔南布依族苗族自治州",
            "district": "福泉市"
        }
    },
    {
        "id": "8028280340363619245",
        "title": "罗甸停车区公共厕所",
        "address": "贵州省黔南布依族苗族自治州罗甸县惠罗高速与银百高速交叉口东北方向141米左右",
        "tel": "",
        "category": "基础设施:公共设施:公共厕所",
        "type": 0,
        "location": {
            "lat": 25.413481,
            "lng": 106.702271
        },
        "ad_info": {
            "adcode": 522728,
            "province": "贵州省",
            "city": "黔南布依族苗族自治州",
            "district": "罗甸县"
        }
    },
    {
        "id": "15493831451295381253",
        "title": "公共厕所",
        "address": "贵州省黔南布依族苗族自治州瓮安县玉山镇卫生院西北侧60米",
        "tel": "",
        "category": "基础设施:公共设施:公共厕所",
        "type": 0,
        "location": {
            "lat": 27.212743,
            "lng": 107.337792
        },
        "ad_info": {
            "adcode": 522725,
            "province": "贵州省",
            "city": "黔南布依族苗族自治州",
            "district": "瓮安县"
        }
    },
    {
        "id": "8128198037751670779",
        "title": "公共厕所",
        "address": "贵州省黔南布依族苗族自治州龙里县兴龙路与环北路交叉口东南方向244米左右",
        "tel": "",
        "category": "基础设施:公共设施:公共厕所",
        "type": 0,
        "location": {
            "lat": 26.454596,
            "lng": 106.985175
        },
        "ad_info": {
            "adcode": 522730,
            "province": "贵州省",
            "city": "黔南布依族苗族自治州",
            "district": "龙里县"
        }
    },
    {
        "id": "9603381548393666740",
        "title": "公共厕所(黔南州都匀市绿博园游客服务中心)",
        "address": "贵州省黔南布依族苗族自治州都匀市绿博园东门流动图书点旁",
        "tel": "",
        "category": "基础设施:公共设施:公共厕所",
        "type": 0,
        "location": {
            "lat": 26.266112,
            "lng": 107.560763
        },
        "ad_info": {
            "adcode": 522701,
            "province": "贵州省",
            "city": "黔南布依族苗族自治州",
            "district": "都匀市"
        }
    },
    {
        "id": "11710531207371554239",
        "title": "公共厕所",
        "address": "贵州省黔南布依族苗族自治州福泉市龙昌加油站北侧290米",
        "tel": "",
        "category": "基础设施:公共设施:公共厕所",
        "type": 0,
        "location": {
            "lat": 26.782227,
            "lng": 107.46461
        },
        "ad_info": {
            "adcode": 522702,
            "province": "贵州省",
            "city": "黔南布依族苗族自治州",
            "district": "福泉市"
        }
    },
    {
        "id": "13450554871879427698",
        "title": "云雾服务区公共厕所",
        "address": "贵州省黔南布依族苗族自治州贵定县云雾服务区北侧",
        "tel": "",
        "category": "基础设施:公共设施:公共厕所",
        "type": 0,
        "location": {
            "lat": 26.193408,
            "lng": 107.034216
        },
        "ad_info": {
            "adcode": 522723,
            "province": "贵州省",
            "city": "黔南布依族苗族自治州",
            "district": "贵定县"
        }
    },
    {
        "id": "14002982586883593199",
        "title": "排洞停车区公共厕所",
        "address": "贵州省黔南布依族苗族自治州三都水族自治县排洞停车区东北侧",
        "tel": "",
        "category": "基础设施:公共设施:公共厕所",
        "type": 0,
        "location": {
            "lat": 26.051146,
            "lng": 108.025995
        },
        "ad_info": {
            "adcode": 522732,
            "province": "贵州省",
            "city": "黔南布依族苗族自治州",
            "district": "三都水族自治县"
        }
    },
    {
        "id": "5388468421691520668",
        "title": "公共厕所",
        "address": "贵州省黔南布依族苗族自治州福泉市马场坪枢纽与210国道交叉口东北60米",
        "tel": "",
        "category": "基础设施:公共设施:公共厕所",
        "type": 0,
        "location": {
            "lat": 26.63026,
            "lng": 107.562951
        },
        "ad_info": {
            "adcode": 522702,
            "province": "贵州省",
            "city": "黔南布依族苗族自治州",
            "district": "福泉市"
        }
    },
    {
        "id": "1690619043191099714",
        "title": "龙里停车区公共厕所",
        "address": "贵州省黔南布依族苗族自治州龙里县龙里停车区南50米",
        "tel": "",
        "category": "基础设施:公共设施:公共厕所",
        "type": 0,
        "location": {
            "lat": 26.426137,
            "lng": 107.025624
        },
        "ad_info": {
            "adcode": 522730,
            "province": "贵州省",
            "city": "黔南布依族苗族自治州",
            "district": "龙里县"
        }
    },
    {
        "id": "16556661374231417450",
        "title": "龙里洗马停车区公共厕所",
        "address": "贵州省黔南布依族苗族自治州龙里县S36玉盘高速与龙里洗马停车区交叉口西360米",
        "tel": "",
        "category": "基础设施:公共设施:公共厕所",
        "type": 0,
        "location": {
            "lat": 26.701784,
            "lng": 107.127063
        },
        "ad_info": {
            "adcode": 522730,
            "province": "贵州省",
            "city": "黔南布依族苗族自治州",
            "district": "龙里县"
        }
    },
    {
        "id": "700360653456948259",
        "title": "摆塘服务区公共厕所",
        "address": "贵州省黔南布依族苗族自治州长顺县摆塘服务区北30米",
        "tel": "",
        "category": "基础设施:公共设施:公共厕所",
        "type": 0,
        "location": {
            "lat": 26.078557,
            "lng": 106.483747
        },
        "ad_info": {
            "adcode": 522729,
            "province": "贵州省",
            "city": "黔南布依族苗族自治州",
            "district": "长顺县"
        }
    },
    {
        "id": "14197068815272347456",
        "title": "京都广场公厕",
        "address": "贵州省黔南布依族苗族自治州都匀市平桥北路13号1-5号",
        "tel": "",
        "category": "基础设施:公共设施:公共厕所",
        "type": 0,
        "location": {
            "lat": 26.268228,
            "lng": 107.516028
        },
        "ad_info": {
            "adcode": 522701,
            "province": "贵州省",
            "city": "黔南布依族苗族自治州",
            "district": "都匀市"
        }
    },
    {
        "id": "16645987793887896304",
        "title": "洛邦停车区第一公共厕所",
        "address": "贵州省黔南布依族苗族自治州福泉市洛邦停车区与S42凯福高速交叉口东南260米",
        "tel": "",
        "category": "基础设施:公共设施:公共厕所",
        "type": 0,
        "location": {
            "lat": 26.63156,
            "lng": 107.719278
        },
        "ad_info": {
            "adcode": 522702,
            "province": "贵州省",
            "city": "黔南布依族苗族自治州",
            "district": "福泉市"
        }
    },
    {
        "id": "14762518752632039029",
        "title": "公共厕所",
        "address": "贵州省黔南布依族苗族自治州独山县沙祠路与泰康路交叉口东南方向36米左右",
        "tel": "",
        "category": "基础设施:公共设施:公共厕所",
        "type": 0,
        "location": {
            "lat": 25.467356,
            "lng": 107.430785
        },
        "ad_info": {
            "adcode": 522726,
            "province": "贵州省",
            "city": "黔南布依族苗族自治州",
            "district": "独山县"
        }
    },
    {
        "id": "2686238420243464350",
        "title": "公共厕所",
        "address": "贵州省黔南布依族苗族自治州贵定县迎宾大道与金山路交叉口正北方向253米左右",
        "tel": "",
        "category": "基础设施:公共设施:公共厕所",
        "type": 0,
        "location": {
            "lat": 26.573096,
            "lng": 107.233392
        },
        "ad_info": {
            "adcode": 522723,
            "province": "贵州省",
            "city": "黔南布依族苗族自治州",
            "district": "贵定县"
        }
    },
    {
        "id": "17330530484472843066",
        "title": "公共厕所",
        "address": "贵州省黔南布依族苗族自治州惠水县县府中路与园塘街交叉口正西方向129米左右",
        "tel": "",
        "category": "基础设施:公共设施:公共厕所",
        "type": 0,
        "location": {
            "lat": 26.132251,
            "lng": 106.656227
        },
        "ad_info": {
            "adcode": 522731,
            "province": "贵州省",
            "city": "黔南布依族苗族自治州",
            "district": "惠水县"
        }
    },
    {
        "id": "15652429001258085532",
        "title": "公共厕所",
        "address": "贵州省黔南布依族苗族自治州瓮安县建安中路与文安路交叉口东南方向184米左右",
        "tel": "",
        "category": "基础设施:公共设施:公共厕所",
        "type": 0,
        "location": {
            "lat": 27.071086,
            "lng": 107.472053
        },
        "ad_info": {
            "adcode": 522725,
            "province": "贵州省",
            "city": "黔南布依族苗族自治州",
            "district": "瓮安县"
        }
    },
    {
        "id": "4380652158491865240",
        "title": "公共厕所",
        "address": "贵州省黔南布依族苗族自治州独山县G210与土井立交桥交叉口正南方向1883米左右",
        "tel": "",
        "category": "基础设施:公共设施:公共厕所",
        "type": 0,
        "location": {
            "lat": 25.638972,
            "lng": 107.488409
        },
        "ad_info": {
            "adcode": 522726,
            "province": "贵州省",
            "city": "黔南布依族苗族自治州",
            "district": "独山县"
        }
    },
    {
        "id": "1411748173358240426",
        "title": "公共厕所",
        "address": "贵州省黔南布依族苗族自治州福泉市天顺宾馆南侧90米",
        "tel": "",
        "category": "基础设施:公共设施:公共厕所",
        "type": 0,
        "location": {
            "lat": 26.779696,
            "lng": 107.465321
        },
        "ad_info": {
            "adcode": 522702,
            "province": "贵州省",
            "city": "黔南布依族苗族自治州",
            "district": "福泉市"
        }
    },
    {
        "id": "13788530588000423403",
        "title": "公共厕所",
        "address": "贵州省黔南布依族苗族自治州福泉市王兴国农家庄园西北侧280米",
        "tel": "",
        "category": "基础设施:公共设施:公共厕所",
        "type": 0,
        "location": {
            "lat": 26.574774,
            "lng": 107.399862
        },
        "ad_info": {
            "adcode": 522702,
            "province": "贵州省",
            "city": "黔南布依族苗族自治州",
            "district": "福泉市"
        }
    },
    {
        "id": "8028280340363619245",
        "title": "罗甸停车区公共厕所",
        "address": "贵州省黔南布依族苗族自治州罗甸县惠罗高速与银百高速交叉口东北方向141米左右",
        "tel": "",
        "category": "基础设施:公共设施:公共厕所",
        "type": 0,
        "location": {
            "lat": 25.413481,
            "lng": 106.702271
        },
        "ad_info": {
            "adcode": 522728,
            "province": "贵州省",
            "city": "黔南布依族苗族自治州",
            "district": "罗甸县"
        }
    },
    {
        "id": "15493831451295381253",
        "title": "公共厕所",
        "address": "贵州省黔南布依族苗族自治州瓮安县玉山镇卫生院西北侧60米",
        "tel": "",
        "category": "基础设施:公共设施:公共厕所",
        "type": 0,
        "location": {
            "lat": 27.212743,
            "lng": 107.337792
        },
        "ad_info": {
            "adcode": 522725,
            "province": "贵州省",
            "city": "黔南布依族苗族自治州",
            "district": "瓮安县"
        }
    },
    {
        "id": "8128198037751670779",
        "title": "公共厕所",
        "address": "贵州省黔南布依族苗族自治州龙里县兴龙路与环北路交叉口东南方向244米左右",
        "tel": "",
        "category": "基础设施:公共设施:公共厕所",
        "type": 0,
        "location": {
            "lat": 26.454596,
            "lng": 106.985175
        },
        "ad_info": {
            "adcode": 522730,
            "province": "贵州省",
            "city": "黔南布依族苗族自治州",
            "district": "龙里县"
        }
    },
    {
        "id": "9603381548393666740",
        "title": "公共厕所(黔南州都匀市绿博园游客服务中心)",
        "address": "贵州省黔南布依族苗族自治州都匀市绿博园东门流动图书点旁",
        "tel": "",
        "category": "基础设施:公共设施:公共厕所",
        "type": 0,
        "location": {
            "lat": 26.266112,
            "lng": 107.560763
        },
        "ad_info": {
            "adcode": 522701,
            "province": "贵州省",
            "city": "黔南布依族苗族自治州",
            "district": "都匀市"
        }
    },
    {
        "id": "11710531207371554239",
        "title": "公共厕所",
        "address": "贵州省黔南布依族苗族自治州福泉市龙昌加油站北侧290米",
        "tel": "",
        "category": "基础设施:公共设施:公共厕所",
        "type": 0,
        "location": {
            "lat": 26.782227,
            "lng": 107.46461
        },
        "ad_info": {
            "adcode": 522702,
            "province": "贵州省",
            "city": "黔南布依族苗族自治州",
            "district": "福泉市"
        }
    },
    {
        "id": "13450554871879427698",
        "title": "云雾服务区公共厕所",
        "address": "贵州省黔南布依族苗族自治州贵定县云雾服务区北侧",
        "tel": "",
        "category": "基础设施:公共设施:公共厕所",
        "type": 0,
        "location": {
            "lat": 26.193408,
            "lng": 107.034216
        },
        "ad_info": {
            "adcode": 522723,
            "province": "贵州省",
            "city": "黔南布依族苗族自治州",
            "district": "贵定县"
        }
    },
    {
        "id": "14002982586883593199",
        "title": "排洞停车区公共厕所",
        "address": "贵州省黔南布依族苗族自治州三都水族自治县排洞停车区东北侧",
        "tel": "",
        "category": "基础设施:公共设施:公共厕所",
        "type": 0,
        "location": {
            "lat": 26.051146,
            "lng": 108.025995
        },
        "ad_info": {
            "adcode": 522732,
            "province": "贵州省",
            "city": "黔南布依族苗族自治州",
            "district": "三都水族自治县"
        }
    },
    {
        "id": "5388468421691520668",
        "title": "公共厕所",
        "address": "贵州省黔南布依族苗族自治州福泉市马场坪枢纽与210国道交叉口东北60米",
        "tel": "",
        "category": "基础设施:公共设施:公共厕所",
        "type": 0,
        "location": {
            "lat": 26.63026,
            "lng": 107.562951
        },
        "ad_info": {
            "adcode": 522702,
            "province": "贵州省",
            "city": "黔南布依族苗族自治州",
            "district": "福泉市"
        }
    },
    {
        "id": "1690619043191099714",
        "title": "龙里停车区公共厕所",
        "address": "贵州省黔南布依族苗族自治州龙里县龙里停车区南50米",
        "tel": "",
        "category": "基础设施:公共设施:公共厕所",
        "type": 0,
        "location": {
            "lat": 26.426137,
            "lng": 107.025624
        },
        "ad_info": {
            "adcode": 522730,
            "province": "贵州省",
            "city": "黔南布依族苗族自治州",
            "district": "龙里县"
        }
    },
    {
        "id": "16556661374231417450",
        "title": "龙里洗马停车区公共厕所",
        "address": "贵州省黔南布依族苗族自治州龙里县S36玉盘高速与龙里洗马停车区交叉口西360米",
        "tel": "",
        "category": "基础设施:公共设施:公共厕所",
        "type": 0,
        "location": {
            "lat": 26.701784,
            "lng": 107.127063
        },
        "ad_info": {
            "adcode": 522730,
            "province": "贵州省",
            "city": "黔南布依族苗族自治州",
            "district": "龙里县"
        }
    },
    {
        "id": "700360653456948259",
        "title": "摆塘服务区公共厕所",
        "address": "贵州省黔南布依族苗族自治州长顺县摆塘服务区北30米",
        "tel": "",
        "category": "基础设施:公共设施:公共厕所",
        "type": 0,
        "location": {
            "lat": 26.078557,
            "lng": 106.483747
        },
        "ad_info": {
            "adcode": 522729,
            "province": "贵州省",
            "city": "黔南布依族苗族自治州",
            "district": "长顺县"
        }
    },
    {
        "id": "14197068815272347456",
        "title": "京都广场公厕",
        "address": "贵州省黔南布依族苗族自治州都匀市平桥北路13号1-5号",
        "tel": "",
        "category": "基础设施:公共设施:公共厕所",
        "type": 0,
        "location": {
            "lat": 26.268228,
            "lng": 107.516028
        },
        "ad_info": {
            "adcode": 522701,
            "province": "贵州省",
            "city": "黔南布依族苗族自治州",
            "district": "都匀市"
        }
    },
    {
        "id": "16645987793887896304",
        "title": "洛邦停车区第一公共厕所",
        "address": "贵州省黔南布依族苗族自治州福泉市洛邦停车区与S42凯福高速交叉口东南260米",
        "tel": "",
        "category": "基础设施:公共设施:公共厕所",
        "type": 0,
        "location": {
            "lat": 26.63156,
            "lng": 107.719278
        },
        "ad_info": {
            "adcode": 522702,
            "province": "贵州省",
            "city": "黔南布依族苗族自治州",
            "district": "福泉市"
        }
    },
    {
        "id": "14762518752632039029",
        "title": "公共厕所",
        "address": "贵州省黔南布依族苗族自治州独山县沙祠路与泰康路交叉口东南方向36米左右",
        "tel": "",
        "category": "基础设施:公共设施:公共厕所",
        "type": 0,
        "location": {
            "lat": 25.467356,
            "lng": 107.430785
        },
        "ad_info": {
            "adcode": 522726,
            "province": "贵州省",
            "city": "黔南布依族苗族自治州",
            "district": "独山县"
        }
    },
    {
        "id": "2686238420243464350",
        "title": "公共厕所",
        "address": "贵州省黔南布依族苗族自治州贵定县迎宾大道与金山路交叉口正北方向253米左右",
        "tel": "",
        "category": "基础设施:公共设施:公共厕所",
        "type": 0,
        "location": {
            "lat": 26.573096,
            "lng": 107.233392
        },
        "ad_info": {
            "adcode": 522723,
            "province": "贵州省",
            "city": "黔南布依族苗族自治州",
            "district": "贵定县"
        }
    },
    {
        "id": "17330530484472843066",
        "title": "公共厕所",
        "address": "贵州省黔南布依族苗族自治州惠水县县府中路与园塘街交叉口正西方向129米左右",
        "tel": "",
        "category": "基础设施:公共设施:公共厕所",
        "type": 0,
        "location": {
            "lat": 26.132251,
            "lng": 106.656227
        },
        "ad_info": {
            "adcode": 522731,
            "province": "贵州省",
            "city": "黔南布依族苗族自治州",
            "district": "惠水县"
        }
    },
    {
        "id": "15652429001258085532",
        "title": "公共厕所",
        "address": "贵州省黔南布依族苗族自治州瓮安县建安中路与文安路交叉口东南方向184米左右",
        "tel": "",
        "category": "基础设施:公共设施:公共厕所",
        "type": 0,
        "location": {
            "lat": 27.071086,
            "lng": 107.472053
        },
        "ad_info": {
            "adcode": 522725,
            "province": "贵州省",
            "city": "黔南布依族苗族自治州",
            "district": "瓮安县"
        }
    },
    {
        "id": "4380652158491865240",
        "title": "公共厕所",
        "address": "贵州省黔南布依族苗族自治州独山县G210与土井立交桥交叉口正南方向1883米左右",
        "tel": "",
        "category": "基础设施:公共设施:公共厕所",
        "type": 0,
        "location": {
            "lat": 25.638972,
            "lng": 107.488409
        },
        "ad_info": {
            "adcode": 522726,
            "province": "贵州省",
            "city": "黔南布依族苗族自治州",
            "district": "独山县"
        }
    },
    {
        "id": "1411748173358240426",
        "title": "公共厕所",
        "address": "贵州省黔南布依族苗族自治州福泉市天顺宾馆南侧90米",
        "tel": "",
        "category": "基础设施:公共设施:公共厕所",
        "type": 0,
        "location": {
            "lat": 26.779696,
            "lng": 107.465321
        },
        "ad_info": {
            "adcode": 522702,
            "province": "贵州省",
            "city": "黔南布依族苗族自治州",
            "district": "福泉市"
        }
    },
    {
        "id": "13788530588000423403",
        "title": "公共厕所",
        "address": "贵州省黔南布依族苗族自治州福泉市王兴国农家庄园西北侧280米",
        "tel": "",
        "category": "基础设施:公共设施:公共厕所",
        "type": 0,
        "location": {
            "lat": 26.574774,
            "lng": 107.399862
        },
        "ad_info": {
            "adcode": 522702,
            "province": "贵州省",
            "city": "黔南布依族苗族自治州",
            "district": "福泉市"
        }
    },
    {
        "id": "8028280340363619245",
        "title": "罗甸停车区公共厕所",
        "address": "贵州省黔南布依族苗族自治州罗甸县惠罗高速与银百高速交叉口东北方向141米左右",
        "tel": "",
        "category": "基础设施:公共设施:公共厕所",
        "type": 0,
        "location": {
            "lat": 25.413481,
            "lng": 106.702271
        },
        "ad_info": {
            "adcode": 522728,
            "province": "贵州省",
            "city": "黔南布依族苗族自治州",
            "district": "罗甸县"
        }
    },
    {
        "id": "15493831451295381253",
        "title": "公共厕所",
        "address": "贵州省黔南布依族苗族自治州瓮安县玉山镇卫生院西北侧60米",
        "tel": "",
        "category": "基础设施:公共设施:公共厕所",
        "type": 0,
        "location": {
            "lat": 27.212743,
            "lng": 107.337792
        },
        "ad_info": {
            "adcode": 522725,
            "province": "贵州省",
            "city": "黔南布依族苗族自治州",
            "district": "瓮安县"
        }
    },
    {
        "id": "8128198037751670779",
        "title": "公共厕所",
        "address": "贵州省黔南布依族苗族自治州龙里县兴龙路与环北路交叉口东南方向244米左右",
        "tel": "",
        "category": "基础设施:公共设施:公共厕所",
        "type": 0,
        "location": {
            "lat": 26.454596,
            "lng": 106.985175
        },
        "ad_info": {
            "adcode": 522730,
            "province": "贵州省",
            "city": "黔南布依族苗族自治州",
            "district": "龙里县"
        }
    },
    {
        "id": "9603381548393666740",
        "title": "公共厕所(黔南州都匀市绿博园游客服务中心)",
        "address": "贵州省黔南布依族苗族自治州都匀市绿博园东门流动图书点旁",
        "tel": "",
        "category": "基础设施:公共设施:公共厕所",
        "type": 0,
        "location": {
            "lat": 26.266112,
            "lng": 107.560763
        },
        "ad_info": {
            "adcode": 522701,
            "province": "贵州省",
            "city": "黔南布依族苗族自治州",
            "district": "都匀市"
        }
    },
    {
        "id": "11710531207371554239",
        "title": "公共厕所",
        "address": "贵州省黔南布依族苗族自治州福泉市龙昌加油站北侧290米",
        "tel": "",
        "category": "基础设施:公共设施:公共厕所",
        "type": 0,
        "location": {
            "lat": 26.782227,
            "lng": 107.46461
        },
        "ad_info": {
            "adcode": 522702,
            "province": "贵州省",
            "city": "黔南布依族苗族自治州",
            "district": "福泉市"
        }
    },
    {
        "id": "13450554871879427698",
        "title": "云雾服务区公共厕所",
        "address": "贵州省黔南布依族苗族自治州贵定县云雾服务区北侧",
        "tel": "",
        "category": "基础设施:公共设施:公共厕所",
        "type": 0,
        "location": {
            "lat": 26.193408,
            "lng": 107.034216
        },
        "ad_info": {
            "adcode": 522723,
            "province": "贵州省",
            "city": "黔南布依族苗族自治州",
            "district": "贵定县"
        }
    },
    {
        "id": "14002982586883593199",
        "title": "排洞停车区公共厕所",
        "address": "贵州省黔南布依族苗族自治州三都水族自治县排洞停车区东北侧",
        "tel": "",
        "category": "基础设施:公共设施:公共厕所",
        "type": 0,
        "location": {
            "lat": 26.051146,
            "lng": 108.025995
        },
        "ad_info": {
            "adcode": 522732,
            "province": "贵州省",
            "city": "黔南布依族苗族自治州",
            "district": "三都水族自治县"
        }
    },
    {
        "id": "5388468421691520668",
        "title": "公共厕所",
        "address": "贵州省黔南布依族苗族自治州福泉市马场坪枢纽与210国道交叉口东北60米",
        "tel": "",
        "category": "基础设施:公共设施:公共厕所",
        "type": 0,
        "location": {
            "lat": 26.63026,
            "lng": 107.562951
        },
        "ad_info": {
            "adcode": 522702,
            "province": "贵州省",
            "city": "黔南布依族苗族自治州",
            "district": "福泉市"
        }
    },
    {
        "id": "1690619043191099714",
        "title": "龙里停车区公共厕所",
        "address": "贵州省黔南布依族苗族自治州龙里县龙里停车区南50米",
        "tel": "",
        "category": "基础设施:公共设施:公共厕所",
        "type": 0,
        "location": {
            "lat": 26.426137,
            "lng": 107.025624
        },
        "ad_info": {
            "adcode": 522730,
            "province": "贵州省",
            "city": "黔南布依族苗族自治州",
            "district": "龙里县"
        }
    },
    {
        "id": "16556661374231417450",
        "title": "龙里洗马停车区公共厕所",
        "address": "贵州省黔南布依族苗族自治州龙里县S36玉盘高速与龙里洗马停车区交叉口西360米",
        "tel": "",
        "category": "基础设施:公共设施:公共厕所",
        "type": 0,
        "location": {
            "lat": 26.701784,
            "lng": 107.127063
        },
        "ad_info": {
            "adcode": 522730,
            "province": "贵州省",
            "city": "黔南布依族苗族自治州",
            "district": "龙里县"
        }
    },
    {
        "id": "700360653456948259",
        "title": "摆塘服务区公共厕所",
        "address": "贵州省黔南布依族苗族自治州长顺县摆塘服务区北30米",
        "tel": "",
        "category": "基础设施:公共设施:公共厕所",
        "type": 0,
        "location": {
            "lat": 26.078557,
            "lng": 106.483747
        },
        "ad_info": {
            "adcode": 522729,
            "province": "贵州省",
            "city": "黔南布依族苗族自治州",
            "district": "长顺县"
        }
    },
    {
        "id": "14197068815272347456",
        "title": "京都广场公厕",
        "address": "贵州省黔南布依族苗族自治州都匀市平桥北路13号1-5号",
        "tel": "",
        "category": "基础设施:公共设施:公共厕所",
        "type": 0,
        "location": {
            "lat": 26.268228,
            "lng": 107.516028
        },
        "ad_info": {
            "adcode": 522701,
            "province": "贵州省",
            "city": "黔南布依族苗族自治州",
            "district": "都匀市"
        }
    },
    {
        "id": "16645987793887896304",
        "title": "洛邦停车区第一公共厕所",
        "address": "贵州省黔南布依族苗族自治州福泉市洛邦停车区与S42凯福高速交叉口东南260米",
        "tel": "",
        "category": "基础设施:公共设施:公共厕所",
        "type": 0,
        "location": {
            "lat": 26.63156,
            "lng": 107.719278
        },
        "ad_info": {
            "adcode": 522702,
            "province": "贵州省",
            "city": "黔南布依族苗族自治州",
            "district": "福泉市"
        }
    },
    {
        "id": "14762518752632039029",
        "title": "公共厕所",
        "address": "贵州省黔南布依族苗族自治州独山县沙祠路与泰康路交叉口东南方向36米左右",
        "tel": "",
        "category": "基础设施:公共设施:公共厕所",
        "type": 0,
        "location": {
            "lat": 25.467356,
            "lng": 107.430785
        },
        "ad_info": {
            "adcode": 522726,
            "province": "贵州省",
            "city": "黔南布依族苗族自治州",
            "district": "独山县"
        }
    },
    {
        "id": "2686238420243464350",
        "title": "公共厕所",
        "address": "贵州省黔南布依族苗族自治州贵定县迎宾大道与金山路交叉口正北方向253米左右",
        "tel": "",
        "category": "基础设施:公共设施:公共厕所",
        "type": 0,
        "location": {
            "lat": 26.573096,
            "lng": 107.233392
        },
        "ad_info": {
            "adcode": 522723,
            "province": "贵州省",
            "city": "黔南布依族苗族自治州",
            "district": "贵定县"
        }
    },
    {
        "id": "17330530484472843066",
        "title": "公共厕所",
        "address": "贵州省黔南布依族苗族自治州惠水县县府中路与园塘街交叉口正西方向129米左右",
        "tel": "",
        "category": "基础设施:公共设施:公共厕所",
        "type": 0,
        "location": {
            "lat": 26.132251,
            "lng": 106.656227
        },
        "ad_info": {
            "adcode": 522731,
            "province": "贵州省",
            "city": "黔南布依族苗族自治州",
            "district": "惠水县"
        }
    },
    {
        "id": "15652429001258085532",
        "title": "公共厕所",
        "address": "贵州省黔南布依族苗族自治州瓮安县建安中路与文安路交叉口东南方向184米左右",
        "tel": "",
        "category": "基础设施:公共设施:公共厕所",
        "type": 0,
        "location": {
            "lat": 27.071086,
            "lng": 107.472053
        },
        "ad_info": {
            "adcode": 522725,
            "province": "贵州省",
            "city": "黔南布依族苗族自治州",
            "district": "瓮安县"
        }
    },
    {
        "id": "4380652158491865240",
        "title": "公共厕所",
        "address": "贵州省黔南布依族苗族自治州独山县G210与土井立交桥交叉口正南方向1883米左右",
        "tel": "",
        "category": "基础设施:公共设施:公共厕所",
        "type": 0,
        "location": {
            "lat": 25.638972,
            "lng": 107.488409
        },
        "ad_info": {
            "adcode": 522726,
            "province": "贵州省",
            "city": "黔南布依族苗族自治州",
            "district": "独山县"
        }
    },
    {
        "id": "1411748173358240426",
        "title": "公共厕所",
        "address": "贵州省黔南布依族苗族自治州福泉市天顺宾馆南侧90米",
        "tel": "",
        "category": "基础设施:公共设施:公共厕所",
        "type": 0,
        "location": {
            "lat": 26.779696,
            "lng": 107.465321
        },
        "ad_info": {
            "adcode": 522702,
            "province": "贵州省",
            "city": "黔南布依族苗族自治州",
            "district": "福泉市"
        }
    },
    {
        "id": "13788530588000423403",
        "title": "公共厕所",
        "address": "贵州省黔南布依族苗族自治州福泉市王兴国农家庄园西北侧280米",
        "tel": "",
        "category": "基础设施:公共设施:公共厕所",
        "type": 0,
        "location": {
            "lat": 26.574774,
            "lng": 107.399862
        },
        "ad_info": {
            "adcode": 522702,
            "province": "贵州省",
            "city": "黔南布依族苗族自治州",
            "district": "福泉市"
        }
    },
    {
        "id": "8028280340363619245",
        "title": "罗甸停车区公共厕所",
        "address": "贵州省黔南布依族苗族自治州罗甸县惠罗高速与银百高速交叉口东北方向141米左右",
        "tel": "",
        "category": "基础设施:公共设施:公共厕所",
        "type": 0,
        "location": {
            "lat": 25.413481,
            "lng": 106.702271
        },
        "ad_info": {
            "adcode": 522728,
            "province": "贵州省",
            "city": "黔南布依族苗族自治州",
            "district": "罗甸县"
        }
    },
    {
        "id": "15493831451295381253",
        "title": "公共厕所",
        "address": "贵州省黔南布依族苗族自治州瓮安县玉山镇卫生院西北侧60米",
        "tel": "",
        "category": "基础设施:公共设施:公共厕所",
        "type": 0,
        "location": {
            "lat": 27.212743,
            "lng": 107.337792
        },
        "ad_info": {
            "adcode": 522725,
            "province": "贵州省",
            "city": "黔南布依族苗族自治州",
            "district": "瓮安县"
        }
    },
    {
        "id": "8128198037751670779",
        "title": "公共厕所",
        "address": "贵州省黔南布依族苗族自治州龙里县兴龙路与环北路交叉口东南方向244米左右",
        "tel": "",
        "category": "基础设施:公共设施:公共厕所",
        "type": 0,
        "location": {
            "lat": 26.454596,
            "lng": 106.985175
        },
        "ad_info": {
            "adcode": 522730,
            "province": "贵州省",
            "city": "黔南布依族苗族自治州",
            "district": "龙里县"
        }
    },
    {
        "id": "9603381548393666740",
        "title": "公共厕所(黔南州都匀市绿博园游客服务中心)",
        "address": "贵州省黔南布依族苗族自治州都匀市绿博园东门流动图书点旁",
        "tel": "",
        "category": "基础设施:公共设施:公共厕所",
        "type": 0,
        "location": {
            "lat": 26.266112,
            "lng": 107.560763
        },
        "ad_info": {
            "adcode": 522701,
            "province": "贵州省",
            "city": "黔南布依族苗族自治州",
            "district": "都匀市"
        }
    },
    {
        "id": "11710531207371554239",
        "title": "公共厕所",
        "address": "贵州省黔南布依族苗族自治州福泉市龙昌加油站北侧290米",
        "tel": "",
        "category": "基础设施:公共设施:公共厕所",
        "type": 0,
        "location": {
            "lat": 26.782227,
            "lng": 107.46461
        },
        "ad_info": {
            "adcode": 522702,
            "province": "贵州省",
            "city": "黔南布依族苗族自治州",
            "district": "福泉市"
        }
    },
    {
        "id": "13450554871879427698",
        "title": "云雾服务区公共厕所",
        "address": "贵州省黔南布依族苗族自治州贵定县云雾服务区北侧",
        "tel": "",
        "category": "基础设施:公共设施:公共厕所",
        "type": 0,
        "location": {
            "lat": 26.193408,
            "lng": 107.034216
        },
        "ad_info": {
            "adcode": 522723,
            "province": "贵州省",
            "city": "黔南布依族苗族自治州",
            "district": "贵定县"
        }
    },
    {
        "id": "14002982586883593199",
        "title": "排洞停车区公共厕所",
        "address": "贵州省黔南布依族苗族自治州三都水族自治县排洞停车区东北侧",
        "tel": "",
        "category": "基础设施:公共设施:公共厕所",
        "type": 0,
        "location": {
            "lat": 26.051146,
            "lng": 108.025995
        },
        "ad_info": {
            "adcode": 522732,
            "province": "贵州省",
            "city": "黔南布依族苗族自治州",
            "district": "三都水族自治县"
        }
    },
    {
        "id": "5388468421691520668",
        "title": "公共厕所",
        "address": "贵州省黔南布依族苗族自治州福泉市马场坪枢纽与210国道交叉口东北60米",
        "tel": "",
        "category": "基础设施:公共设施:公共厕所",
        "type": 0,
        "location": {
            "lat": 26.63026,
            "lng": 107.562951
        },
        "ad_info": {
            "adcode": 522702,
            "province": "贵州省",
            "city": "黔南布依族苗族自治州",
            "district": "福泉市"
        }
    },
    {
        "id": "1690619043191099714",
        "title": "龙里停车区公共厕所",
        "address": "贵州省黔南布依族苗族自治州龙里县龙里停车区南50米",
        "tel": "",
        "category": "基础设施:公共设施:公共厕所",
        "type": 0,
        "location": {
            "lat": 26.426137,
            "lng": 107.025624
        },
        "ad_info": {
            "adcode": 522730,
            "province": "贵州省",
            "city": "黔南布依族苗族自治州",
            "district": "龙里县"
        }
    },
    {
        "id": "16556661374231417450",
        "title": "龙里洗马停车区公共厕所",
        "address": "贵州省黔南布依族苗族自治州龙里县S36玉盘高速与龙里洗马停车区交叉口西360米",
        "tel": "",
        "category": "基础设施:公共设施:公共厕所",
        "type": 0,
        "location": {
            "lat": 26.701784,
            "lng": 107.127063
        },
        "ad_info": {
            "adcode": 522730,
            "province": "贵州省",
            "city": "黔南布依族苗族自治州",
            "district": "龙里县"
        }
    },
    {
        "id": "700360653456948259",
        "title": "摆塘服务区公共厕所",
        "address": "贵州省黔南布依族苗族自治州长顺县摆塘服务区北30米",
        "tel": "",
        "category": "基础设施:公共设施:公共厕所",
        "type": 0,
        "location": {
            "lat": 26.078557,
            "lng": 106.483747
        },
        "ad_info": {
            "adcode": 522729,
            "province": "贵州省",
            "city": "黔南布依族苗族自治州",
            "district": "长顺县"
        }
    },
    {
        "id": "14197068815272347456",
        "title": "京都广场公厕",
        "address": "贵州省黔南布依族苗族自治州都匀市平桥北路13号1-5号",
        "tel": "",
        "category": "基础设施:公共设施:公共厕所",
        "type": 0,
        "location": {
            "lat": 26.268228,
            "lng": 107.516028
        },
        "ad_info": {
            "adcode": 522701,
            "province": "贵州省",
            "city": "黔南布依族苗族自治州",
            "district": "都匀市"
        }
    },
    {
        "id": "16645987793887896304",
        "title": "洛邦停车区第一公共厕所",
        "address": "贵州省黔南布依族苗族自治州福泉市洛邦停车区与S42凯福高速交叉口东南260米",
        "tel": "",
        "category": "基础设施:公共设施:公共厕所",
        "type": 0,
        "location": {
            "lat": 26.63156,
            "lng": 107.719278
        },
        "ad_info": {
            "adcode": 522702,
            "province": "贵州省",
            "city": "黔南布依族苗族自治州",
            "district": "福泉市"
        }
    },
    {
        "id": "14762518752632039029",
        "title": "公共厕所",
        "address": "贵州省黔南布依族苗族自治州独山县沙祠路与泰康路交叉口东南方向36米左右",
        "tel": "",
        "category": "基础设施:公共设施:公共厕所",
        "type": 0,
        "location": {
            "lat": 25.467356,
            "lng": 107.430785
        },
        "ad_info": {
            "adcode": 522726,
            "province": "贵州省",
            "city": "黔南布依族苗族自治州",
            "district": "独山县"
        }
    },
    {
        "id": "2686238420243464350",
        "title": "公共厕所",
        "address": "贵州省黔南布依族苗族自治州贵定县迎宾大道与金山路交叉口正北方向253米左右",
        "tel": "",
        "category": "基础设施:公共设施:公共厕所",
        "type": 0,
        "location": {
            "lat": 26.573096,
            "lng": 107.233392
        },
        "ad_info": {
            "adcode": 522723,
            "province": "贵州省",
            "city": "黔南布依族苗族自治州",
            "district": "贵定县"
        }
    },
    {
        "id": "17330530484472843066",
        "title": "公共厕所",
        "address": "贵州省黔南布依族苗族自治州惠水县县府中路与园塘街交叉口正西方向129米左右",
        "tel": "",
        "category": "基础设施:公共设施:公共厕所",
        "type": 0,
        "location": {
            "lat": 26.132251,
            "lng": 106.656227
        },
        "ad_info": {
            "adcode": 522731,
            "province": "贵州省",
            "city": "黔南布依族苗族自治州",
            "district": "惠水县"
        }
    },
    {
        "id": "15652429001258085532",
        "title": "公共厕所",
        "address": "贵州省黔南布依族苗族自治州瓮安县建安中路与文安路交叉口东南方向184米左右",
        "tel": "",
        "category": "基础设施:公共设施:公共厕所",
        "type": 0,
        "location": {
            "lat": 27.071086,
            "lng": 107.472053
        },
        "ad_info": {
            "adcode": 522725,
            "province": "贵州省",
            "city": "黔南布依族苗族自治州",
            "district": "瓮安县"
        }
    },
    {
        "id": "4380652158491865240",
        "title": "公共厕所",
        "address": "贵州省黔南布依族苗族自治州独山县G210与土井立交桥交叉口正南方向1883米左右",
        "tel": "",
        "category": "基础设施:公共设施:公共厕所",
        "type": 0,
        "location": {
            "lat": 25.638972,
            "lng": 107.488409
        },
        "ad_info": {
            "adcode": 522726,
            "province": "贵州省",
            "city": "黔南布依族苗族自治州",
            "district": "独山县"
        }
    },
    {
        "id": "1411748173358240426",
        "title": "公共厕所",
        "address": "贵州省黔南布依族苗族自治州福泉市天顺宾馆南侧90米",
        "tel": "",
        "category": "基础设施:公共设施:公共厕所",
        "type": 0,
        "location": {
            "lat": 26.779696,
            "lng": 107.465321
        },
        "ad_info": {
            "adcode": 522702,
            "province": "贵州省",
            "city": "黔南布依族苗族自治州",
            "district": "福泉市"
        }
    },
    {
        "id": "13788530588000423403",
        "title": "公共厕所",
        "address": "贵州省黔南布依族苗族自治州福泉市王兴国农家庄园西北侧280米",
        "tel": "",
        "category": "基础设施:公共设施:公共厕所",
        "type": 0,
        "location": {
            "lat": 26.574774,
            "lng": 107.399862
        },
        "ad_info": {
            "adcode": 522702,
            "province": "贵州省",
            "city": "黔南布依族苗族自治州",
            "district": "福泉市"
        }
    },
    {
        "id": "8028280340363619245",
        "title": "罗甸停车区公共厕所",
        "address": "贵州省黔南布依族苗族自治州罗甸县惠罗高速与银百高速交叉口东北方向141米左右",
        "tel": "",
        "category": "基础设施:公共设施:公共厕所",
        "type": 0,
        "location": {
            "lat": 25.413481,
            "lng": 106.702271
        },
        "ad_info": {
            "adcode": 522728,
            "province": "贵州省",
            "city": "黔南布依族苗族自治州",
            "district": "罗甸县"
        }
    },
    {
        "id": "15493831451295381253",
        "title": "公共厕所",
        "address": "贵州省黔南布依族苗族自治州瓮安县玉山镇卫生院西北侧60米",
        "tel": "",
        "category": "基础设施:公共设施:公共厕所",
        "type": 0,
        "location": {
            "lat": 27.212743,
            "lng": 107.337792
        },
        "ad_info": {
            "adcode": 522725,
            "province": "贵州省",
            "city": "黔南布依族苗族自治州",
            "district": "瓮安县"
        }
    },
    {
        "id": "8128198037751670779",
        "title": "公共厕所",
        "address": "贵州省黔南布依族苗族自治州龙里县兴龙路与环北路交叉口东南方向244米左右",
        "tel": "",
        "category": "基础设施:公共设施:公共厕所",
        "type": 0,
        "location": {
            "lat": 26.454596,
            "lng": 106.985175
        },
        "ad_info": {
            "adcode": 522730,
            "province": "贵州省",
            "city": "黔南布依族苗族自治州",
            "district": "龙里县"
        }
    },
    {
        "id": "9603381548393666740",
        "title": "公共厕所(黔南州都匀市绿博园游客服务中心)",
        "address": "贵州省黔南布依族苗族自治州都匀市绿博园东门流动图书点旁",
        "tel": "",
        "category": "基础设施:公共设施:公共厕所",
        "type": 0,
        "location": {
            "lat": 26.266112,
            "lng": 107.560763
        },
        "ad_info": {
            "adcode": 522701,
            "province": "贵州省",
            "city": "黔南布依族苗族自治州",
            "district": "都匀市"
        }
    },
    {
        "id": "11710531207371554239",
        "title": "公共厕所",
        "address": "贵州省黔南布依族苗族自治州福泉市龙昌加油站北侧290米",
        "tel": "",
        "category": "基础设施:公共设施:公共厕所",
        "type": 0,
        "location": {
            "lat": 26.782227,
            "lng": 107.46461
        },
        "ad_info": {
            "adcode": 522702,
            "province": "贵州省",
            "city": "黔南布依族苗族自治州",
            "district": "福泉市"
        }
    },
    {
        "id": "13450554871879427698",
        "title": "云雾服务区公共厕所",
        "address": "贵州省黔南布依族苗族自治州贵定县云雾服务区北侧",
        "tel": "",
        "category": "基础设施:公共设施:公共厕所",
        "type": 0,
        "location": {
            "lat": 26.193408,
            "lng": 107.034216
        },
        "ad_info": {
            "adcode": 522723,
            "province": "贵州省",
            "city": "黔南布依族苗族自治州",
            "district": "贵定县"
        }
    },
    {
        "id": "14002982586883593199",
        "title": "排洞停车区公共厕所",
        "address": "贵州省黔南布依族苗族自治州三都水族自治县排洞停车区东北侧",
        "tel": "",
        "category": "基础设施:公共设施:公共厕所",
        "type": 0,
        "location": {
            "lat": 26.051146,
            "lng": 108.025995
        },
        "ad_info": {
            "adcode": 522732,
            "province": "贵州省",
            "city": "黔南布依族苗族自治州",
            "district": "三都水族自治县"
        }
    },
    {
        "id": "5388468421691520668",
        "title": "公共厕所",
        "address": "贵州省黔南布依族苗族自治州福泉市马场坪枢纽与210国道交叉口东北60米",
        "tel": "",
        "category": "基础设施:公共设施:公共厕所",
        "type": 0,
        "location": {
            "lat": 26.63026,
            "lng": 107.562951
        },
        "ad_info": {
            "adcode": 522702,
            "province": "贵州省",
            "city": "黔南布依族苗族自治州",
            "district": "福泉市"
        }
    },
    {
        "id": "1690619043191099714",
        "title": "龙里停车区公共厕所",
        "address": "贵州省黔南布依族苗族自治州龙里县龙里停车区南50米",
        "tel": "",
        "category": "基础设施:公共设施:公共厕所",
        "type": 0,
        "location": {
            "lat": 26.426137,
            "lng": 107.025624
        },
        "ad_info": {
            "adcode": 522730,
            "province": "贵州省",
            "city": "黔南布依族苗族自治州",
            "district": "龙里县"
        }
    },
    {
        "id": "16556661374231417450",
        "title": "龙里洗马停车区公共厕所",
        "address": "贵州省黔南布依族苗族自治州龙里县S36玉盘高速与龙里洗马停车区交叉口西360米",
        "tel": "",
        "category": "基础设施:公共设施:公共厕所",
        "type": 0,
        "location": {
            "lat": 26.701784,
            "lng": 107.127063
        },
        "ad_info": {
            "adcode": 522730,
            "province": "贵州省",
            "city": "黔南布依族苗族自治州",
            "district": "龙里县"
        }
    },
    {
        "id": "700360653456948259",
        "title": "摆塘服务区公共厕所",
        "address": "贵州省黔南布依族苗族自治州长顺县摆塘服务区北30米",
        "tel": "",
        "category": "基础设施:公共设施:公共厕所",
        "type": 0,
        "location": {
            "lat": 26.078557,
            "lng": 106.483747
        },
        "ad_info": {
            "adcode": 522729,
            "province": "贵州省",
            "city": "黔南布依族苗族自治州",
            "district": "长顺县"
        }
    },
    {
        "id": "14197068815272347456",
        "title": "京都广场公厕",
        "address": "贵州省黔南布依族苗族自治州都匀市平桥北路13号1-5号",
        "tel": "",
        "category": "基础设施:公共设施:公共厕所",
        "type": 0,
        "location": {
            "lat": 26.268228,
            "lng": 107.516028
        },
        "ad_info": {
            "adcode": 522701,
            "province": "贵州省",
            "city": "黔南布依族苗族自治州",
            "district": "都匀市"
        }
    },
    {
        "id": "16645987793887896304",
        "title": "洛邦停车区第一公共厕所",
        "address": "贵州省黔南布依族苗族自治州福泉市洛邦停车区与S42凯福高速交叉口东南260米",
        "tel": "",
        "category": "基础设施:公共设施:公共厕所",
        "type": 0,
        "location": {
            "lat": 26.63156,
            "lng": 107.719278
        },
        "ad_info": {
            "adcode": 522702,
            "province": "贵州省",
            "city": "黔南布依族苗族自治州",
            "district": "福泉市"
        }
    }
]