[
    {
        "id": "5511484213792623879",
        "title": "公共厕所",
        "address": "贵州省黔西南布依族苗族自治州兴义市稻子巷与土城东门一巷交叉口西北方向80米",
        "tel": "",
        "category": "基础设施:公共设施:公共厕所",
        "type": 0,
        "location": {
            "lat": 25.089431,
            "lng": 104.898121
        },
        "ad_info": {
            "adcode": 522301,
            "province": "贵州省",
            "city": "黔西南布依族苗族自治州",
            "district": "兴义市"
        }
    },
    {
        "id": "45218404547639249",
        "title": "公共厕所",
        "address": "贵州省黔西南布依族苗族自治州兴义市宜化大道与龙泉路交叉口东北方向68米左右",
        "tel": "",
        "category": "基础设施:公共设施:公共厕所",
        "type": 0,
        "location": {
            "lat": 25.152,
            "lng": 104.916433
        },
        "ad_info": {
            "adcode": 522301,
            "province": "贵州省",
            "city": "黔西南布依族苗族自治州",
            "district": "兴义市"
        }
    },
    {
        "id": "17423405255253623461",
        "title": "公共厕所",
        "address": "贵州省黔西南布依族苗族自治州兴义市桔香路公园首府",
        "tel": "",
        "category": "基础设施:公共设施:公共厕所",
        "type": 0,
        "location": {
            "lat": 25.106659,
            "lng": 104.917834
        },
        "ad_info": {
            "adcode": 522301,
            "province": "贵州省",
            "city": "黔西南布依族苗族自治州",
            "district": "兴义市"
        }
    },
    {
        "id": "12583390762255660858",
        "title": "公共厕所",
        "address": "贵州省黔西南布依族苗族自治州兴义市峰林北路与庄园路交叉口正南方向62米左右",
        "tel": "",
        "category": "基础设施:公共设施:公共厕所",
        "type": 0,
        "location": {
            "lat": 25.065272,
            "lng": 104.897618
        },
        "ad_info": {
            "adcode": 522301,
            "province": "贵州省",
            "city": "黔西南布依族苗族自治州",
            "district": "兴义市"
        }
    },
    {
        "id": "16342769806942328413",
        "title": "公共厕所",
        "address": "贵州省黔西南布依族苗族自治州兴义市桔山大道与桔康路交叉口东北方向217米左右",
        "tel": "",
        "category": "基础设施:公共设施:公共厕所",
        "type": 0,
        "location": {
            "lat": 25.111628,
            "lng": 104.925422
        },
        "ad_info": {
            "adcode": 522301,
            "province": "贵州省",
            "city": "黔西南布依族苗族自治州",
            "district": "兴义市"
        }
    },
    {
        "id": "7191005022919219079",
        "title": "公共厕所",
        "address": "贵州省黔西南布依族苗族自治州兴义市富民路与民航大道交叉口西北方向199米左右",
        "tel": "",
        "category": "基础设施:公共设施:公共厕所",
        "type": 0,
        "location": {
            "lat": 25.073136,
            "lng": 104.896504
        },
        "ad_info": {
            "adcode": 522301,
            "province": "贵州省",
            "city": "黔西南布依族苗族自治州",
            "district": "兴义市"
        }
    },
    {
        "id": "8790398739438441402",
        "title": "公共厕所",
        "address": "贵州省黔西南布依族苗族自治州兴义市兴义大道与黔山路交叉口正南方向158米左右",
        "tel": "",
        "category": "基础设施:公共设施:公共厕所",
        "type": 0,
        "location": {
            "lat": 25.108019,
            "lng": 104.916839
        },
        "ad_info": {
            "adcode": 522301,
            "province": "贵州省",
            "city": "黔西南布依族苗族自治州",
            "district": "兴义市"
        }
    },
    {
        "id": "6368875355631234993",
        "title": "公共厕所",
        "address": "贵州省黔西南布依族苗族自治州兴义市站前路与老街西路交叉口正北方向186米左右",
        "tel": "",
        "category": "基础设施:公共设施:公共厕所",
        "type": 0,
        "location": {
            "lat": 25.165103,
            "lng": 104.987177
        },
        "ad_info": {
            "adcode": 522301,
            "province": "贵州省",
            "city": "黔西南布依族苗族自治州",
            "district": "兴义市"
        }
    },
    {
        "id": "10030692053329563502",
        "title": "公共厕所",
        "address": "贵州省黔西南布依族苗族自治州兴义市官田路与桔香路交叉口正西方向85米左右",
        "tel": "",
        "category": "基础设施:公共设施:公共厕所",
        "type": 0,
        "location": {
            "lat": 25.105471,
            "lng": 104.91751
        },
        "ad_info": {
            "adcode": 522301,
            "province": "贵州省",
            "city": "黔西南布依族苗族自治州",
            "district": "兴义市"
        }
    },
    {
        "id": "9409457337943759984",
        "title": "公共厕所",
        "address": "贵州省黔西南布依族苗族自治州兴义市X602与白云路三巷交叉口正西方向115米左右",
        "tel": "",
        "category": "基础设施:公共设施:公共厕所",
        "type": 0,
        "location": {
            "lat": 25.077516,
            "lng": 104.93139
        },
        "ad_info": {
            "adcode": 522301,
            "province": "贵州省",
            "city": "黔西南布依族苗族自治州",
            "district": "兴义市"
        }
    },
    {
        "id": "8688614131067873612",
        "title": "公共厕所",
        "address": "贵州省黔西南布依族苗族自治州兴义市兴巴公路与西南环线交叉口东南方向211米左右",
        "tel": "",
        "category": "基础设施:公共设施:公共厕所",
        "type": 0,
        "location": {
            "lat": 25.04656,
            "lng": 104.907533
        },
        "ad_info": {
            "adcode": 522301,
            "province": "贵州省",
            "city": "黔西南布依族苗族自治州",
            "district": "兴义市"
        }
    },
    {
        "id": "426634554466794882",
        "title": "公共厕所",
        "address": "贵州省黔西南布依族苗族自治州兴义市沙井街10号",
        "tel": "",
        "category": "基础设施:公共设施:公共厕所",
        "type": 0,
        "location": {
            "lat": 25.089809,
            "lng": 104.899153
        },
        "ad_info": {
            "adcode": 522301,
            "province": "贵州省",
            "city": "黔西南布依族苗族自治州",
            "district": "兴义市"
        }
    },
    {
        "id": "16355485033489062214",
        "title": "公共厕所",
        "address": "贵州省黔西南布依族苗族自治州兴义市滴水东路一街三巷与滴水东路一街交叉口正北方向53米左右",
        "tel": "",
        "category": "基础设施:公共设施:公共厕所",
        "type": 0,
        "location": {
            "lat": 25.109016,
            "lng": 104.914521
        },
        "ad_info": {
            "adcode": 522301,
            "province": "贵州省",
            "city": "黔西南布依族苗族自治州",
            "district": "兴义市"
        }
    },
    {
        "id": "14377588836167800713",
        "title": "公共厕所",
        "address": "贵州省黔西南布依族苗族自治州兴义市凤阳街与西湖路交叉口东南方向79米左右",
        "tel": "",
        "category": "基础设施:公共设施:公共厕所",
        "type": 0,
        "location": {
            "lat": 25.095573,
            "lng": 104.877086
        },
        "ad_info": {
            "adcode": 522301,
            "province": "贵州省",
            "city": "黔西南布依族苗族自治州",
            "district": "兴义市"
        }
    },
    {
        "id": "13674222774215293812",
        "title": "公共厕所",
        "address": "贵州省黔西南布依族苗族自治州安龙县市府大道与金荷步行街交叉口正西方向33米左右",
        "tel": "",
        "category": "基础设施:公共设施:公共厕所",
        "type": 0,
        "location": {
            "lat": 25.100934,
            "lng": 105.455269
        },
        "ad_info": {
            "adcode": 522328,
            "province": "贵州省",
            "city": "黔西南布依族苗族自治州",
            "district": "安龙县"
        }
    },
    {
        "id": "8118823818707948415",
        "title": "公共厕所",
        "address": "贵州省黔西南布依族苗族自治州兴义市金蟾路一街与金蟾路二街三巷交叉口正北方向36米左右",
        "tel": "",
        "category": "基础设施:公共设施:公共厕所",
        "type": 0,
        "location": {
            "lat": 25.102624,
            "lng": 104.923948
        },
        "ad_info": {
            "adcode": 522301,
            "province": "贵州省",
            "city": "黔西南布依族苗族自治州",
            "district": "兴义市"
        }
    },
    {
        "id": "13562683410759234086",
        "title": "公共厕所",
        "address": "贵州省黔西南布依族苗族自治州兴义市碧云路桔山广场(西侧)",
        "tel": "",
        "category": "基础设施:公共设施:公共厕所",
        "type": 0,
        "location": {
            "lat": 25.10327,
            "lng": 104.917494
        },
        "ad_info": {
            "adcode": 522301,
            "province": "贵州省",
            "city": "黔西南布依族苗族自治州",
            "district": "兴义市"
        }
    },
    {
        "id": "13811152851415741414",
        "title": "公共厕所",
        "address": "贵州省黔西南布依族苗族自治州兴义市兴义大道与桔康路交叉口东北方向217米左右",
        "tel": "",
        "category": "基础设施:公共设施:公共厕所",
        "type": 0,
        "location": {
            "lat": 25.114062,
            "lng": 104.91901
        },
        "ad_info": {
            "adcode": 522301,
            "province": "贵州省",
            "city": "黔西南布依族苗族自治州",
            "district": "兴义市"
        }
    },
    {
        "id": "9977055458569896860",
        "title": "公共厕所",
        "address": "贵州省黔西南布依族苗族自治州兴义市富民路与育贤路二巷交叉口东北方向35米左右",
        "tel": "",
        "category": "基础设施:公共设施:公共厕所",
        "type": 0,
        "location": {
            "lat": 25.075312,
            "lng": 104.899081
        },
        "ad_info": {
            "adcode": 522301,
            "province": "贵州省",
            "city": "黔西南布依族苗族自治州",
            "district": "兴义市"
        }
    },
    {
        "id": "1166147295127410954",
        "title": "公共厕所",
        "address": "贵州省黔西南布依族苗族自治州兴义市向阳路与盘江东路交叉口西北方向52米左右",
        "tel": "",
        "category": "基础设施:公共设施:公共厕所",
        "type": 0,
        "location": {
            "lat": 25.088078,
            "lng": 104.899043
        },
        "ad_info": {
            "adcode": 522301,
            "province": "贵州省",
            "city": "黔西南布依族苗族自治州",
            "district": "兴义市"
        }
    },
    {
        "id": "10881593355630275258",
        "title": "公共厕所",
        "address": "贵州省黔西南布依族苗族自治州兴义市凤仪路19号",
        "tel": "",
        "category": "基础设施:公共设施:公共厕所",
        "type": 0,
        "location": {
            "lat": 25.088935,
            "lng": 104.911661
        },
        "ad_info": {
            "adcode": 522301,
            "province": "贵州省",
            "city": "黔西南布依族苗族自治州",
            "district": "兴义市"
        }
    },
    {
        "id": "11907831158111198899",
        "title": "公共厕所",
        "address": "贵州省黔西南布依族苗族自治州兴义市东风路与市府路交叉口东北方向67米左右",
        "tel": "",
        "category": "基础设施:公共设施:公共厕所",
        "type": 0,
        "location": {
            "lat": 25.091829,
            "lng": 104.897421
        },
        "ad_info": {
            "adcode": 522301,
            "province": "贵州省",
            "city": "黔西南布依族苗族自治州",
            "district": "兴义市"
        }
    },
    {
        "id": "18388587091721305235",
        "title": "公共厕所",
        "address": "贵州省黔西南布依族苗族自治州兴义市坪东大道与木贾大道交叉口正东方向422米左右",
        "tel": "",
        "category": "基础设施:公共设施:公共厕所",
        "type": 0,
        "location": {
            "lat": 25.123296,
            "lng": 104.864426
        },
        "ad_info": {
            "adcode": 522301,
            "province": "贵州省",
            "city": "黔西南布依族苗族自治州",
            "district": "兴义市"
        }
    },
    {
        "id": "17857363867506309808",
        "title": "公共厕所",
        "address": "贵州省黔西南布依族苗族自治州兴义市巨星家园与和谐家园十字交叉路口正南方向295米左右",
        "tel": "",
        "category": "基础设施:公共设施:公共厕所",
        "type": 0,
        "location": {
            "lat": 25.068399,
            "lng": 104.929295
        },
        "ad_info": {
            "adcode": 522301,
            "province": "贵州省",
            "city": "黔西南布依族苗族自治州",
            "district": "兴义市"
        }
    },
    {
        "id": "10617637905719181215",
        "title": "公共厕所",
        "address": "贵州省黔西南布依族苗族自治州兴义市宣化街与川祖街交叉口正北方向15米左右",
        "tel": "",
        "category": "基础设施:公共设施:公共厕所",
        "type": 0,
        "location": {
            "lat": 25.090638,
            "lng": 104.898776
        },
        "ad_info": {
            "adcode": 522301,
            "province": "贵州省",
            "city": "黔西南布依族苗族自治州",
            "district": "兴义市"
        }
    },
    {
        "id": "11471227978235232134",
        "title": "公共厕所",
        "address": "贵州省黔西南布依族苗族自治州兴义市吉地一街与桔香路交叉口西南方向106米左右",
        "tel": "",
        "category": "基础设施:公共设施:公共厕所",
        "type": 0,
        "location": {
            "lat": 25.103899,
            "lng": 104.91984
        },
        "ad_info": {
            "adcode": 522301,
            "province": "贵州省",
            "city": "黔西南布依族苗族自治州",
            "district": "兴义市"
        }
    },
    {
        "id": "5347687972749178133",
        "title": "公共厕所",
        "address": "贵州省黔西南布依族苗族自治州兴义市X610与泥巴公路交叉口正西方向1940米左右",
        "tel": "",
        "category": "基础设施:公共设施:公共厕所",
        "type": 0,
        "location": {
            "lat": 24.823489,
            "lng": 104.849175
        },
        "ad_info": {
            "adcode": 522301,
            "province": "贵州省",
            "city": "黔西南布依族苗族自治州",
            "district": "兴义市"
        }
    },
    {
        "id": "1171088409257940328",
        "title": "公共厕所",
        "address": "贵州省黔西南布依族苗族自治州兴义市X602中国国际能源加油站",
        "tel": "",
        "category": "基础设施:公共设施:公共厕所",
        "type": 0,
        "location": {
            "lat": 25.074224,
            "lng": 104.93631
        },
        "ad_info": {
            "adcode": 522301,
            "province": "贵州省",
            "city": "黔西南布依族苗族自治州",
            "district": "兴义市"
        }
    },
    {
        "id": "14499776135435462573",
        "title": "公共厕所",
        "address": "贵州省黔西南布依族苗族自治州册亨县拥军路与文化路交叉口正南方向132米左右",
        "tel": "",
        "category": "基础设施:公共设施:公共厕所",
        "type": 0,
        "location": {
            "lat": 24.9824,
            "lng": 105.81241
        },
        "ad_info": {
            "adcode": 522327,
            "province": "贵州省",
            "city": "黔西南布依族苗族自治州",
            "district": "册亨县"
        }
    },
    {
        "id": "3238520196958172380",
        "title": "公共厕所",
        "address": "贵州省黔西南布依族苗族自治州册亨县前进路与拥军路交叉口正南方向84米左右",
        "tel": "",
        "category": "基础设施:公共设施:公共厕所",
        "type": 0,
        "location": {
            "lat": 24.983732,
            "lng": 105.815022
        },
        "ad_info": {
            "adcode": 522327,
            "province": "贵州省",
            "city": "黔西南布依族苗族自治州",
            "district": "册亨县"
        }
    },
    {
        "id": "11739584702414570480",
        "title": "公共厕所",
        "address": "贵州省黔西南布依族苗族自治州贞丰县",
        "tel": "",
        "category": "基础设施:公共设施:公共厕所",
        "type": 0,
        "location": {
            "lat": 25.385431,
            "lng": 105.574991
        },
        "ad_info": {
            "adcode": 522325,
            "province": "贵州省",
            "city": "黔西南布依族苗族自治州",
            "district": "贞丰县"
        }
    },
    {
        "id": "12244589132502977559",
        "title": "公共厕所",
        "address": "贵州省黔西南布依族苗族自治州兴义市S309与红星大道交叉口东北方向1340米左右",
        "tel": "",
        "category": "基础设施:公共设施:公共厕所",
        "type": 0,
        "location": {
            "lat": 25.183724,
            "lng": 104.98221
        },
        "ad_info": {
            "adcode": 522301,
            "province": "贵州省",
            "city": "黔西南布依族苗族自治州",
            "district": "兴义市"
        }
    },
    {
        "id": "3833034490620717768",
        "title": "公共厕所",
        "address": "贵州省黔西南布依族苗族自治州兴义市吉地一街与桔香路交叉口正南方向92米左右",
        "tel": "",
        "category": "基础设施:公共设施:公共厕所",
        "type": 0,
        "location": {
            "lat": 25.10396,
            "lng": 104.92011
        },
        "ad_info": {
            "adcode": 522301,
            "province": "贵州省",
            "city": "黔西南布依族苗族自治州",
            "district": "兴义市"
        }
    },
    {
        "id": "6371216571453650344",
        "title": "公共厕所",
        "address": "贵州省黔西南布依族苗族自治州兴义市X602与丰都大道交叉口西南方向141米左右",
        "tel": "",
        "category": "基础设施:公共设施:公共厕所",
        "type": 0,
        "location": {
            "lat": 25.061529,
            "lng": 104.943202
        },
        "ad_info": {
            "adcode": 522301,
            "province": "贵州省",
            "city": "黔西南布依族苗族自治州",
            "district": "兴义市"
        }
    },
    {
        "id": "17632152298430516061",
        "title": "公共厕所",
        "address": "贵州省黔西南布依族苗族自治州望谟县新桥路与桐乡大道交叉口正东方向35米左右",
        "tel": "",
        "category": "基础设施:公共设施:公共厕所",
        "type": 0,
        "location": {
            "lat": 25.16811,
            "lng": 106.08803
        },
        "ad_info": {
            "adcode": 522326,
            "province": "贵州省",
            "city": "黔西南布依族苗族自治州",
            "district": "望谟县"
        }
    },
    {
        "id": "16333651834268931072",
        "title": "公共厕所",
        "address": "贵州省黔西南布依族苗族自治州兴义市贵醇西路与黔滇路交叉口正西方向93米左右",
        "tel": "",
        "category": "基础设施:公共设施:公共厕所",
        "type": 0,
        "location": {
            "lat": 25.272881,
            "lng": 104.737036
        },
        "ad_info": {
            "adcode": 522301,
            "province": "贵州省",
            "city": "黔西南布依族苗族自治州",
            "district": "兴义市"
        }
    },
    {
        "id": "18062251919291736343",
        "title": "公共厕所",
        "address": "贵州省黔西南布依族苗族自治州兴义市贵州醇酒厂包装工段西南侧70米",
        "tel": "",
        "category": "基础设施:公共设施:公共厕所",
        "type": 0,
        "location": {
            "lat": 25.067924,
            "lng": 104.883131
        },
        "ad_info": {
            "adcode": 522301,
            "province": "贵州省",
            "city": "黔西南布依族苗族自治州",
            "district": "兴义市"
        }
    },
    {
        "id": "4512997109626086039",
        "title": "公共厕所",
        "address": "贵州省黔西南布依族苗族自治州兴义市开发大道与普安路交叉口正西方向69米左右",
        "tel": "",
        "category": "基础设施:公共设施:公共厕所",
        "type": 0,
        "location": {
            "lat": 25.153814,
            "lng": 104.973088
        },
        "ad_info": {
            "adcode": 522301,
            "province": "贵州省",
            "city": "黔西南布依族苗族自治州",
            "district": "兴义市"
        }
    },
    {
        "id": "9838944973409763574",
        "title": "公共厕所",
        "address": "贵州省黔西南布依族苗族自治州册亨县S214与东凤路交叉口东北方向62米左右",
        "tel": "",
        "category": "基础设施:公共设施:公共厕所",
        "type": 0,
        "location": {
            "lat": 24.978486,
            "lng": 105.822856
        },
        "ad_info": {
            "adcode": 522327,
            "province": "贵州省",
            "city": "黔西南布依族苗族自治州",
            "district": "册亨县"
        }
    },
    {
        "id": "12428243999500196657",
        "title": "公共厕所",
        "address": "贵州省黔西南布依族苗族自治州兴义市新联路与栖霞路交叉口正东方向75米左右",
        "tel": "",
        "category": "基础设施:公共设施:公共厕所",
        "type": 0,
        "location": {
            "lat": 25.095031,
            "lng": 104.878793
        },
        "ad_info": {
            "adcode": 522301,
            "province": "贵州省",
            "city": "黔西南布依族苗族自治州",
            "district": "兴义市"
        }
    },
    {
        "id": "14745749697653159853",
        "title": "公共厕所",
        "address": "贵州省黔西南布依族苗族自治州安龙县新马路与顺城街交叉口东北方向40米左右",
        "tel": "",
        "category": "基础设施:公共设施:公共厕所",
        "type": 0,
        "location": {
            "lat": 25.108394,
            "lng": 105.469523
        },
        "ad_info": {
            "adcode": 522328,
            "province": "贵州省",
            "city": "黔西南布依族苗族自治州",
            "district": "安龙县"
        }
    },
    {
        "id": "16476844980915634902",
        "title": "公共厕所",
        "address": "贵州省黔西南布依族苗族自治州兴义市马岭河峡谷风景区小青山出入口售票处西北侧",
        "tel": "",
        "category": "基础设施:公共设施:公共厕所",
        "type": 0,
        "location": {
            "lat": 25.129964,
            "lng": 104.95423
        },
        "ad_info": {
            "adcode": 522301,
            "province": "贵州省",
            "city": "黔西南布依族苗族自治州",
            "district": "兴义市"
        }
    },
    {
        "id": "16672254533963726500",
        "title": "公共厕所",
        "address": "贵州省黔西南布依族苗族自治州兴义市盘江东路与稻子巷交叉口正西方向39米左右",
        "tel": "",
        "category": "基础设施:公共设施:公共厕所",
        "type": 0,
        "location": {
            "lat": 25.087313,
            "lng": 104.898062
        },
        "ad_info": {
            "adcode": 522301,
            "province": "贵州省",
            "city": "黔西南布依族苗族自治州",
            "district": "兴义市"
        }
    },
    {
        "id": "10380856254008235385",
        "title": "公共厕所",
        "address": "贵州省黔西南布依族苗族自治州兴义市X632与清马大道交叉口西北方向1149米左右",
        "tel": "",
        "category": "基础设施:公共设施:公共厕所",
        "type": 0,
        "location": {
            "lat": 25.19082,
            "lng": 104.891268
        },
        "ad_info": {
            "adcode": 522301,
            "province": "贵州省",
            "city": "黔西南布依族苗族自治州",
            "district": "兴义市"
        }
    },
    {
        "id": "12745142440121532607",
        "title": "公共厕所",
        "address": "贵州省黔西南布依族苗族自治州安龙县市府大道与杨柳街交叉口正西方向95米左右",
        "tel": "",
        "category": "基础设施:公共设施:公共厕所",
        "type": 0,
        "location": {
            "lat": 25.097675,
            "lng": 105.446899
        },
        "ad_info": {
            "adcode": 522328,
            "province": "贵州省",
            "city": "黔西南布依族苗族自治州",
            "district": "安龙县"
        }
    },
    {
        "id": "10551446574604554218",
        "title": "公共厕所",
        "address": "贵州省黔西南布依族苗族自治州兴义市乌沙互通与汕昆高速交叉口正南方向125米左右",
        "tel": "",
        "category": "基础设施:公共设施:公共厕所",
        "type": 0,
        "location": {
            "lat": 25.139015,
            "lng": 104.792644
        },
        "ad_info": {
            "adcode": 522301,
            "province": "贵州省",
            "city": "黔西南布依族苗族自治州",
            "district": "兴义市"
        }
    },
    {
        "id": "5855821252500332701",
        "title": "公共厕所",
        "address": "贵州省黔西南布依族苗族自治州册亨县东风路与河滨路交叉口西南方向58米左右",
        "tel": "",
        "category": "基础设施:公共设施:公共厕所",
        "type": 0,
        "location": {
            "lat": 24.982329,
            "lng": 105.813546
        },
        "ad_info": {
            "adcode": 522327,
            "province": "贵州省",
            "city": "黔西南布依族苗族自治州",
            "district": "册亨县"
        }
    },
    {
        "id": "12586028975866713767",
        "title": "公共厕所",
        "address": "贵州省黔西南布依族苗族自治州晴隆县中心街与县府路交叉口正东方向58米左右",
        "tel": "",
        "category": "基础设施:公共设施:公共厕所",
        "type": 0,
        "location": {
            "lat": 25.834102,
            "lng": 105.219984
        },
        "ad_info": {
            "adcode": 522324,
            "province": "贵州省",
            "city": "黔西南布依族苗族自治州",
            "district": "晴隆县"
        }
    },
    {
        "id": "3859616254728585127",
        "title": "公共厕所",
        "address": "贵州省黔西南布依族苗族自治州兴义市G324与东环线交叉口西北方向147米左右",
        "tel": "",
        "category": "基础设施:公共设施:公共厕所",
        "type": 0,
        "location": {
            "lat": 25.127069,
            "lng": 104.94384
        },
        "ad_info": {
            "adcode": 522301,
            "province": "贵州省",
            "city": "黔西南布依族苗族自治州",
            "district": "兴义市"
        }
    },
    {
        "id": "4907162202919996598",
        "title": "公共厕所",
        "address": "贵州省黔西南布依族苗族自治州兴义市X600则戎客运站",
        "tel": "",
        "category": "基础设施:公共设施:公共厕所",
        "type": 0,
        "location": {
            "lat": 24.961853,
            "lng": 104.952759
        },
        "ad_info": {
            "adcode": 522301,
            "province": "贵州省",
            "city": "黔西南布依族苗族自治州",
            "district": "兴义市"
        }
    },
    {
        "id": "5765389603445007910",
        "title": "公共厕所",
        "address": "贵州省黔西南布依族苗族自治州安龙县南环路34号东北方向40米",
        "tel": "",
        "category": "基础设施:公共设施:公共厕所",
        "type": 0,
        "location": {
            "lat": 25.108099,
            "lng": 105.47298
        },
        "ad_info": {
            "adcode": 522328,
            "province": "贵州省",
            "city": "黔西南布依族苗族自治州",
            "district": "安龙县"
        }
    },
    {
        "id": "14320018044214024801",
        "title": "公共厕所",
        "address": "贵州省黔西南布依族苗族自治州望谟县建设路与解放路交叉口正东方向61米左右",
        "tel": "",
        "category": "基础设施:公共设施:公共厕所",
        "type": 0,
        "location": {
            "lat": 25.166605,
            "lng": 106.094309
        },
        "ad_info": {
            "adcode": 522326,
            "province": "贵州省",
            "city": "黔西南布依族苗族自治州",
            "district": "望谟县"
        }
    },
    {
        "id": "16978952378634550423",
        "title": "公共厕所",
        "address": "贵州省黔西南布依族苗族自治州贞丰县同心路与建设路交叉口正东方向297米左右",
        "tel": "",
        "category": "基础设施:公共设施:公共厕所",
        "type": 0,
        "location": {
            "lat": 25.388015,
            "lng": 105.638563
        },
        "ad_info": {
            "adcode": 522325,
            "province": "贵州省",
            "city": "黔西南布依族苗族自治州",
            "district": "贞丰县"
        }
    },
    {
        "id": "1991912614349467642",
        "title": "公共厕所",
        "address": "贵州省黔西南布依族苗族自治州兴义市东南环线与绕城环线交叉口西北方向221米左右",
        "tel": "",
        "category": "基础设施:公共设施:公共厕所",
        "type": 0,
        "location": {
            "lat": 25.031904,
            "lng": 104.949836
        },
        "ad_info": {
            "adcode": 522301,
            "province": "贵州省",
            "city": "黔西南布依族苗族自治州",
            "district": "兴义市"
        }
    },
    {
        "id": "2094723611986793271",
        "title": "公共厕所",
        "address": "贵州省黔西南布依族苗族自治州兴义市万峰林国际会议中心户外运动会场",
        "tel": "",
        "category": "基础设施:公共设施:公共厕所",
        "type": 0,
        "location": {
            "lat": 25.027941,
            "lng": 104.926488
        },
        "ad_info": {
            "adcode": 522301,
            "province": "贵州省",
            "city": "黔西南布依族苗族自治州",
            "district": "兴义市"
        }
    },
    {
        "id": "13616710756743981922",
        "title": "公共厕所",
        "address": "贵州省黔西南布依族苗族自治州册亨县前进路与河滨路交叉口东南方向84米左右",
        "tel": "",
        "category": "基础设施:公共设施:公共厕所",
        "type": 0,
        "location": {
            "lat": 24.98168,
            "lng": 105.811167
        },
        "ad_info": {
            "adcode": 522327,
            "province": "贵州省",
            "city": "黔西南布依族苗族自治州",
            "district": "册亨县"
        }
    },
    {
        "id": "14318645714700976200",
        "title": "公共厕所",
        "address": "贵州省黔西南布依族苗族自治州普安县水厂路与环城西路交叉口东北方向203米左右",
        "tel": "",
        "category": "基础设施:公共设施:公共厕所",
        "type": 0,
        "location": {
            "lat": 25.783529,
            "lng": 104.949732
        },
        "ad_info": {
            "adcode": 522323,
            "province": "贵州省",
            "city": "黔西南布依族苗族自治州",
            "district": "普安县"
        }
    },
    {
        "id": "2909782578788811061",
        "title": "公共厕所",
        "address": "贵州省黔西南布依族苗族自治州兴义市G324与犀牛塘大桥交叉口正东方向1950米左右",
        "tel": "",
        "category": "基础设施:公共设施:公共厕所",
        "type": 0,
        "location": {
            "lat": 25.073995,
            "lng": 104.705865
        },
        "ad_info": {
            "adcode": 522301,
            "province": "贵州省",
            "city": "黔西南布依族苗族自治州",
            "district": "兴义市"
        }
    },
    {
        "id": "5838262749005899013",
        "title": "公共厕所",
        "address": "贵州省黔西南布依族苗族自治州贞丰县海曙大道与金景一街交叉口正西方向1398米左右",
        "tel": "",
        "category": "基础设施:公共设施:公共厕所",
        "type": 0,
        "location": {
            "lat": 25.396029,
            "lng": 105.614023
        },
        "ad_info": {
            "adcode": 522325,
            "province": "贵州省",
            "city": "黔西南布依族苗族自治州",
            "district": "贞丰县"
        }
    },
    {
        "id": "4831422467645813409",
        "title": "公共厕所",
        "address": "贵州省黔西南布依族苗族自治州兴义市贵州湖景酒店",
        "tel": "",
        "category": "基础设施:公共设施:公共厕所",
        "type": 0,
        "location": {
            "lat": 25.153978,
            "lng": 105.142915
        },
        "ad_info": {
            "adcode": 522301,
            "province": "贵州省",
            "city": "黔西南布依族苗族自治州",
            "district": "兴义市"
        }
    },
    {
        "id": "8358064078276031978",
        "title": "公共厕所",
        "address": "贵州省黔西南布依族苗族自治州册亨县贵州布衣锦绣坊北侧70米",
        "tel": "",
        "category": "基础设施:公共设施:公共厕所",
        "type": 0,
        "location": {
            "lat": 24.881317,
            "lng": 105.825777
        },
        "ad_info": {
            "adcode": 522327,
            "province": "贵州省",
            "city": "黔西南布依族苗族自治州",
            "district": "册亨县"
        }
    },
    {
        "id": "8512130202762999167",
        "title": "公共厕所",
        "address": "贵州省黔西南布依族苗族自治州晴隆县阿妹戚托小镇",
        "tel": "",
        "category": "基础设施:公共设施:公共厕所",
        "type": 0,
        "location": {
            "lat": 25.831165,
            "lng": 105.241868
        },
        "ad_info": {
            "adcode": 522324,
            "province": "贵州省",
            "city": "黔西南布依族苗族自治州",
            "district": "晴隆县"
        }
    },
    {
        "id": "6422183802426715709",
        "title": "公共厕所",
        "address": "贵州省黔西南布依族苗族自治州普安县S313与X632交叉口正北方向1228米左右",
        "tel": "",
        "category": "基础设施:公共设施:公共厕所",
        "type": 0,
        "location": {
            "lat": 25.486784,
            "lng": 105.006503
        },
        "ad_info": {
            "adcode": 522323,
            "province": "贵州省",
            "city": "黔西南布依族苗族自治州",
            "district": "普安县"
        }
    },
    {
        "id": "15765595664414933128",
        "title": "公共厕所",
        "address": "贵州省黔西南布依族苗族自治州贞丰县圣乳峰生态农业有限责任公司东北侧170米",
        "tel": "",
        "category": "基础设施:公共设施:公共厕所",
        "type": 0,
        "location": {
            "lat": 25.486253,
            "lng": 105.650184
        },
        "ad_info": {
            "adcode": 522325,
            "province": "贵州省",
            "city": "黔西南布依族苗族自治州",
            "district": "贞丰县"
        }
    },
    {
        "id": "17055374276659505524",
        "title": "公共厕所",
        "address": "贵州省黔西南布依族苗族自治州兴义市万峰林大道与峡谷大道交叉口西北方向124米左右",
        "tel": "",
        "category": "基础设施:公共设施:公共厕所",
        "type": 0,
        "location": {
            "lat": 25.126417,
            "lng": 104.936889
        },
        "ad_info": {
            "adcode": 522301,
            "province": "贵州省",
            "city": "黔西南布依族苗族自治州",
            "district": "兴义市"
        }
    },
    {
        "id": "18168301676323716520",
        "title": "公共厕所",
        "address": "贵州省黔西南布依族苗族自治州晴隆县观景台",
        "tel": "",
        "category": "基础设施:公共设施:公共厕所",
        "type": 0,
        "location": {
            "lat": 25.821092,
            "lng": 105.199093
        },
        "ad_info": {
            "adcode": 522324,
            "province": "贵州省",
            "city": "黔西南布依族苗族自治州",
            "district": "晴隆县"
        }
    },
    {
        "id": "15304834046150210020",
        "title": "公共厕所",
        "address": "贵州省黔西南布依族苗族自治州晴隆县花贡路与长流路交叉口东北方向674米左右",
        "tel": "",
        "category": "基础设施:公共设施:公共厕所",
        "type": 0,
        "location": {
            "lat": 25.839543,
            "lng": 105.251307
        },
        "ad_info": {
            "adcode": 522324,
            "province": "贵州省",
            "city": "黔西南布依族苗族自治州",
            "district": "晴隆县"
        }
    },
    {
        "id": "13919451544835027451",
        "title": "公共厕所",
        "address": "贵州省黔西南布依族苗族自治州安龙县S215与新光街交叉口西北方向290米左右",
        "tel": "",
        "category": "基础设施:公共设施:公共厕所",
        "type": 0,
        "location": {
            "lat": 25.234028,
            "lng": 105.41887
        },
        "ad_info": {
            "adcode": 522328,
            "province": "贵州省",
            "city": "黔西南布依族苗族自治州",
            "district": "安龙县"
        }
    },
    {
        "id": "13598254385997499112",
        "title": "公共厕所",
        "address": "贵州省黔西南布依族苗族自治州安龙县市府大道与顺城街交叉口正西方向66米左右",
        "tel": "",
        "category": "基础设施:公共设施:公共厕所",
        "type": 0,
        "location": {
            "lat": 25.102372,
            "lng": 105.456606
        },
        "ad_info": {
            "adcode": 522328,
            "province": "贵州省",
            "city": "黔西南布依族苗族自治州",
            "district": "安龙县"
        }
    },
    {
        "id": "16189752695131077992",
        "title": "公共厕所",
        "address": "贵州省黔西南布依族苗族自治州安龙县S215与新光街交叉口东南方向144米左右",
        "tel": "",
        "category": "基础设施:公共设施:公共厕所",
        "type": 0,
        "location": {
            "lat": 25.230454,
            "lng": 105.42065
        },
        "ad_info": {
            "adcode": 522328,
            "province": "贵州省",
            "city": "黔西南布依族苗族自治州",
            "district": "安龙县"
        }
    },
    {
        "id": "688131932380130557",
        "title": "公共厕所",
        "address": "贵州省黔西南布依族苗族自治州安龙县G324与环东路交叉口西北方向56米左右",
        "tel": "",
        "category": "基础设施:公共设施:公共厕所",
        "type": 0,
        "location": {
            "lat": 25.095749,
            "lng": 105.464402
        },
        "ad_info": {
            "adcode": 522328,
            "province": "贵州省",
            "city": "黔西南布依族苗族自治州",
            "district": "安龙县"
        }
    },
    {
        "id": "14733098007756979383",
        "title": "公共厕所",
        "address": "贵州省黔西南布依族苗族自治州兴义市开发大道与金源路交叉口正南方向38米左右",
        "tel": "",
        "category": "基础设施:公共设施:公共厕所",
        "type": 0,
        "location": {
            "lat": 25.16282,
            "lng": 104.98415
        },
        "ad_info": {
            "adcode": 522301,
            "province": "贵州省",
            "city": "黔西南布依族苗族自治州",
            "district": "兴义市"
        }
    },
    {
        "id": "9379116332298367338",
        "title": "公共厕所",
        "address": "贵州省黔西南布依族苗族自治州安龙县G324与新桥中桥交叉口正东方向590米左右",
        "tel": "",
        "category": "基础设施:公共设施:公共厕所",
        "type": 0,
        "location": {
            "lat": 25.115179,
            "lng": 105.264938
        },
        "ad_info": {
            "adcode": 522328,
            "province": "贵州省",
            "city": "黔西南布依族苗族自治州",
            "district": "安龙县"
        }
    },
    {
        "id": "11205029926395739708",
        "title": "公共厕所",
        "address": "贵州省黔西南布依族苗族自治州晴隆县沙子镇美食广场",
        "tel": "",
        "category": "基础设施:公共设施:公共厕所",
        "type": 0,
        "location": {
            "lat": 25.781591,
            "lng": 105.148694
        },
        "ad_info": {
            "adcode": 522324,
            "province": "贵州省",
            "city": "黔西南布依族苗族自治州",
            "district": "晴隆县"
        }
    },
    {
        "id": "14824064828680514736",
        "title": "公共厕所",
        "address": "贵州省黔西南布依族苗族自治州兴义市木贾工业园区",
        "tel": "",
        "category": "基础设施:公共设施:公共厕所",
        "type": 0,
        "location": {
            "lat": 25.12292,
            "lng": 104.85704
        },
        "ad_info": {
            "adcode": 522301,
            "province": "贵州省",
            "city": "黔西南布依族苗族自治州",
            "district": "兴义市"
        }
    },
    {
        "id": "16124739344730551499",
        "title": "厕所",
        "address": "贵州省黔西南布依族苗族自治州兴义市迎新路1号",
        "tel": "",
        "category": "基础设施:公共设施:公共厕所",
        "type": 0,
        "location": {
            "lat": 25.088477,
            "lng": 104.881804
        },
        "ad_info": {
            "adcode": 522301,
            "province": "贵州省",
            "city": "黔西南布依族苗族自治州",
            "district": "兴义市"
        }
    },
    {
        "id": "5960754792542837220",
        "title": "公共厕所",
        "address": "贵州省黔西南布依族苗族自治州晴隆县G320与X640交叉口正西方向1452米左右",
        "tel": "",
        "category": "基础设施:公共设施:公共厕所",
        "type": 0,
        "location": {
            "lat": 25.806758,
            "lng": 105.195408
        },
        "ad_info": {
            "adcode": 522324,
            "province": "贵州省",
            "city": "黔西南布依族苗族自治州",
            "district": "晴隆县"
        }
    },
    {
        "id": "17950948090793473194",
        "title": "公共厕所",
        "address": "贵州省黔西南布依族苗族自治州普安县S313",
        "tel": "",
        "category": "基础设施:公共设施:公共厕所",
        "type": 0,
        "location": {
            "lat": 25.598502,
            "lng": 104.907259
        },
        "ad_info": {
            "adcode": 522323,
            "province": "贵州省",
            "city": "黔西南布依族苗族自治州",
            "district": "普安县"
        }
    },
    {
        "id": "12974416397846246517",
        "title": "公共厕所",
        "address": "贵州省黔西南布依族苗族自治州安龙县光伏产农业产业园东南侧120米",
        "tel": "",
        "category": "基础设施:公共设施:公共厕所",
        "type": 0,
        "location": {
            "lat": 25.070063,
            "lng": 105.540439
        },
        "ad_info": {
            "adcode": 522328,
            "province": "贵州省",
            "city": "黔西南布依族苗族自治州",
            "district": "安龙县"
        }
    },
    {
        "id": "15713479519819308254",
        "title": "公共厕所",
        "address": "贵州省黔西南布依族苗族自治州兴义市文化路与文化路三巷交叉口西北140米",
        "tel": "",
        "category": "基础设施:公共设施:公共厕所",
        "type": 0,
        "location": {
            "lat": 25.079452,
            "lng": 104.900491
        },
        "ad_info": {
            "adcode": 522301,
            "province": "贵州省",
            "city": "黔西南布依族苗族自治州",
            "district": "兴义市"
        }
    },
    {
        "id": "1968729264943550238",
        "title": "公共厕所",
        "address": "贵州省黔西南布依族苗族自治州兴义市凤仪路与圣都一街交叉口正南方向122米左右",
        "tel": "",
        "category": "基础设施:公共设施:公共厕所",
        "type": 0,
        "location": {
            "lat": 25.083592,
            "lng": 104.923483
        },
        "ad_info": {
            "adcode": 522301,
            "province": "贵州省",
            "city": "黔西南布依族苗族自治州",
            "district": "兴义市"
        }
    },
    {
        "id": "15872453043702131332",
        "title": "公共厕所",
        "address": "贵州省黔西南布依族苗族自治州兴义市东南环线与丰都大道交叉口东南方向192米左右",
        "tel": "",
        "category": "基础设施:公共设施:公共厕所",
        "type": 0,
        "location": {
            "lat": 25.06594,
            "lng": 104.96199
        },
        "ad_info": {
            "adcode": 522301,
            "province": "贵州省",
            "city": "黔西南布依族苗族自治州",
            "district": "兴义市"
        }
    },
    {
        "id": "4624409432322336985",
        "title": "公共厕所",
        "address": "贵州省黔西南布依族苗族自治州安龙县G246与祥和大桥交叉口正西方向1878米左右",
        "tel": "",
        "category": "基础设施:公共设施:公共厕所",
        "type": 0,
        "location": {
            "lat": 24.944092,
            "lng": 105.100032
        },
        "ad_info": {
            "adcode": 522328,
            "province": "贵州省",
            "city": "黔西南布依族苗族自治州",
            "district": "安龙县"
        }
    },
    {
        "id": "2361466089057292262",
        "title": "公共卫生间",
        "address": "贵州省黔西南布依族苗族自治州兴义市丰都大道与绕城环线交叉口东北方向203米左右",
        "tel": "",
        "category": "基础设施:公共设施:公共厕所",
        "type": 0,
        "location": {
            "lat": 25.059084,
            "lng": 104.930012
        },
        "ad_info": {
            "adcode": 522301,
            "province": "贵州省",
            "city": "黔西南布依族苗族自治州",
            "district": "兴义市"
        }
    },
    {
        "id": "14160670296493356965",
        "title": "无障碍公共厕所",
        "address": "贵州省黔西南布依族苗族自治州兴义市金水北路天能小区",
        "tel": "",
        "category": "基础设施:公共设施:公共厕所",
        "type": 0,
        "location": {
            "lat": 25.09282,
            "lng": 104.919058
        },
        "ad_info": {
            "adcode": 522301,
            "province": "贵州省",
            "city": "黔西南布依族苗族自治州",
            "district": "兴义市"
        }
    },
    {
        "id": "5688725710514979435",
        "title": "公共厕所",
        "address": "贵州省黔西南布依族苗族自治州望谟县人民路与华侨西路交叉口东北方向62米左右",
        "tel": "",
        "category": "基础设施:公共设施:公共厕所",
        "type": 0,
        "location": {
            "lat": 25.173696,
            "lng": 106.095512
        },
        "ad_info": {
            "adcode": 522326,
            "province": "贵州省",
            "city": "黔西南布依族苗族自治州",
            "district": "望谟县"
        }
    },
    {
        "id": "4258456435733000434",
        "title": "公共厕所",
        "address": "贵州省黔西南布依族苗族自治州兴义市迎新巷与迎新路交叉口东北方向78米左右",
        "tel": "",
        "category": "基础设施:公共设施:公共厕所",
        "type": 0,
        "location": {
            "lat": 25.093077,
            "lng": 104.877202
        },
        "ad_info": {
            "adcode": 522301,
            "province": "贵州省",
            "city": "黔西南布依族苗族自治州",
            "district": "兴义市"
        }
    },
    {
        "id": "12229679509493972347",
        "title": "公共厕所",
        "address": "贵州省黔西南布依族苗族自治州兴义市坪东西路7号",
        "tel": "",
        "category": "基础设施:公共设施:公共厕所",
        "type": 0,
        "location": {
            "lat": 25.092634,
            "lng": 104.878563
        },
        "ad_info": {
            "adcode": 522301,
            "province": "贵州省",
            "city": "黔西南布依族苗族自治州",
            "district": "兴义市"
        }
    },
    {
        "id": "740627535184648454",
        "title": "万峰林风景区公共厕所",
        "address": "贵州省黔西南布依族苗族自治州兴义市景峰大道(万峰林景区)",
        "tel": "",
        "category": "基础设施:公共设施:公共厕所",
        "type": 0,
        "location": {
            "lat": 25.007831,
            "lng": 104.924543
        },
        "ad_info": {
            "adcode": 522301,
            "province": "贵州省",
            "city": "黔西南布依族苗族自治州",
            "district": "兴义市"
        }
    },
    {
        "id": "9082808406898177375",
        "title": "公共厕所",
        "address": "贵州省黔西南布依族苗族自治州贞丰县文笔路与永丰大道交叉口西北方向83米左右",
        "tel": "",
        "category": "基础设施:公共设施:公共厕所",
        "type": 0,
        "location": {
            "lat": 25.392083,
            "lng": 105.645898
        },
        "ad_info": {
            "adcode": 522325,
            "province": "贵州省",
            "city": "黔西南布依族苗族自治州",
            "district": "贞丰县"
        }
    },
    {
        "id": "17374955984324834919",
        "title": "旅游厕所",
        "address": "贵州省黔西南布依族苗族自治州兴义市鲁万公路美国ucc",
        "tel": "",
        "category": "基础设施:公共设施:公共厕所",
        "type": 0,
        "location": {
            "lat": 25.16265,
            "lng": 105.141481
        },
        "ad_info": {
            "adcode": 522301,
            "province": "贵州省",
            "city": "黔西南布依族苗族自治州",
            "district": "兴义市"
        }
    },
    {
        "id": "13078571542799989332",
        "title": "公共厕所(GZ-QX-0834)",
        "address": "贵州省黔西南布依族苗族自治州兴义市顶效开发区步马安置点",
        "tel": "",
        "category": "基础设施:公共设施:公共厕所",
        "type": 0,
        "location": {
            "lat": 25.14047,
            "lng": 104.987382
        },
        "ad_info": {
            "adcode": 522301,
            "province": "贵州省",
            "city": "黔西南布依族苗族自治州",
            "district": "兴义市"
        }
    },
    {
        "id": "47706796777131242",
        "title": "公共厕所",
        "address": "贵州省黔西南布依族苗族自治州兴义市X610与泥巴公路交叉口西南方向986米左右",
        "tel": "",
        "category": "基础设施:公共设施:公共厕所",
        "type": 0,
        "location": {
            "lat": 24.821112,
            "lng": 104.859841
        },
        "ad_info": {
            "adcode": 522301,
            "province": "贵州省",
            "city": "黔西南布依族苗族自治州",
            "district": "兴义市"
        }
    },
    {
        "id": "875762955420546331",
        "title": "公共厕所",
        "address": "贵州省黔西南布依族苗族自治州贞丰县洗布河路与解放路交叉口西北方向65米左右",
        "tel": "",
        "category": "基础设施:公共设施:公共厕所",
        "type": 0,
        "location": {
            "lat": 25.387524,
            "lng": 105.651001
        },
        "ad_info": {
            "adcode": 522325,
            "province": "贵州省",
            "city": "黔西南布依族苗族自治州",
            "district": "贞丰县"
        }
    },
    {
        "id": "16500797077938880103",
        "title": "公共厕所",
        "address": "贵州省黔西南布依族苗族自治州贞丰县菜园三街与菜园路交叉口东南方向14米左右",
        "tel": "",
        "category": "基础设施:公共设施:公共厕所",
        "type": 0,
        "location": {
            "lat": 25.381811,
            "lng": 105.651241
        },
        "ad_info": {
            "adcode": 522325,
            "province": "贵州省",
            "city": "黔西南布依族苗族自治州",
            "district": "贞丰县"
        }
    },
    {
        "id": "8267412540597448677",
        "title": "公共厕所",
        "address": "贵州省黔西南布依族苗族自治州晴隆县光明路与天盛巷交叉口东南方向54米左右",
        "tel": "",
        "category": "基础设施:公共设施:公共厕所",
        "type": 0,
        "location": {
            "lat": 25.82775,
            "lng": 105.21727
        },
        "ad_info": {
            "adcode": 522324,
            "province": "贵州省",
            "city": "黔西南布依族苗族自治州",
            "district": "晴隆县"
        }
    },
    {
        "id": "3046904354482920033",
        "title": "公共厕所",
        "address": "贵州省黔西南布依族苗族自治州册亨县",
        "tel": "",
        "category": "基础设施:公共设施:公共厕所",
        "type": 0,
        "location": {
            "lat": 25.04974,
            "lng": 105.949731
        },
        "ad_info": {
            "adcode": 522327,
            "province": "贵州省",
            "city": "黔西南布依族苗族自治州",
            "district": "册亨县"
        }
    },
    {
        "id": "3002895258855842049",
        "title": "无障碍公共厕所",
        "address": "贵州省黔西南布依族苗族自治州兴义市金水路金苑小区(金水南路)东侧约30米",
        "tel": "",
        "category": "基础设施:公共设施:公共厕所",
        "type": 0,
        "location": {
            "lat": 25.086112,
            "lng": 104.926909
        },
        "ad_info": {
            "adcode": 522301,
            "province": "贵州省",
            "city": "黔西南布依族苗族自治州",
            "district": "兴义市"
        }
    },
    {
        "id": "15627527373026441741",
        "title": "英武虎跳河景区公共厕所",
        "address": "贵州省黔西南布依族苗族自治州普安县英羊支线",
        "tel": "",
        "category": "基础设施:公共设施:公共厕所",
        "type": 0,
        "location": {
            "lat": 25.820988,
            "lng": 104.885707
        },
        "ad_info": {
            "adcode": 522323,
            "province": "贵州省",
            "city": "黔西南布依族苗族自治州",
            "district": "普安县"
        }
    },
    {
        "id": "2394596202885806988",
        "title": "公共厕所",
        "address": "贵州省黔西南布依族苗族自治州普安县",
        "tel": "",
        "category": "基础设施:公共设施:公共厕所",
        "type": 0,
        "location": {
            "lat": 25.438078,
            "lng": 104.978031
        },
        "ad_info": {
            "adcode": 522323,
            "province": "贵州省",
            "city": "黔西南布依族苗族自治州",
            "district": "普安县"
        }
    },
    {
        "id": "17466922305307689378",
        "title": "二十四道拐-公共厕所",
        "address": "贵州省黔西南布依族苗族自治州晴隆县G320与南环路交叉口正西方向1116米左右",
        "tel": "",
        "category": "基础设施:公共设施:公共厕所",
        "type": 0,
        "location": {
            "lat": 25.816373,
            "lng": 105.200528
        },
        "ad_info": {
            "adcode": 522324,
            "province": "贵州省",
            "city": "黔西南布依族苗族自治州",
            "district": "晴隆县"
        }
    },
    {
        "id": "8953544045726892313",
        "title": "小河边免费公共厕所",
        "address": "贵州省黔西南布依族苗族自治州安龙县南环路与西环路交叉口西南方向76米左右",
        "tel": "",
        "category": "基础设施:公共设施:公共厕所",
        "type": 0,
        "location": {
            "lat": 25.108665,
            "lng": 105.470175
        },
        "ad_info": {
            "adcode": 522328,
            "province": "贵州省",
            "city": "黔西南布依族苗族自治州",
            "district": "安龙县"
        }
    },
    {
        "id": "2391841339513775008",
        "title": "公共厕所",
        "address": "贵州省黔西南布依族苗族自治州贞丰县新丰路与珉山路口交叉口西40米",
        "tel": "",
        "category": "基础设施:公共设施:公共厕所",
        "type": 0,
        "location": {
            "lat": 25.387918,
            "lng": 105.649778
        },
        "ad_info": {
            "adcode": 522325,
            "province": "贵州省",
            "city": "黔西南布依族苗族自治州",
            "district": "贞丰县"
        }
    },
    {
        "id": "10299078426173545102",
        "title": "茶场服务区公共厕所",
        "address": "贵州省黔西南布依族苗族自治州普安县江西坡镇沪昆高速公路普安茶场停车区",
        "tel": "",
        "category": "基础设施:公共设施:公共厕所",
        "type": 0,
        "location": {
            "lat": 25.748722,
            "lng": 105.082607
        },
        "ad_info": {
            "adcode": 522323,
            "province": "贵州省",
            "city": "黔西南布依族苗族自治州",
            "district": "普安县"
        }
    },
    {
        "id": "3377419103542889327",
        "title": "望谟服务区公共厕所",
        "address": "贵州省黔西南布依族苗族自治州望谟县友谊加油站东北侧260米",
        "tel": "",
        "category": "基础设施:公共设施:公共厕所",
        "type": 0,
        "location": {
            "lat": 25.159347,
            "lng": 106.061169
        },
        "ad_info": {
            "adcode": 522326,
            "province": "贵州省",
            "city": "黔西南布依族苗族自治州",
            "district": "望谟县"
        }
    },
    {
        "id": "2759734262519259913",
        "title": "安龙服务区公共厕所",
        "address": "贵州省黔西南布依族苗族自治州安龙县兴木路与文化路交叉口西北方向1610米左右",
        "tel": "",
        "category": "基础设施:公共设施:公共厕所",
        "type": 0,
        "location": {
            "lat": 25.070671,
            "lng": 105.351186
        },
        "ad_info": {
            "adcode": 522328,
            "province": "贵州省",
            "city": "黔西南布依族苗族自治州",
            "district": "安龙县"
        }
    },
    {
        "id": "3781295233438486198",
        "title": "公共厕所",
        "address": "贵州省黔西南布依族苗族自治州普安县体育路与南中路交叉口西南方向66米左右",
        "tel": "",
        "category": "基础设施:公共设施:公共厕所",
        "type": 0,
        "location": {
            "lat": 25.78561,
            "lng": 104.957929
        },
        "ad_info": {
            "adcode": 522323,
            "province": "贵州省",
            "city": "黔西南布依族苗族自治州",
            "district": "普安县"
        }
    },
    {
        "id": "1025943335709956234",
        "title": "公共厕所",
        "address": "贵州省黔西南布依族苗族自治州兴仁市环城南路与环城西路交叉口正东方向280米左右",
        "tel": "",
        "category": "基础设施:公共设施:公共厕所",
        "type": 0,
        "location": {
            "lat": 25.428069,
            "lng": 105.181382
        },
        "ad_info": {
            "adcode": 522302,
            "province": "贵州省",
            "city": "黔西南布依族苗族自治州",
            "district": "兴仁市"
        }
    },
    {
        "id": "2148397973162153010",
        "title": "公共厕所",
        "address": "贵州省黔西南布依族苗族自治州兴仁市广东巷与环城东路交叉口正北方向118米左右",
        "tel": "",
        "category": "基础设施:公共设施:公共厕所",
        "type": 0,
        "location": {
            "lat": 25.434444,
            "lng": 105.190322
        },
        "ad_info": {
            "adcode": 522302,
            "province": "贵州省",
            "city": "黔西南布依族苗族自治州",
            "district": "兴仁市"
        }
    },
    {
        "id": "9178484639106531168",
        "title": "晴隆服务区公共厕所",
        "address": "贵州省黔西南布依族苗族自治州晴隆县G320与古镇东路交叉口东北方向1950米左右",
        "tel": "",
        "category": "基础设施:公共设施:公共厕所",
        "type": 0,
        "location": {
            "lat": 25.799866,
            "lng": 105.174754
        },
        "ad_info": {
            "adcode": 522324,
            "province": "贵州省",
            "city": "黔西南布依族苗族自治州",
            "district": "晴隆县"
        }
    },
    {
        "id": "1458702629048379596",
        "title": "公共厕所",
        "address": "贵州省黔西南布依族苗族自治州兴仁市师范路与永兴南路交叉口西南方向126米左右",
        "tel": "",
        "category": "基础设施:公共设施:公共厕所",
        "type": 0,
        "location": {
            "lat": 25.437769,
            "lng": 105.19742
        },
        "ad_info": {
            "adcode": 522302,
            "province": "贵州省",
            "city": "黔西南布依族苗族自治州",
            "district": "兴仁市"
        }
    },
    {
        "id": "2497231502822781855",
        "title": "公共厕所",
        "address": "贵州省黔西南布依族苗族自治州兴仁市S313与莹石厂分离式桥交叉口正南方向1028米左右",
        "tel": "",
        "category": "基础设施:公共设施:公共厕所",
        "type": 0,
        "location": {
            "lat": 25.420446,
            "lng": 105.138745
        },
        "ad_info": {
            "adcode": 522302,
            "province": "贵州省",
            "city": "黔西南布依族苗族自治州",
            "district": "兴仁市"
        }
    },
    {
        "id": "10779868633518044304",
        "title": "公共厕所",
        "address": "贵州省黔西南布依族苗族自治州兴仁市G7612与S309交叉口正东方向69米",
        "tel": "",
        "category": "基础设施:公共设施:公共厕所",
        "type": 0,
        "location": {
            "lat": 25.350152,
            "lng": 105.101402
        },
        "ad_info": {
            "adcode": 522302,
            "province": "贵州省",
            "city": "黔西南布依族苗族自治州",
            "district": "兴仁市"
        }
    },
    {
        "id": "7283496610484781658",
        "title": "公共厕所",
        "address": "贵州省黔西南布依族苗族自治州兴仁市山水印象生态农庄东侧50米",
        "tel": "",
        "category": "基础设施:公共设施:公共厕所",
        "type": 0,
        "location": {
            "lat": 25.455265,
            "lng": 105.164007
        },
        "ad_info": {
            "adcode": 522302,
            "province": "贵州省",
            "city": "黔西南布依族苗族自治州",
            "district": "兴仁市"
        }
    },
    {
        "id": "9575538222820197126",
        "title": "免费公共厕所",
        "address": "贵州省黔西南布依族苗族自治州兴仁市建国路与民主路交叉口西北方向13米左右",
        "tel": "",
        "category": "基础设施:公共设施:公共厕所",
        "type": 0,
        "location": {
            "lat": 25.433268,
            "lng": 105.184933
        },
        "ad_info": {
            "adcode": 522302,
            "province": "贵州省",
            "city": "黔西南布依族苗族自治州",
            "district": "兴仁市"
        }
    },
    {
        "id": "10588258380996239150",
        "title": "免费公共厕所",
        "address": "贵州省黔西南布依族苗族自治州兴仁市环城东路与解放路商业步行街交叉口正东方向134米左右",
        "tel": "",
        "category": "基础设施:公共设施:公共厕所",
        "type": 0,
        "location": {
            "lat": 25.432209,
            "lng": 105.191981
        },
        "ad_info": {
            "adcode": 522302,
            "province": "贵州省",
            "city": "黔西南布依族苗族自治州",
            "district": "兴仁市"
        }
    },
    {
        "id": "7262113886598443094",
        "title": "公共厕所",
        "address": "贵州省黔西南布依族苗族自治州兴仁市兴仁大道与开发大道交叉口正东方向193米左右",
        "tel": "",
        "category": "基础设施:公共设施:公共厕所",
        "type": 0,
        "location": {
            "lat": 25.44712,
            "lng": 105.226079
        },
        "ad_info": {
            "adcode": 522302,
            "province": "贵州省",
            "city": "黔西南布依族苗族自治州",
            "district": "兴仁市"
        }
    },
    {
        "id": "9114047608855570897",
        "title": "公共厕所",
        "address": "贵州省黔西南布依族苗族自治州兴仁市和谐路与康居路交叉口西南方向410米左右",
        "tel": "",
        "category": "基础设施:公共设施:公共厕所",
        "type": 0,
        "location": {
            "lat": 25.447295,
            "lng": 105.212805
        },
        "ad_info": {
            "adcode": 522302,
            "province": "贵州省",
            "city": "黔西南布依族苗族自治州",
            "district": "兴仁市"
        }
    },
    {
        "id": "13755994157412482908",
        "title": "长耳营服务区第二公共厕所",
        "address": "贵州省黔西南布依族苗族自治州兴仁市S313与莹石厂分离式桥交叉口西南方向234米左右",
        "tel": "",
        "category": "基础设施:公共设施:公共厕所",
        "type": 0,
        "location": {
            "lat": 25.42749,
            "lng": 105.140557
        },
        "ad_info": {
            "adcode": 522302,
            "province": "贵州省",
            "city": "黔西南布依族苗族自治州",
            "district": "兴仁市"
        }
    },
    {
        "id": "6539997267014964648",
        "title": "鲤鱼坝景区公共厕所",
        "address": "贵州省黔西南布依族苗族自治州兴仁市S313",
        "tel": "",
        "category": "基础设施:公共设施:公共厕所",
        "type": 0,
        "location": {
            "lat": 25.38462,
            "lng": 105.311834
        },
        "ad_info": {
            "adcode": 522302,
            "province": "贵州省",
            "city": "黔西南布依族苗族自治州",
            "district": "兴仁市"
        }
    },
    {
        "id": "2212966756641792143",
        "title": "公共厕所",
        "address": "贵州省黔西南布依族苗族自治州兴仁市S313与莹石厂分离式桥交叉口正南方向979米左右",
        "tel": "",
        "category": "基础设施:公共设施:公共厕所",
        "type": 0,
        "location": {
            "lat": 25.42087,
            "lng": 105.138871
        },
        "ad_info": {
            "adcode": 522302,
            "province": "贵州省",
            "city": "黔西南布依族苗族自治州",
            "district": "兴仁市"
        }
    },
    {
        "id": "3078857433797704462",
        "title": "公共厕所",
        "address": "贵州省黔西南布依族苗族自治州望谟县(蔗香乡客运站)",
        "tel": "",
        "category": "基础设施:公共设施:公共厕所",
        "type": 0,
        "location": {
            "lat": 24.968265,
            "lng": 106.149986
        },
        "ad_info": {
            "adcode": 522326,
            "province": "贵州省",
            "city": "黔西南布依族苗族自治州",
            "district": "望谟县"
        }
    },
    {
        "id": "10420721955083454654",
        "title": "公共厕所",
        "address": "贵州省黔西南布依族苗族自治州兴仁市兴仁大道与环湖东路交叉口东北方向326米左右",
        "tel": "",
        "category": "基础设施:公共设施:公共厕所",
        "type": 0,
        "location": {
            "lat": 25.438362,
            "lng": 105.215781
        },
        "ad_info": {
            "adcode": 522302,
            "province": "贵州省",
            "city": "黔西南布依族苗族自治州",
            "district": "兴仁市"
        }
    },
    {
        "id": "12322468776948427943",
        "title": "安龙服务区公共厕所",
        "address": "贵州省黔西南布依族苗族自治州安龙县汕昆高速安龙服务区",
        "tel": "",
        "category": "基础设施:公共设施:公共厕所",
        "type": 0,
        "location": {
            "lat": 25.072735,
            "lng": 105.350966
        },
        "ad_info": {
            "adcode": 522328,
            "province": "贵州省",
            "city": "黔西南布依族苗族自治州",
            "district": "安龙县"
        }
    },
    {
        "id": "14130065874136321191",
        "title": "公共厕所",
        "address": "贵州省黔西南布依族苗族自治州兴义市健康路与神奇东路交叉口正西方向44米左右",
        "tel": "",
        "category": "基础设施:公共设施:公共厕所",
        "type": 0,
        "location": {
            "lat": 25.090797,
            "lng": 104.91733
        },
        "ad_info": {
            "adcode": 522301,
            "province": "贵州省",
            "city": "黔西南布依族苗族自治州",
            "district": "兴义市"
        }
    },
    {
        "id": "7340684433112078982",
        "title": "公共厕所",
        "address": "贵州省黔西南布依族苗族自治州普安县民主街与西街交叉口正南方向69米左右",
        "tel": "",
        "category": "基础设施:公共设施:公共厕所",
        "type": 0,
        "location": {
            "lat": 25.784716,
            "lng": 104.953762
        },
        "ad_info": {
            "adcode": 522323,
            "province": "贵州省",
            "city": "黔西南布依族苗族自治州",
            "district": "普安县"
        }
    },
    {
        "id": "2882560430869508455",
        "title": "公共厕所",
        "address": "贵州省黔西南布依族苗族自治州兴义市迎新西路九巷与青龙西路交叉口正西方向38米左右",
        "tel": "",
        "category": "基础设施:公共设施:公共厕所",
        "type": 0,
        "location": {
            "lat": 25.0947,
            "lng": 104.87269
        },
        "ad_info": {
            "adcode": 522301,
            "province": "贵州省",
            "city": "黔西南布依族苗族自治州",
            "district": "兴义市"
        }
    },
    {
        "id": "13454276947894959490",
        "title": "公共厕所",
        "address": "贵州省黔西南布依族苗族自治州兴义市S309与九州大道交叉口西南方向87米左右",
        "tel": "",
        "category": "基础设施:公共设施:公共厕所",
        "type": 0,
        "location": {
            "lat": 25.190944,
            "lng": 105.039511
        },
        "ad_info": {
            "adcode": 522301,
            "province": "贵州省",
            "city": "黔西南布依族苗族自治州",
            "district": "兴义市"
        }
    },
    {
        "id": "9324072033498257779",
        "title": "公共厕所",
        "address": "贵州省黔西南布依族苗族自治州贞丰县南环路与秀眉路交叉口东北方向53米左右",
        "tel": "",
        "category": "基础设施:公共设施:公共厕所",
        "type": 0,
        "location": {
            "lat": 25.385009,
            "lng": 105.641188
        },
        "ad_info": {
            "adcode": 522325,
            "province": "贵州省",
            "city": "黔西南布依族苗族自治州",
            "district": "贞丰县"
        }
    },
    {
        "id": "1363427691052962356",
        "title": "公共厕所2",
        "address": "贵州省黔西南布依族苗族自治州普安县东风路与沿河路交叉口东南方向182米左右",
        "tel": "",
        "category": "基础设施:公共设施:公共厕所",
        "type": 0,
        "location": {
            "lat": 25.782584,
            "lng": 104.953593
        },
        "ad_info": {
            "adcode": 522323,
            "province": "贵州省",
            "city": "黔西南布依族苗族自治州",
            "district": "普安县"
        }
    },
    {
        "id": "6706894125012448129",
        "title": "公共厕所",
        "address": "贵州省黔西南布依族苗族自治州兴义市滴水东路一街与滴水东路二街四巷交叉口东80米",
        "tel": "",
        "category": "基础设施:公共设施:公共厕所",
        "type": 0,
        "location": {
            "lat": 25.111853,
            "lng": 104.917092
        },
        "ad_info": {
            "adcode": 522301,
            "province": "贵州省",
            "city": "黔西南布依族苗族自治州",
            "district": "兴义市"
        }
    },
    {
        "id": "13428865521054046816",
        "title": "公共厕所",
        "address": "贵州省黔西南布依族苗族自治州兴义市兴义路与迎宾中路交叉口东北方向82米左右",
        "tel": "",
        "category": "基础设施:公共设施:公共厕所",
        "type": 0,
        "location": {
            "lat": 25.155251,
            "lng": 104.9814
        },
        "ad_info": {
            "adcode": 522301,
            "province": "贵州省",
            "city": "黔西南布依族苗族自治州",
            "district": "兴义市"
        }
    },
    {
        "id": "1556424832624427327",
        "title": "公共厕所",
        "address": "贵州省黔西南布依族苗族自治州兴仁市S313与X624交叉口西南方向101米左右",
        "tel": "",
        "category": "基础设施:公共设施:公共厕所",
        "type": 0,
        "location": {
            "lat": 25.377742,
            "lng": 105.313566
        },
        "ad_info": {
            "adcode": 522302,
            "province": "贵州省",
            "city": "黔西南布依族苗族自治州",
            "district": "兴仁市"
        }
    },
    {
        "id": "13359663318737821719",
        "title": "公共厕所",
        "address": "贵州省黔西南布依族苗族自治州兴义市园丁二路与峰林北路交叉口正东方向64米左右",
        "tel": "",
        "category": "基础设施:公共设施:公共厕所",
        "type": 0,
        "location": {
            "lat": 25.066175,
            "lng": 104.898463
        },
        "ad_info": {
            "adcode": 522301,
            "province": "贵州省",
            "city": "黔西南布依族苗族自治州",
            "district": "兴义市"
        }
    },
    {
        "id": "10516409615242267469",
        "title": "长耳营服务区公共厕所",
        "address": "贵州省黔西南布依族苗族自治州兴仁市S313与莹石厂分离式桥交叉口西南方向271米左右",
        "tel": "",
        "category": "基础设施:公共设施:公共厕所",
        "type": 0,
        "location": {
            "lat": 25.428128,
            "lng": 105.139351
        },
        "ad_info": {
            "adcode": 522302,
            "province": "贵州省",
            "city": "黔西南布依族苗族自治州",
            "district": "兴仁市"
        }
    },
    {
        "id": "3992286902441541630",
        "title": "公共厕所",
        "address": "贵州省黔西南布依族苗族自治州晴隆县003县道西50米",
        "tel": "",
        "category": "基础设施:公共设施:公共厕所",
        "type": 0,
        "location": {
            "lat": 25.99722,
            "lng": 105.096384
        },
        "ad_info": {
            "adcode": 522324,
            "province": "贵州省",
            "city": "黔西南布依族苗族自治州",
            "district": "晴隆县"
        }
    },
    {
        "id": "3985633885021909150",
        "title": "公共厕所",
        "address": "贵州省黔西南布依族苗族自治州兴义市飞洋华府·林溪郡东南侧200米",
        "tel": "",
        "category": "基础设施:公共设施:公共厕所",
        "type": 0,
        "location": {
            "lat": 25.065881,
            "lng": 104.932828
        },
        "ad_info": {
            "adcode": 522301,
            "province": "贵州省",
            "city": "黔西南布依族苗族自治州",
            "district": "兴义市"
        }
    },
    {
        "id": "8454377326234381439",
        "title": "公共厕所",
        "address": "贵州省黔西南布依族苗族自治州兴义市册亨路与金源路交叉口西南方向96米左右",
        "tel": "",
        "category": "基础设施:公共设施:公共厕所",
        "type": 0,
        "location": {
            "lat": 25.159641,
            "lng": 104.98672
        },
        "ad_info": {
            "adcode": 522301,
            "province": "贵州省",
            "city": "黔西南布依族苗族自治州",
            "district": "兴义市"
        }
    },
    {
        "id": "11973792732848526837",
        "title": "公共厕所",
        "address": "贵州省黔西南布依族苗族自治州兴义市下五屯万峰林景区内",
        "tel": "",
        "category": "基础设施:公共设施:公共厕所",
        "type": 0,
        "location": {
            "lat": 25.004013,
            "lng": 104.92339
        },
        "ad_info": {
            "adcode": 522301,
            "province": "贵州省",
            "city": "黔西南布依族苗族自治州",
            "district": "兴义市"
        }
    },
    {
        "id": "11522054020029463068",
        "title": "公共厕所",
        "address": "贵州省黔西南布依族苗族自治州兴义市方易殡葬服务有限公司南侧80米",
        "tel": "",
        "category": "基础设施:公共设施:公共厕所",
        "type": 0,
        "location": {
            "lat": 25.105549,
            "lng": 104.883385
        },
        "ad_info": {
            "adcode": 522301,
            "province": "贵州省",
            "city": "黔西南布依族苗族自治州",
            "district": "兴义市"
        }
    },
    {
        "id": "10730929418881818318",
        "title": "公共厕所",
        "address": "贵州省黔西南布依族苗族自治州晴隆县美军加油站游客接待中心西侧170米",
        "tel": "",
        "category": "基础设施:公共设施:公共厕所",
        "type": 0,
        "location": {
            "lat": 25.756455,
            "lng": 105.133713
        },
        "ad_info": {
            "adcode": 522324,
            "province": "贵州省",
            "city": "黔西南布依族苗族自治州",
            "district": "晴隆县"
        }
    },
    {
        "id": "7019657541897420752",
        "title": "公共厕所",
        "address": "贵州省黔西南布依族苗族自治州贞丰县晓街与油榨街交叉口正东方向136米左右",
        "tel": "",
        "category": "基础设施:公共设施:公共厕所",
        "type": 0,
        "location": {
            "lat": 25.384675,
            "lng": 105.65571
        },
        "ad_info": {
            "adcode": 522325,
            "province": "贵州省",
            "city": "黔西南布依族苗族自治州",
            "district": "贞丰县"
        }
    },
    {
        "id": "11091197466330785310",
        "title": "公共厕所",
        "address": "贵州省黔西南布依族苗族自治州望谟县友谊加油站东北侧250米",
        "tel": "",
        "category": "基础设施:公共设施:公共厕所",
        "type": 0,
        "location": {
            "lat": 25.158677,
            "lng": 106.062089
        },
        "ad_info": {
            "adcode": 522326,
            "province": "贵州省",
            "city": "黔西南布依族苗族自治州",
            "district": "望谟县"
        }
    },
    {
        "id": "17757808660496890573",
        "title": "公共厕所",
        "address": "贵州省黔西南布依族苗族自治州兴义市G324与Y080交叉口正西方向876米左右",
        "tel": "",
        "category": "基础设施:公共设施:公共厕所",
        "type": 0,
        "location": {
            "lat": 25.059968,
            "lng": 104.664728
        },
        "ad_info": {
            "adcode": 522301,
            "province": "贵州省",
            "city": "黔西南布依族苗族自治州",
            "district": "兴义市"
        }
    },
    {
        "id": "8895630063497972495",
        "title": "长耳营服务区第一公共厕所",
        "address": "贵州省黔西南布依族苗族自治州兴仁市S313与莹石厂分离式桥交叉口西南方向239米左右",
        "tel": "",
        "category": "基础设施:公共设施:公共厕所",
        "type": 0,
        "location": {
            "lat": 25.428401,
            "lng": 105.139546
        },
        "ad_info": {
            "adcode": 522302,
            "province": "贵州省",
            "city": "黔西南布依族苗族自治州",
            "district": "兴仁市"
        }
    },
    {
        "id": "6651549602526864370",
        "title": "公共厕所",
        "address": "贵州省黔西南布依族苗族自治州普安县X636与环城东路交叉口正北方向34米左右",
        "tel": "",
        "category": "基础设施:公共设施:公共厕所",
        "type": 0,
        "location": {
            "lat": 25.791403,
            "lng": 104.960116
        },
        "ad_info": {
            "adcode": 522323,
            "province": "贵州省",
            "city": "黔西南布依族苗族自治州",
            "district": "普安县"
        }
    },
    {
        "id": "12011485437335476844",
        "title": "公共厕所",
        "address": "贵州省黔西南布依族苗族自治州望谟县朝阳路与环城路交叉口正南方向179米左右",
        "tel": "",
        "category": "基础设施:公共设施:公共厕所",
        "type": 0,
        "location": {
            "lat": 25.169942,
            "lng": 106.089207
        },
        "ad_info": {
            "adcode": 522326,
            "province": "贵州省",
            "city": "黔西南布依族苗族自治州",
            "district": "望谟县"
        }
    },
    {
        "id": "14064230717850367667",
        "title": "公共厕所",
        "address": "贵州省黔西南布依族苗族自治州望谟县东风路与建设路交叉口正南方向153米左右",
        "tel": "",
        "category": "基础设施:公共设施:公共厕所",
        "type": 0,
        "location": {
            "lat": 25.164106,
            "lng": 106.095878
        },
        "ad_info": {
            "adcode": 522326,
            "province": "贵州省",
            "city": "黔西南布依族苗族自治州",
            "district": "望谟县"
        }
    },
    {
        "id": "15262879525707599221",
        "title": "公共厕所",
        "address": "贵州省黔西南布依族苗族自治州普安县X632与环城东路交叉口西北方向79米左右",
        "tel": "",
        "category": "基础设施:公共设施:公共厕所",
        "type": 0,
        "location": {
            "lat": 25.785841,
            "lng": 104.96687
        },
        "ad_info": {
            "adcode": 522323,
            "province": "贵州省",
            "city": "黔西南布依族苗族自治州",
            "district": "普安县"
        }
    },
    {
        "id": "7669442103818782819",
        "title": "乌沙服务区公共厕所",
        "address": "贵州省黔西南布依族苗族自治州兴义市G78汕昆高速附近",
        "tel": "",
        "category": "基础设施:公共设施:公共厕所",
        "type": 0,
        "location": {
            "lat": 25.135511,
            "lng": 104.755092
        },
        "ad_info": {
            "adcode": 522301,
            "province": "贵州省",
            "city": "黔西南布依族苗族自治州",
            "district": "兴义市"
        }
    },
    {
        "id": "236334883669618941",
        "title": "公共卫生间",
        "address": "贵州省黔西南布依族苗族自治州兴义市X610与泥巴公路交叉口正西方向1569米左右",
        "tel": "",
        "category": "基础设施:公共设施:公共厕所",
        "type": 0,
        "location": {
            "lat": 24.82381,
            "lng": 104.852823
        },
        "ad_info": {
            "adcode": 522301,
            "province": "贵州省",
            "city": "黔西南布依族苗族自治州",
            "district": "兴义市"
        }
    },
    {
        "id": "8470004540557566103",
        "title": "公共厕所",
        "address": "贵州省黔西南布依族苗族自治州兴义市八一公园",
        "tel": "",
        "category": "基础设施:公共设施:公共厕所",
        "type": 0,
        "location": {
            "lat": 25.091091,
            "lng": 104.895691
        },
        "ad_info": {
            "adcode": 522301,
            "province": "贵州省",
            "city": "黔西南布依族苗族自治州",
            "district": "兴义市"
        }
    },
    {
        "id": "11406895495438261972",
        "title": "公共厕所",
        "address": "贵州省黔西南布依族苗族自治州兴仁市消防路与环城西路交叉口正南方向206米左右",
        "tel": "",
        "category": "基础设施:公共设施:公共厕所",
        "type": 0,
        "location": {
            "lat": 25.43228,
            "lng": 105.18182
        },
        "ad_info": {
            "adcode": 522302,
            "province": "贵州省",
            "city": "黔西南布依族苗族自治州",
            "district": "兴仁市"
        }
    },
    {
        "id": "10978306738889849422",
        "title": "公共厕所",
        "address": "贵州省黔西南布依族苗族自治州兴义市",
        "tel": "",
        "category": "基础设施:公共设施:公共厕所",
        "type": 0,
        "location": {
            "lat": 25.110521,
            "lng": 105.09762
        },
        "ad_info": {
            "adcode": 522301,
            "province": "贵州省",
            "city": "黔西南布依族苗族自治州",
            "district": "兴义市"
        }
    },
    {
        "id": "14973716055961826793",
        "title": "公共厕所",
        "address": "贵州省黔西南布依族苗族自治州兴义市富民路与峰林一街交叉口西北方向35米左右",
        "tel": "",
        "category": "基础设施:公共设施:公共厕所",
        "type": 0,
        "location": {
            "lat": 25.068431,
            "lng": 104.897232
        },
        "ad_info": {
            "adcode": 522301,
            "province": "贵州省",
            "city": "黔西南布依族苗族自治州",
            "district": "兴义市"
        }
    },
    {
        "id": "12132711904080641804",
        "title": "公共厕所",
        "address": "贵州省黔西南布依族苗族自治州兴义市",
        "tel": "",
        "category": "基础设施:公共设施:公共厕所",
        "type": 0,
        "location": {
            "lat": 24.967483,
            "lng": 104.926278
        },
        "ad_info": {
            "adcode": 522301,
            "province": "贵州省",
            "city": "黔西南布依族苗族自治州",
            "district": "兴义市"
        }
    },
    {
        "id": "1760067615775554504",
        "title": "公共厕所",
        "address": "贵州省黔西南布依族苗族自治州兴义市S309与红星大道交叉口正北方向1273米左右",
        "tel": "",
        "category": "基础设施:公共设施:公共厕所",
        "type": 0,
        "location": {
            "lat": 25.178667,
            "lng": 104.98697
        },
        "ad_info": {
            "adcode": 522301,
            "province": "贵州省",
            "city": "黔西南布依族苗族自治州",
            "district": "兴义市"
        }
    },
    {
        "id": "9179462168179106249",
        "title": "公共厕所",
        "address": "贵州省黔西南布依族苗族自治州兴义市西南环线与阳光路交叉口正东方向1144米左右",
        "tel": "",
        "category": "基础设施:公共设施:公共厕所",
        "type": 0,
        "location": {
            "lat": 25.063036,
            "lng": 104.879185
        },
        "ad_info": {
            "adcode": 522301,
            "province": "贵州省",
            "city": "黔西南布依族苗族自治州",
            "district": "兴义市"
        }
    },
    {
        "id": "18136918171325257798",
        "title": "公共厕所",
        "address": "贵州省黔西南布依族苗族自治州兴义市合心小学西侧80米",
        "tel": "",
        "category": "基础设施:公共设施:公共厕所",
        "type": 0,
        "location": {
            "lat": 25.157776,
            "lng": 105.029295
        },
        "ad_info": {
            "adcode": 522301,
            "province": "贵州省",
            "city": "黔西南布依族苗族自治州",
            "district": "兴义市"
        }
    },
    {
        "id": "7115199172895019711",
        "title": "公共厕所",
        "address": "贵州省黔西南布依族苗族自治州兴仁市创新路与华兴路交叉口西南方向33米左右",
        "tel": "",
        "category": "基础设施:公共设施:公共厕所",
        "type": 0,
        "location": {
            "lat": 25.454051,
            "lng": 105.265084
        },
        "ad_info": {
            "adcode": 522302,
            "province": "贵州省",
            "city": "黔西南布依族苗族自治州",
            "district": "兴仁市"
        }
    },
    {
        "id": "16586892186263429243",
        "title": "公共厕所",
        "address": "贵州省黔西南布依族苗族自治州兴义市Y081与生威路交叉口正西方向791米左右",
        "tel": "",
        "category": "基础设施:公共设施:公共厕所",
        "type": 0,
        "location": {
            "lat": 25.281016,
            "lng": 104.762061
        },
        "ad_info": {
            "adcode": 522301,
            "province": "贵州省",
            "city": "黔西南布依族苗族自治州",
            "district": "兴义市"
        }
    },
    {
        "id": "12285529120767953085",
        "title": "公共厕所",
        "address": "贵州省黔西南布依族苗族自治州兴义市X708附近",
        "tel": "",
        "category": "基础设施:公共设施:公共厕所",
        "type": 0,
        "location": {
            "lat": 24.709648,
            "lng": 104.701852
        },
        "ad_info": {
            "adcode": 522301,
            "province": "贵州省",
            "city": "黔西南布依族苗族自治州",
            "district": "兴义市"
        }
    },
    {
        "id": "10003909054066236514",
        "title": "公共厕所",
        "address": "贵州省黔西南布依族苗族自治州安龙县G324与荷都大道交叉口正南方向1689米左右",
        "tel": "",
        "category": "基础设施:公共设施:公共厕所",
        "type": 0,
        "location": {
            "lat": 25.059183,
            "lng": 105.465768
        },
        "ad_info": {
            "adcode": 522328,
            "province": "贵州省",
            "city": "黔西南布依族苗族自治州",
            "district": "安龙县"
        }
    },
    {
        "id": "9481195174409707092",
        "title": "公共厕所",
        "address": "贵州省黔西南布依族苗族自治州贞丰县656县道东50米",
        "tel": "",
        "category": "基础设施:公共设施:公共厕所",
        "type": 0,
        "location": {
            "lat": 25.330537,
            "lng": 105.675798
        },
        "ad_info": {
            "adcode": 522325,
            "province": "贵州省",
            "city": "黔西南布依族苗族自治州",
            "district": "贞丰县"
        }
    },
    {
        "id": "11185922308288016172",
        "title": "乌沙服务区公共厕所",
        "address": "贵州省黔西南布依族苗族自治州兴义市汕昆高速附近",
        "tel": "",
        "category": "基础设施:公共设施:公共厕所",
        "type": 0,
        "location": {
            "lat": 25.137432,
            "lng": 104.75578
        },
        "ad_info": {
            "adcode": 522301,
            "province": "贵州省",
            "city": "黔西南布依族苗族自治州",
            "district": "兴义市"
        }
    },
    {
        "id": "2035647243574999884",
        "title": "公共厕所",
        "address": "贵州省黔西南布依族苗族自治州贞丰县建设路与晓街交叉口正北方向21米左右",
        "tel": "",
        "category": "基础设施:公共设施:公共厕所",
        "type": 0,
        "location": {
            "lat": 25.38365,
            "lng": 105.652569
        },
        "ad_info": {
            "adcode": 522325,
            "province": "贵州省",
            "city": "黔西南布依族苗族自治州",
            "district": "贞丰县"
        }
    },
    {
        "id": "7934273868061922100",
        "title": "公共厕所",
        "address": "贵州省黔西南布依族苗族自治州兴义市X602与万峰大道交叉口正南方向39米左右",
        "tel": "",
        "category": "基础设施:公共设施:公共厕所",
        "type": 0,
        "location": {
            "lat": 25.038127,
            "lng": 104.967777
        },
        "ad_info": {
            "adcode": 522301,
            "province": "贵州省",
            "city": "黔西南布依族苗族自治州",
            "district": "兴义市"
        }
    },
    {
        "id": "16303805068148965291",
        "title": "公共厕所",
        "address": "贵州省黔西南布依族苗族自治州贞丰县文笔路与解放路交叉口正东方向71米左右",
        "tel": "",
        "category": "基础设施:公共设施:公共厕所",
        "type": 0,
        "location": {
            "lat": 25.390558,
            "lng": 105.651038
        },
        "ad_info": {
            "adcode": 522325,
            "province": "贵州省",
            "city": "黔西南布依族苗族自治州",
            "district": "贞丰县"
        }
    },
    {
        "id": "1575538109294966836",
        "title": "免费公共厕所",
        "address": "贵州省黔西南布依族苗族自治州册亨县石油路与黄金路交叉口东北方向27米左右",
        "tel": "",
        "category": "基础设施:公共设施:公共厕所",
        "type": 0,
        "location": {
            "lat": 24.982882,
            "lng": 105.809658
        },
        "ad_info": {
            "adcode": 522327,
            "province": "贵州省",
            "city": "黔西南布依族苗族自治州",
            "district": "册亨县"
        }
    },
    {
        "id": "14291185299703989570",
        "title": "公共厕所",
        "address": "贵州省黔西南布依族苗族自治州兴仁市环城东路与解放路商业步行街交叉口正西方向134米左右",
        "tel": "",
        "category": "基础设施:公共设施:公共厕所",
        "type": 0,
        "location": {
            "lat": 25.431972,
            "lng": 105.189325
        },
        "ad_info": {
            "adcode": 522302,
            "province": "贵州省",
            "city": "黔西南布依族苗族自治州",
            "district": "兴仁市"
        }
    },
    {
        "id": "8106925628108971221",
        "title": "公共厕所",
        "address": "贵州省黔西南布依族苗族自治州兴仁市河滨东路与田园路交叉口东北方向21米左右",
        "tel": "",
        "category": "基础设施:公共设施:公共厕所",
        "type": 0,
        "location": {
            "lat": 25.490358,
            "lng": 105.367066
        },
        "ad_info": {
            "adcode": 522302,
            "province": "贵州省",
            "city": "黔西南布依族苗族自治州",
            "district": "兴仁市"
        }
    },
    {
        "id": "1826359916576574598",
        "title": "公共厕所",
        "address": "贵州省黔西南布依族苗族自治州兴仁市X646与兴仁西北环线交叉口西南方向1882米左右",
        "tel": "",
        "category": "基础设施:公共设施:公共厕所",
        "type": 0,
        "location": {
            "lat": 25.508644,
            "lng": 105.198813
        },
        "ad_info": {
            "adcode": 522302,
            "province": "贵州省",
            "city": "黔西南布依族苗族自治州",
            "district": "兴仁市"
        }
    },
    {
        "id": "5686062608173827051",
        "title": "无障碍公共厕所",
        "address": "贵州省黔西南布依族苗族自治州兴义市胜利西路与胜利路交叉口东北方向85米左右",
        "tel": "",
        "category": "基础设施:公共设施:公共厕所",
        "type": 0,
        "location": {
            "lat": 25.0966,
            "lng": 104.8973
        },
        "ad_info": {
            "adcode": 522301,
            "province": "贵州省",
            "city": "黔西南布依族苗族自治州",
            "district": "兴义市"
        }
    },
    {
        "id": "127638382874938794",
        "title": "公共厕所",
        "address": "贵州省黔西南布依族苗族自治州兴义市S105与S309交叉口东北方向275米左右",
        "tel": "",
        "category": "基础设施:公共设施:公共厕所",
        "type": 0,
        "location": {
            "lat": 25.248864,
            "lng": 105.056016
        },
        "ad_info": {
            "adcode": 522301,
            "province": "贵州省",
            "city": "黔西南布依族苗族自治州",
            "district": "兴义市"
        }
    },
    {
        "id": "7772847519640968754",
        "title": "公共厕所",
        "address": "贵州省黔西南布依族苗族自治州安龙县S210与卷洞街交叉口正北方向176米左右",
        "tel": "",
        "category": "基础设施:公共设施:公共厕所",
        "type": 0,
        "location": {
            "lat": 25.127872,
            "lng": 105.457732
        },
        "ad_info": {
            "adcode": 522328,
            "province": "贵州省",
            "city": "黔西南布依族苗族自治州",
            "district": "安龙县"
        }
    },
    {
        "id": "12390110241526122200",
        "title": "公共厕所",
        "address": "贵州省黔西南布依族苗族自治州兴义市开发西路与顶效大道交叉口正西方向51米左右",
        "tel": "",
        "category": "基础设施:公共设施:公共厕所",
        "type": 0,
        "location": {
            "lat": 25.142713,
            "lng": 104.962436
        },
        "ad_info": {
            "adcode": 522301,
            "province": "贵州省",
            "city": "黔西南布依族苗族自治州",
            "district": "兴义市"
        }
    },
    {
        "id": "15153567985920924368",
        "title": "公共厕所",
        "address": "贵州省黔西南布依族苗族自治州贞丰县平安小区北侧220米",
        "tel": "",
        "category": "基础设施:公共设施:公共厕所",
        "type": 0,
        "location": {
            "lat": 25.398344,
            "lng": 105.64094
        },
        "ad_info": {
            "adcode": 522325,
            "province": "贵州省",
            "city": "黔西南布依族苗族自治州",
            "district": "贞丰县"
        }
    },
    {
        "id": "14163899967088309948",
        "title": "公共厕所",
        "address": "贵州省黔西南布依族苗族自治州兴义市册亨路与老街交叉口正北方向18米左右",
        "tel": "",
        "category": "基础设施:公共设施:公共厕所",
        "type": 0,
        "location": {
            "lat": 25.163078,
            "lng": 104.990737
        },
        "ad_info": {
            "adcode": 522301,
            "province": "贵州省",
            "city": "黔西南布依族苗族自治州",
            "district": "兴义市"
        }
    },
    {
        "id": "3855624576018200738",
        "title": "公共厕所",
        "address": "贵州省黔西南布依族苗族自治州晴隆县阿妹戚托小镇",
        "tel": "",
        "category": "基础设施:公共设施:公共厕所",
        "type": 0,
        "location": {
            "lat": 25.829179,
            "lng": 105.243585
        },
        "ad_info": {
            "adcode": 522324,
            "province": "贵州省",
            "city": "黔西南布依族苗族自治州",
            "district": "晴隆县"
        }
    },
    {
        "id": "397460231413705644",
        "title": "公共厕所",
        "address": "贵州省黔西南布依族苗族自治州晴隆县花贡路与长流路交叉口正南方向835米左右",
        "tel": "",
        "category": "基础设施:公共设施:公共厕所",
        "type": 0,
        "location": {
            "lat": 25.827047,
            "lng": 105.248112
        },
        "ad_info": {
            "adcode": 522324,
            "province": "贵州省",
            "city": "黔西南布依族苗族自治州",
            "district": "晴隆县"
        }
    },
    {
        "id": "13353227071506387039",
        "title": "公共厕所",
        "address": "贵州省黔西南布依族苗族自治州册亨县G552",
        "tel": "",
        "category": "基础设施:公共设施:公共厕所",
        "type": 0,
        "location": {
            "lat": 25.058913,
            "lng": 105.95473
        },
        "ad_info": {
            "adcode": 522327,
            "province": "贵州省",
            "city": "黔西南布依族苗族自治州",
            "district": "册亨县"
        }
    },
    {
        "id": "10298512418770291744",
        "title": "公共厕所",
        "address": "贵州省黔西南布依族苗族自治州兴义市泥凼镇中学西侧250米",
        "tel": "",
        "category": "基础设施:公共设施:公共厕所",
        "type": 0,
        "location": {
            "lat": 24.824075,
            "lng": 104.867208
        },
        "ad_info": {
            "adcode": 522301,
            "province": "贵州省",
            "city": "黔西南布依族苗族自治州",
            "district": "兴义市"
        }
    },
    {
        "id": "14545539050598005656",
        "title": "安龙县旅游公共厕所",
        "address": "贵州省黔西南布依族苗族自治州安龙县北环路与西环路交叉口正西方向37米左右",
        "tel": "",
        "category": "基础设施:公共设施:公共厕所",
        "type": 0,
        "location": {
            "lat": 25.110564,
            "lng": 105.471305
        },
        "ad_info": {
            "adcode": 522328,
            "province": "贵州省",
            "city": "黔西南布依族苗族自治州",
            "district": "安龙县"
        }
    },
    {
        "id": "2327016462395200395",
        "title": "公共厕所",
        "address": "贵州省黔西南布依族苗族自治州贞丰县同心路与建设路交叉口东北方向84米左右",
        "tel": "",
        "category": "基础设施:公共设施:公共厕所",
        "type": 0,
        "location": {
            "lat": 25.388875,
            "lng": 105.636019
        },
        "ad_info": {
            "adcode": 522325,
            "province": "贵州省",
            "city": "黔西南布依族苗族自治州",
            "district": "贞丰县"
        }
    },
    {
        "id": "10397905748207615399",
        "title": "公共厕所",
        "address": "贵州省黔西南布依族苗族自治州安龙县",
        "tel": "",
        "category": "基础设施:公共设施:公共厕所",
        "type": 0,
        "location": {
            "lat": 24.954004,
            "lng": 105.127291
        },
        "ad_info": {
            "adcode": 522328,
            "province": "贵州省",
            "city": "黔西南布依族苗族自治州",
            "district": "安龙县"
        }
    },
    {
        "id": "6099636373743324511",
        "title": "格沙屯停车区公共厕所",
        "address": "贵州省黔西南布依族苗族自治州兴仁市格沙屯停车区",
        "tel": "",
        "category": "基础设施:公共设施:公共厕所",
        "type": 0,
        "location": {
            "lat": 25.30719,
            "lng": 105.060211
        },
        "ad_info": {
            "adcode": 522302,
            "province": "贵州省",
            "city": "黔西南布依族苗族自治州",
            "district": "兴仁市"
        }
    },
    {
        "id": "2057799064193447563",
        "title": "公共厕所",
        "address": "贵州省黔西南布依族苗族自治州兴仁市",
        "tel": "",
        "category": "基础设施:公共设施:公共厕所",
        "type": 0,
        "location": {
            "lat": 25.328633,
            "lng": 105.353306
        },
        "ad_info": {
            "adcode": 522302,
            "province": "贵州省",
            "city": "黔西南布依族苗族自治州",
            "district": "兴仁市"
        }
    },
    {
        "id": "14715584439856643687",
        "title": "金州翠湖宾馆-洗手间",
        "address": "贵州省黔西南布依族苗族自治州兴义市桔丰路与桔山大道交叉口正南方向76米左右",
        "tel": "",
        "category": "基础设施:公共设施:公共厕所",
        "type": 0,
        "location": {
            "lat": 25.095911,
            "lng": 104.91809
        },
        "ad_info": {
            "adcode": 522301,
            "province": "贵州省",
            "city": "黔西南布依族苗族自治州",
            "district": "兴义市"
        }
    },
    {
        "id": "11017543016880233890",
        "title": "公共卫生间",
        "address": "贵州省黔西南布依族苗族自治州安龙县",
        "tel": "",
        "category": "基础设施:公共设施:公共厕所",
        "type": 0,
        "location": {
            "lat": 24.955098,
            "lng": 105.12873
        },
        "ad_info": {
            "adcode": 522328,
            "province": "贵州省",
            "city": "黔西南布依族苗族自治州",
            "district": "安龙县"
        }
    },
    {
        "id": "9843041312463055058",
        "title": "普安茶场停车区-公共厕所",
        "address": "贵州省黔西南布依族苗族自治州普安县普安红大道与纳茶西路交叉口东北方向578米左右",
        "tel": "",
        "category": "基础设施:公共设施:公共厕所",
        "type": 0,
        "location": {
            "lat": 25.748832,
            "lng": 105.082296
        },
        "ad_info": {
            "adcode": 522323,
            "province": "贵州省",
            "city": "黔西南布依族苗族自治州",
            "district": "普安县"
        }
    },
    {
        "id": "5590781388432870125",
        "title": "晴隆服务区公共厕所",
        "address": "贵州省黔西南布依族苗族自治州晴隆县石化黔西南晴隆镇胜2站西南侧100米",
        "tel": "",
        "category": "基础设施:公共设施:公共厕所",
        "type": 0,
        "location": {
            "lat": 25.801247,
            "lng": 105.174098
        },
        "ad_info": {
            "adcode": 522324,
            "province": "贵州省",
            "city": "黔西南布依族苗族自治州",
            "district": "晴隆县"
        }
    },
    {
        "id": "6688344876641820235",
        "title": "公共厕所",
        "address": "贵州省黔西南布依族苗族自治州安龙县",
        "tel": "",
        "category": "基础设施:公共设施:公共厕所",
        "type": 0,
        "location": {
            "lat": 24.953308,
            "lng": 105.126194
        },
        "ad_info": {
            "adcode": 522328,
            "province": "贵州省",
            "city": "黔西南布依族苗族自治州",
            "district": "安龙县"
        }
    },
    {
        "id": "9860460414840314990",
        "title": "公共厕所",
        "address": "贵州省黔西南布依族苗族自治州安龙县G324与S315交叉口正南方向1799米",
        "tel": "",
        "category": "基础设施:公共设施:公共厕所",
        "type": 0,
        "location": {
            "lat": 25.100306,
            "lng": 105.299342
        },
        "ad_info": {
            "adcode": 522328,
            "province": "贵州省",
            "city": "黔西南布依族苗族自治州",
            "district": "安龙县"
        }
    },
    {
        "id": "11110650493990978077",
        "title": "田坝停车区公共厕所",
        "address": "贵州省黔西南布依族苗族自治州兴义市汕昆高速",
        "tel": "",
        "category": "基础设施:公共设施:公共厕所",
        "type": 0,
        "location": {
            "lat": 25.068254,
            "lng": 104.708129
        },
        "ad_info": {
            "adcode": 522301,
            "province": "贵州省",
            "city": "黔西南布依族苗族自治州",
            "district": "兴义市"
        }
    },
    {
        "id": "16417501953915765948",
        "title": "鲁屯停车区公共厕所",
        "address": "贵州省黔西南布依族苗族自治州兴义市G78汕昆高速与鲁屯停车区交叉口西260米",
        "tel": "",
        "category": "基础设施:公共设施:公共厕所",
        "type": 0,
        "location": {
            "lat": 25.154427,
            "lng": 105.126419
        },
        "ad_info": {
            "adcode": 522301,
            "province": "贵州省",
            "city": "黔西南布依族苗族自治州",
            "district": "兴义市"
        }
    },
    {
        "id": "12059013886879768247",
        "title": "长耳营服务区公共厕所",
        "address": "贵州省黔西南布依族苗族自治州兴仁市S313与莹石厂分离式桥交叉口西南方向256米左右",
        "tel": "",
        "category": "基础设施:公共设施:公共厕所",
        "type": 0,
        "location": {
            "lat": 25.427365,
            "lng": 105.14035
        },
        "ad_info": {
            "adcode": 522302,
            "province": "贵州省",
            "city": "黔西南布依族苗族自治州",
            "district": "兴仁市"
        }
    },
    {
        "id": "4098229245042729296",
        "title": "公共厕所",
        "address": "贵州省黔西南布依族苗族自治州安龙县安龙大道与泓福商业步行街交叉口东南方向170米左右",
        "tel": "",
        "category": "基础设施:公共设施:公共厕所",
        "type": 0,
        "location": {
            "lat": 25.095078,
            "lng": 105.445819
        },
        "ad_info": {
            "adcode": 522328,
            "province": "贵州省",
            "city": "黔西南布依族苗族自治州",
            "district": "安龙县"
        }
    },
    {
        "id": "10012144979239886965",
        "title": "公共厕所(GZ-QX-0907)",
        "address": "贵州省黔西南布依族苗族自治州望谟县平洞街道办户外劳动者服务站东北侧180米",
        "tel": "",
        "category": "基础设施:公共设施:公共厕所",
        "type": 0,
        "location": {
            "lat": 25.151319,
            "lng": 106.059768
        },
        "ad_info": {
            "adcode": 522326,
            "province": "贵州省",
            "city": "黔西南布依族苗族自治州",
            "district": "望谟县"
        }
    },
    {
        "id": "17768410419320469141",
        "title": "公共厕所",
        "address": "贵州省黔西南布依族苗族自治州安龙县S210与龙城大道交叉口正东方向1934米左右",
        "tel": "",
        "category": "基础设施:公共设施:公共厕所",
        "type": 0,
        "location": {
            "lat": 25.181037,
            "lng": 105.481741
        },
        "ad_info": {
            "adcode": 522328,
            "province": "贵州省",
            "city": "黔西南布依族苗族自治州",
            "district": "安龙县"
        }
    },
    {
        "id": "1357997266163538712",
        "title": "田坝停车区公共厕所",
        "address": "贵州省黔西南布依族苗族自治州兴义市G78汕昆高速附近",
        "tel": "",
        "category": "基础设施:公共设施:公共厕所",
        "type": 0,
        "location": {
            "lat": 25.071284,
            "lng": 104.713356
        },
        "ad_info": {
            "adcode": 522301,
            "province": "贵州省",
            "city": "黔西南布依族苗族自治州",
            "district": "兴义市"
        }
    },
    {
        "id": "13353227071506387039",
        "title": "公共厕所",
        "address": "贵州省黔西南布依族苗族自治州册亨县G552",
        "tel": "",
        "category": "基础设施:公共设施:公共厕所",
        "type": 0,
        "location": {
            "lat": 25.058913,
            "lng": 105.95473
        },
        "ad_info": {
            "adcode": 522327,
            "province": "贵州省",
            "city": "黔西南布依族苗族自治州",
            "district": "册亨县"
        }
    },
    {
        "id": "10298512418770291744",
        "title": "公共厕所",
        "address": "贵州省黔西南布依族苗族自治州兴义市泥凼镇中学西侧250米",
        "tel": "",
        "category": "基础设施:公共设施:公共厕所",
        "type": 0,
        "location": {
            "lat": 24.824075,
            "lng": 104.867208
        },
        "ad_info": {
            "adcode": 522301,
            "province": "贵州省",
            "city": "黔西南布依族苗族自治州",
            "district": "兴义市"
        }
    },
    {
        "id": "14545539050598005656",
        "title": "安龙县旅游公共厕所",
        "address": "贵州省黔西南布依族苗族自治州安龙县北环路与西环路交叉口正西方向37米左右",
        "tel": "",
        "category": "基础设施:公共设施:公共厕所",
        "type": 0,
        "location": {
            "lat": 25.110564,
            "lng": 105.471305
        },
        "ad_info": {
            "adcode": 522328,
            "province": "贵州省",
            "city": "黔西南布依族苗族自治州",
            "district": "安龙县"
        }
    },
    {
        "id": "2327016462395200395",
        "title": "公共厕所",
        "address": "贵州省黔西南布依族苗族自治州贞丰县同心路与建设路交叉口东北方向84米左右",
        "tel": "",
        "category": "基础设施:公共设施:公共厕所",
        "type": 0,
        "location": {
            "lat": 25.388875,
            "lng": 105.636019
        },
        "ad_info": {
            "adcode": 522325,
            "province": "贵州省",
            "city": "黔西南布依族苗族自治州",
            "district": "贞丰县"
        }
    },
    {
        "id": "10397905748207615399",
        "title": "公共厕所",
        "address": "贵州省黔西南布依族苗族自治州安龙县",
        "tel": "",
        "category": "基础设施:公共设施:公共厕所",
        "type": 0,
        "location": {
            "lat": 24.954004,
            "lng": 105.127291
        },
        "ad_info": {
            "adcode": 522328,
            "province": "贵州省",
            "city": "黔西南布依族苗族自治州",
            "district": "安龙县"
        }
    },
    {
        "id": "6099636373743324511",
        "title": "格沙屯停车区公共厕所",
        "address": "贵州省黔西南布依族苗族自治州兴仁市格沙屯停车区",
        "tel": "",
        "category": "基础设施:公共设施:公共厕所",
        "type": 0,
        "location": {
            "lat": 25.30719,
            "lng": 105.060211
        },
        "ad_info": {
            "adcode": 522302,
            "province": "贵州省",
            "city": "黔西南布依族苗族自治州",
            "district": "兴仁市"
        }
    },
    {
        "id": "2057799064193447563",
        "title": "公共厕所",
        "address": "贵州省黔西南布依族苗族自治州兴仁市",
        "tel": "",
        "category": "基础设施:公共设施:公共厕所",
        "type": 0,
        "location": {
            "lat": 25.328633,
            "lng": 105.353306
        },
        "ad_info": {
            "adcode": 522302,
            "province": "贵州省",
            "city": "黔西南布依族苗族自治州",
            "district": "兴仁市"
        }
    },
    {
        "id": "14715584439856643687",
        "title": "金州翠湖宾馆-洗手间",
        "address": "贵州省黔西南布依族苗族自治州兴义市桔丰路与桔山大道交叉口正南方向76米左右",
        "tel": "",
        "category": "基础设施:公共设施:公共厕所",
        "type": 0,
        "location": {
            "lat": 25.095911,
            "lng": 104.91809
        },
        "ad_info": {
            "adcode": 522301,
            "province": "贵州省",
            "city": "黔西南布依族苗族自治州",
            "district": "兴义市"
        }
    },
    {
        "id": "11017543016880233890",
        "title": "公共卫生间",
        "address": "贵州省黔西南布依族苗族自治州安龙县",
        "tel": "",
        "category": "基础设施:公共设施:公共厕所",
        "type": 0,
        "location": {
            "lat": 24.955098,
            "lng": 105.12873
        },
        "ad_info": {
            "adcode": 522328,
            "province": "贵州省",
            "city": "黔西南布依族苗族自治州",
            "district": "安龙县"
        }
    },
    {
        "id": "9843041312463055058",
        "title": "普安茶场停车区-公共厕所",
        "address": "贵州省黔西南布依族苗族自治州普安县普安红大道与纳茶西路交叉口东北方向578米左右",
        "tel": "",
        "category": "基础设施:公共设施:公共厕所",
        "type": 0,
        "location": {
            "lat": 25.748832,
            "lng": 105.082296
        },
        "ad_info": {
            "adcode": 522323,
            "province": "贵州省",
            "city": "黔西南布依族苗族自治州",
            "district": "普安县"
        }
    },
    {
        "id": "5590781388432870125",
        "title": "晴隆服务区公共厕所",
        "address": "贵州省黔西南布依族苗族自治州晴隆县石化黔西南晴隆镇胜2站西南侧100米",
        "tel": "",
        "category": "基础设施:公共设施:公共厕所",
        "type": 0,
        "location": {
            "lat": 25.801247,
            "lng": 105.174098
        },
        "ad_info": {
            "adcode": 522324,
            "province": "贵州省",
            "city": "黔西南布依族苗族自治州",
            "district": "晴隆县"
        }
    },
    {
        "id": "6688344876641820235",
        "title": "公共厕所",
        "address": "贵州省黔西南布依族苗族自治州安龙县",
        "tel": "",
        "category": "基础设施:公共设施:公共厕所",
        "type": 0,
        "location": {
            "lat": 24.953308,
            "lng": 105.126194
        },
        "ad_info": {
            "adcode": 522328,
            "province": "贵州省",
            "city": "黔西南布依族苗族自治州",
            "district": "安龙县"
        }
    },
    {
        "id": "9860460414840314990",
        "title": "公共厕所",
        "address": "贵州省黔西南布依族苗族自治州安龙县G324与S315交叉口正南方向1799米",
        "tel": "",
        "category": "基础设施:公共设施:公共厕所",
        "type": 0,
        "location": {
            "lat": 25.100306,
            "lng": 105.299342
        },
        "ad_info": {
            "adcode": 522328,
            "province": "贵州省",
            "city": "黔西南布依族苗族自治州",
            "district": "安龙县"
        }
    },
    {
        "id": "11110650493990978077",
        "title": "田坝停车区公共厕所",
        "address": "贵州省黔西南布依族苗族自治州兴义市汕昆高速",
        "tel": "",
        "category": "基础设施:公共设施:公共厕所",
        "type": 0,
        "location": {
            "lat": 25.068254,
            "lng": 104.708129
        },
        "ad_info": {
            "adcode": 522301,
            "province": "贵州省",
            "city": "黔西南布依族苗族自治州",
            "district": "兴义市"
        }
    },
    {
        "id": "16417501953915765948",
        "title": "鲁屯停车区公共厕所",
        "address": "贵州省黔西南布依族苗族自治州兴义市G78汕昆高速与鲁屯停车区交叉口西260米",
        "tel": "",
        "category": "基础设施:公共设施:公共厕所",
        "type": 0,
        "location": {
            "lat": 25.154427,
            "lng": 105.126419
        },
        "ad_info": {
            "adcode": 522301,
            "province": "贵州省",
            "city": "黔西南布依族苗族自治州",
            "district": "兴义市"
        }
    },
    {
        "id": "12059013886879768247",
        "title": "长耳营服务区公共厕所",
        "address": "贵州省黔西南布依族苗族自治州兴仁市S313与莹石厂分离式桥交叉口西南方向256米左右",
        "tel": "",
        "category": "基础设施:公共设施:公共厕所",
        "type": 0,
        "location": {
            "lat": 25.427365,
            "lng": 105.14035
        },
        "ad_info": {
            "adcode": 522302,
            "province": "贵州省",
            "city": "黔西南布依族苗族自治州",
            "district": "兴仁市"
        }
    },
    {
        "id": "4098229245042729296",
        "title": "公共厕所",
        "address": "贵州省黔西南布依族苗族自治州安龙县安龙大道与泓福商业步行街交叉口东南方向170米左右",
        "tel": "",
        "category": "基础设施:公共设施:公共厕所",
        "type": 0,
        "location": {
            "lat": 25.095078,
            "lng": 105.445819
        },
        "ad_info": {
            "adcode": 522328,
            "province": "贵州省",
            "city": "黔西南布依族苗族自治州",
            "district": "安龙县"
        }
    },
    {
        "id": "10012144979239886965",
        "title": "公共厕所(GZ-QX-0907)",
        "address": "贵州省黔西南布依族苗族自治州望谟县平洞街道办户外劳动者服务站东北侧180米",
        "tel": "",
        "category": "基础设施:公共设施:公共厕所",
        "type": 0,
        "location": {
            "lat": 25.151319,
            "lng": 106.059768
        },
        "ad_info": {
            "adcode": 522326,
            "province": "贵州省",
            "city": "黔西南布依族苗族自治州",
            "district": "望谟县"
        }
    },
    {
        "id": "17768410419320469141",
        "title": "公共厕所",
        "address": "贵州省黔西南布依族苗族自治州安龙县S210与龙城大道交叉口正东方向1934米左右",
        "tel": "",
        "category": "基础设施:公共设施:公共厕所",
        "type": 0,
        "location": {
            "lat": 25.181037,
            "lng": 105.481741
        },
        "ad_info": {
            "adcode": 522328,
            "province": "贵州省",
            "city": "黔西南布依族苗族自治州",
            "district": "安龙县"
        }
    },
    {
        "id": "1357997266163538712",
        "title": "田坝停车区公共厕所",
        "address": "贵州省黔西南布依族苗族自治州兴义市G78汕昆高速附近",
        "tel": "",
        "category": "基础设施:公共设施:公共厕所",
        "type": 0,
        "location": {
            "lat": 25.071284,
            "lng": 104.713356
        },
        "ad_info": {
            "adcode": 522301,
            "province": "贵州省",
            "city": "黔西南布依族苗族自治州",
            "district": "兴义市"
        }
    },
    {
        "id": "13353227071506387039",
        "title": "公共厕所",
        "address": "贵州省黔西南布依族苗族自治州册亨县G552",
        "tel": "",
        "category": "基础设施:公共设施:公共厕所",
        "type": 0,
        "location": {
            "lat": 25.058913,
            "lng": 105.95473
        },
        "ad_info": {
            "adcode": 522327,
            "province": "贵州省",
            "city": "黔西南布依族苗族自治州",
            "district": "册亨县"
        }
    },
    {
        "id": "10298512418770291744",
        "title": "公共厕所",
        "address": "贵州省黔西南布依族苗族自治州兴义市泥凼镇中学西侧250米",
        "tel": "",
        "category": "基础设施:公共设施:公共厕所",
        "type": 0,
        "location": {
            "lat": 24.824075,
            "lng": 104.867208
        },
        "ad_info": {
            "adcode": 522301,
            "province": "贵州省",
            "city": "黔西南布依族苗族自治州",
            "district": "兴义市"
        }
    },
    {
        "id": "14545539050598005656",
        "title": "安龙县旅游公共厕所",
        "address": "贵州省黔西南布依族苗族自治州安龙县北环路与西环路交叉口正西方向37米左右",
        "tel": "",
        "category": "基础设施:公共设施:公共厕所",
        "type": 0,
        "location": {
            "lat": 25.110564,
            "lng": 105.471305
        },
        "ad_info": {
            "adcode": 522328,
            "province": "贵州省",
            "city": "黔西南布依族苗族自治州",
            "district": "安龙县"
        }
    },
    {
        "id": "2327016462395200395",
        "title": "公共厕所",
        "address": "贵州省黔西南布依族苗族自治州贞丰县同心路与建设路交叉口东北方向84米左右",
        "tel": "",
        "category": "基础设施:公共设施:公共厕所",
        "type": 0,
        "location": {
            "lat": 25.388875,
            "lng": 105.636019
        },
        "ad_info": {
            "adcode": 522325,
            "province": "贵州省",
            "city": "黔西南布依族苗族自治州",
            "district": "贞丰县"
        }
    },
    {
        "id": "10397905748207615399",
        "title": "公共厕所",
        "address": "贵州省黔西南布依族苗族自治州安龙县",
        "tel": "",
        "category": "基础设施:公共设施:公共厕所",
        "type": 0,
        "location": {
            "lat": 24.954004,
            "lng": 105.127291
        },
        "ad_info": {
            "adcode": 522328,
            "province": "贵州省",
            "city": "黔西南布依族苗族自治州",
            "district": "安龙县"
        }
    },
    {
        "id": "6099636373743324511",
        "title": "格沙屯停车区公共厕所",
        "address": "贵州省黔西南布依族苗族自治州兴仁市格沙屯停车区",
        "tel": "",
        "category": "基础设施:公共设施:公共厕所",
        "type": 0,
        "location": {
            "lat": 25.30719,
            "lng": 105.060211
        },
        "ad_info": {
            "adcode": 522302,
            "province": "贵州省",
            "city": "黔西南布依族苗族自治州",
            "district": "兴仁市"
        }
    },
    {
        "id": "2057799064193447563",
        "title": "公共厕所",
        "address": "贵州省黔西南布依族苗族自治州兴仁市",
        "tel": "",
        "category": "基础设施:公共设施:公共厕所",
        "type": 0,
        "location": {
            "lat": 25.328633,
            "lng": 105.353306
        },
        "ad_info": {
            "adcode": 522302,
            "province": "贵州省",
            "city": "黔西南布依族苗族自治州",
            "district": "兴仁市"
        }
    },
    {
        "id": "14715584439856643687",
        "title": "金州翠湖宾馆-洗手间",
        "address": "贵州省黔西南布依族苗族自治州兴义市桔丰路与桔山大道交叉口正南方向76米左右",
        "tel": "",
        "category": "基础设施:公共设施:公共厕所",
        "type": 0,
        "location": {
            "lat": 25.095911,
            "lng": 104.91809
        },
        "ad_info": {
            "adcode": 522301,
            "province": "贵州省",
            "city": "黔西南布依族苗族自治州",
            "district": "兴义市"
        }
    },
    {
        "id": "11017543016880233890",
        "title": "公共卫生间",
        "address": "贵州省黔西南布依族苗族自治州安龙县",
        "tel": "",
        "category": "基础设施:公共设施:公共厕所",
        "type": 0,
        "location": {
            "lat": 24.955098,
            "lng": 105.12873
        },
        "ad_info": {
            "adcode": 522328,
            "province": "贵州省",
            "city": "黔西南布依族苗族自治州",
            "district": "安龙县"
        }
    },
    {
        "id": "9843041312463055058",
        "title": "普安茶场停车区-公共厕所",
        "address": "贵州省黔西南布依族苗族自治州普安县普安红大道与纳茶西路交叉口东北方向578米左右",
        "tel": "",
        "category": "基础设施:公共设施:公共厕所",
        "type": 0,
        "location": {
            "lat": 25.748832,
            "lng": 105.082296
        },
        "ad_info": {
            "adcode": 522323,
            "province": "贵州省",
            "city": "黔西南布依族苗族自治州",
            "district": "普安县"
        }
    },
    {
        "id": "5590781388432870125",
        "title": "晴隆服务区公共厕所",
        "address": "贵州省黔西南布依族苗族自治州晴隆县石化黔西南晴隆镇胜2站西南侧100米",
        "tel": "",
        "category": "基础设施:公共设施:公共厕所",
        "type": 0,
        "location": {
            "lat": 25.801247,
            "lng": 105.174098
        },
        "ad_info": {
            "adcode": 522324,
            "province": "贵州省",
            "city": "黔西南布依族苗族自治州",
            "district": "晴隆县"
        }
    },
    {
        "id": "6688344876641820235",
        "title": "公共厕所",
        "address": "贵州省黔西南布依族苗族自治州安龙县",
        "tel": "",
        "category": "基础设施:公共设施:公共厕所",
        "type": 0,
        "location": {
            "lat": 24.953308,
            "lng": 105.126194
        },
        "ad_info": {
            "adcode": 522328,
            "province": "贵州省",
            "city": "黔西南布依族苗族自治州",
            "district": "安龙县"
        }
    },
    {
        "id": "9860460414840314990",
        "title": "公共厕所",
        "address": "贵州省黔西南布依族苗族自治州安龙县G324与S315交叉口正南方向1799米",
        "tel": "",
        "category": "基础设施:公共设施:公共厕所",
        "type": 0,
        "location": {
            "lat": 25.100306,
            "lng": 105.299342
        },
        "ad_info": {
            "adcode": 522328,
            "province": "贵州省",
            "city": "黔西南布依族苗族自治州",
            "district": "安龙县"
        }
    },
    {
        "id": "11110650493990978077",
        "title": "田坝停车区公共厕所",
        "address": "贵州省黔西南布依族苗族自治州兴义市汕昆高速",
        "tel": "",
        "category": "基础设施:公共设施:公共厕所",
        "type": 0,
        "location": {
            "lat": 25.068254,
            "lng": 104.708129
        },
        "ad_info": {
            "adcode": 522301,
            "province": "贵州省",
            "city": "黔西南布依族苗族自治州",
            "district": "兴义市"
        }
    },
    {
        "id": "16417501953915765948",
        "title": "鲁屯停车区公共厕所",
        "address": "贵州省黔西南布依族苗族自治州兴义市G78汕昆高速与鲁屯停车区交叉口西260米",
        "tel": "",
        "category": "基础设施:公共设施:公共厕所",
        "type": 0,
        "location": {
            "lat": 25.154427,
            "lng": 105.126419
        },
        "ad_info": {
            "adcode": 522301,
            "province": "贵州省",
            "city": "黔西南布依族苗族自治州",
            "district": "兴义市"
        }
    },
    {
        "id": "12059013886879768247",
        "title": "长耳营服务区公共厕所",
        "address": "贵州省黔西南布依族苗族自治州兴仁市S313与莹石厂分离式桥交叉口西南方向256米左右",
        "tel": "",
        "category": "基础设施:公共设施:公共厕所",
        "type": 0,
        "location": {
            "lat": 25.427365,
            "lng": 105.14035
        },
        "ad_info": {
            "adcode": 522302,
            "province": "贵州省",
            "city": "黔西南布依族苗族自治州",
            "district": "兴仁市"
        }
    },
    {
        "id": "4098229245042729296",
        "title": "公共厕所",
        "address": "贵州省黔西南布依族苗族自治州安龙县安龙大道与泓福商业步行街交叉口东南方向170米左右",
        "tel": "",
        "category": "基础设施:公共设施:公共厕所",
        "type": 0,
        "location": {
            "lat": 25.095078,
            "lng": 105.445819
        },
        "ad_info": {
            "adcode": 522328,
            "province": "贵州省",
            "city": "黔西南布依族苗族自治州",
            "district": "安龙县"
        }
    },
    {
        "id": "10012144979239886965",
        "title": "公共厕所(GZ-QX-0907)",
        "address": "贵州省黔西南布依族苗族自治州望谟县平洞街道办户外劳动者服务站东北侧180米",
        "tel": "",
        "category": "基础设施:公共设施:公共厕所",
        "type": 0,
        "location": {
            "lat": 25.151319,
            "lng": 106.059768
        },
        "ad_info": {
            "adcode": 522326,
            "province": "贵州省",
            "city": "黔西南布依族苗族自治州",
            "district": "望谟县"
        }
    },
    {
        "id": "17768410419320469141",
        "title": "公共厕所",
        "address": "贵州省黔西南布依族苗族自治州安龙县S210与龙城大道交叉口正东方向1934米左右",
        "tel": "",
        "category": "基础设施:公共设施:公共厕所",
        "type": 0,
        "location": {
            "lat": 25.181037,
            "lng": 105.481741
        },
        "ad_info": {
            "adcode": 522328,
            "province": "贵州省",
            "city": "黔西南布依族苗族自治州",
            "district": "安龙县"
        }
    },
    {
        "id": "1357997266163538712",
        "title": "田坝停车区公共厕所",
        "address": "贵州省黔西南布依族苗族自治州兴义市G78汕昆高速附近",
        "tel": "",
        "category": "基础设施:公共设施:公共厕所",
        "type": 0,
        "location": {
            "lat": 25.071284,
            "lng": 104.713356
        },
        "ad_info": {
            "adcode": 522301,
            "province": "贵州省",
            "city": "黔西南布依族苗族自治州",
            "district": "兴义市"
        }
    },
    {
        "id": "13353227071506387039",
        "title": "公共厕所",
        "address": "贵州省黔西南布依族苗族自治州册亨县G552",
        "tel": "",
        "category": "基础设施:公共设施:公共厕所",
        "type": 0,
        "location": {
            "lat": 25.058913,
            "lng": 105.95473
        },
        "ad_info": {
            "adcode": 522327,
            "province": "贵州省",
            "city": "黔西南布依族苗族自治州",
            "district": "册亨县"
        }
    },
    {
        "id": "10298512418770291744",
        "title": "公共厕所",
        "address": "贵州省黔西南布依族苗族自治州兴义市泥凼镇中学西侧250米",
        "tel": "",
        "category": "基础设施:公共设施:公共厕所",
        "type": 0,
        "location": {
            "lat": 24.824075,
            "lng": 104.867208
        },
        "ad_info": {
            "adcode": 522301,
            "province": "贵州省",
            "city": "黔西南布依族苗族自治州",
            "district": "兴义市"
        }
    },
    {
        "id": "14545539050598005656",
        "title": "安龙县旅游公共厕所",
        "address": "贵州省黔西南布依族苗族自治州安龙县北环路与西环路交叉口正西方向37米左右",
        "tel": "",
        "category": "基础设施:公共设施:公共厕所",
        "type": 0,
        "location": {
            "lat": 25.110564,
            "lng": 105.471305
        },
        "ad_info": {
            "adcode": 522328,
            "province": "贵州省",
            "city": "黔西南布依族苗族自治州",
            "district": "安龙县"
        }
    },
    {
        "id": "2327016462395200395",
        "title": "公共厕所",
        "address": "贵州省黔西南布依族苗族自治州贞丰县同心路与建设路交叉口东北方向84米左右",
        "tel": "",
        "category": "基础设施:公共设施:公共厕所",
        "type": 0,
        "location": {
            "lat": 25.388875,
            "lng": 105.636019
        },
        "ad_info": {
            "adcode": 522325,
            "province": "贵州省",
            "city": "黔西南布依族苗族自治州",
            "district": "贞丰县"
        }
    },
    {
        "id": "10397905748207615399",
        "title": "公共厕所",
        "address": "贵州省黔西南布依族苗族自治州安龙县",
        "tel": "",
        "category": "基础设施:公共设施:公共厕所",
        "type": 0,
        "location": {
            "lat": 24.954004,
            "lng": 105.127291
        },
        "ad_info": {
            "adcode": 522328,
            "province": "贵州省",
            "city": "黔西南布依族苗族自治州",
            "district": "安龙县"
        }
    },
    {
        "id": "6099636373743324511",
        "title": "格沙屯停车区公共厕所",
        "address": "贵州省黔西南布依族苗族自治州兴仁市格沙屯停车区",
        "tel": "",
        "category": "基础设施:公共设施:公共厕所",
        "type": 0,
        "location": {
            "lat": 25.30719,
            "lng": 105.060211
        },
        "ad_info": {
            "adcode": 522302,
            "province": "贵州省",
            "city": "黔西南布依族苗族自治州",
            "district": "兴仁市"
        }
    },
    {
        "id": "2057799064193447563",
        "title": "公共厕所",
        "address": "贵州省黔西南布依族苗族自治州兴仁市",
        "tel": "",
        "category": "基础设施:公共设施:公共厕所",
        "type": 0,
        "location": {
            "lat": 25.328633,
            "lng": 105.353306
        },
        "ad_info": {
            "adcode": 522302,
            "province": "贵州省",
            "city": "黔西南布依族苗族自治州",
            "district": "兴仁市"
        }
    },
    {
        "id": "14715584439856643687",
        "title": "金州翠湖宾馆-洗手间",
        "address": "贵州省黔西南布依族苗族自治州兴义市桔丰路与桔山大道交叉口正南方向76米左右",
        "tel": "",
        "category": "基础设施:公共设施:公共厕所",
        "type": 0,
        "location": {
            "lat": 25.095911,
            "lng": 104.91809
        },
        "ad_info": {
            "adcode": 522301,
            "province": "贵州省",
            "city": "黔西南布依族苗族自治州",
            "district": "兴义市"
        }
    },
    {
        "id": "11017543016880233890",
        "title": "公共卫生间",
        "address": "贵州省黔西南布依族苗族自治州安龙县",
        "tel": "",
        "category": "基础设施:公共设施:公共厕所",
        "type": 0,
        "location": {
            "lat": 24.955098,
            "lng": 105.12873
        },
        "ad_info": {
            "adcode": 522328,
            "province": "贵州省",
            "city": "黔西南布依族苗族自治州",
            "district": "安龙县"
        }
    },
    {
        "id": "9843041312463055058",
        "title": "普安茶场停车区-公共厕所",
        "address": "贵州省黔西南布依族苗族自治州普安县普安红大道与纳茶西路交叉口东北方向578米左右",
        "tel": "",
        "category": "基础设施:公共设施:公共厕所",
        "type": 0,
        "location": {
            "lat": 25.748832,
            "lng": 105.082296
        },
        "ad_info": {
            "adcode": 522323,
            "province": "贵州省",
            "city": "黔西南布依族苗族自治州",
            "district": "普安县"
        }
    },
    {
        "id": "5590781388432870125",
        "title": "晴隆服务区公共厕所",
        "address": "贵州省黔西南布依族苗族自治州晴隆县石化黔西南晴隆镇胜2站西南侧100米",
        "tel": "",
        "category": "基础设施:公共设施:公共厕所",
        "type": 0,
        "location": {
            "lat": 25.801247,
            "lng": 105.174098
        },
        "ad_info": {
            "adcode": 522324,
            "province": "贵州省",
            "city": "黔西南布依族苗族自治州",
            "district": "晴隆县"
        }
    },
    {
        "id": "6688344876641820235",
        "title": "公共厕所",
        "address": "贵州省黔西南布依族苗族自治州安龙县",
        "tel": "",
        "category": "基础设施:公共设施:公共厕所",
        "type": 0,
        "location": {
            "lat": 24.953308,
            "lng": 105.126194
        },
        "ad_info": {
            "adcode": 522328,
            "province": "贵州省",
            "city": "黔西南布依族苗族自治州",
            "district": "安龙县"
        }
    },
    {
        "id": "9860460414840314990",
        "title": "公共厕所",
        "address": "贵州省黔西南布依族苗族自治州安龙县G324与S315交叉口正南方向1799米",
        "tel": "",
        "category": "基础设施:公共设施:公共厕所",
        "type": 0,
        "location": {
            "lat": 25.100306,
            "lng": 105.299342
        },
        "ad_info": {
            "adcode": 522328,
            "province": "贵州省",
            "city": "黔西南布依族苗族自治州",
            "district": "安龙县"
        }
    },
    {
        "id": "11110650493990978077",
        "title": "田坝停车区公共厕所",
        "address": "贵州省黔西南布依族苗族自治州兴义市汕昆高速",
        "tel": "",
        "category": "基础设施:公共设施:公共厕所",
        "type": 0,
        "location": {
            "lat": 25.068254,
            "lng": 104.708129
        },
        "ad_info": {
            "adcode": 522301,
            "province": "贵州省",
            "city": "黔西南布依族苗族自治州",
            "district": "兴义市"
        }
    },
    {
        "id": "16417501953915765948",
        "title": "鲁屯停车区公共厕所",
        "address": "贵州省黔西南布依族苗族自治州兴义市G78汕昆高速与鲁屯停车区交叉口西260米",
        "tel": "",
        "category": "基础设施:公共设施:公共厕所",
        "type": 0,
        "location": {
            "lat": 25.154427,
            "lng": 105.126419
        },
        "ad_info": {
            "adcode": 522301,
            "province": "贵州省",
            "city": "黔西南布依族苗族自治州",
            "district": "兴义市"
        }
    },
    {
        "id": "12059013886879768247",
        "title": "长耳营服务区公共厕所",
        "address": "贵州省黔西南布依族苗族自治州兴仁市S313与莹石厂分离式桥交叉口西南方向256米左右",
        "tel": "",
        "category": "基础设施:公共设施:公共厕所",
        "type": 0,
        "location": {
            "lat": 25.427365,
            "lng": 105.14035
        },
        "ad_info": {
            "adcode": 522302,
            "province": "贵州省",
            "city": "黔西南布依族苗族自治州",
            "district": "兴仁市"
        }
    },
    {
        "id": "4098229245042729296",
        "title": "公共厕所",
        "address": "贵州省黔西南布依族苗族自治州安龙县安龙大道与泓福商业步行街交叉口东南方向170米左右",
        "tel": "",
        "category": "基础设施:公共设施:公共厕所",
        "type": 0,
        "location": {
            "lat": 25.095078,
            "lng": 105.445819
        },
        "ad_info": {
            "adcode": 522328,
            "province": "贵州省",
            "city": "黔西南布依族苗族自治州",
            "district": "安龙县"
        }
    },
    {
        "id": "10012144979239886965",
        "title": "公共厕所(GZ-QX-0907)",
        "address": "贵州省黔西南布依族苗族自治州望谟县平洞街道办户外劳动者服务站东北侧180米",
        "tel": "",
        "category": "基础设施:公共设施:公共厕所",
        "type": 0,
        "location": {
            "lat": 25.151319,
            "lng": 106.059768
        },
        "ad_info": {
            "adcode": 522326,
            "province": "贵州省",
            "city": "黔西南布依族苗族自治州",
            "district": "望谟县"
        }
    },
    {
        "id": "17768410419320469141",
        "title": "公共厕所",
        "address": "贵州省黔西南布依族苗族自治州安龙县S210与龙城大道交叉口正东方向1934米左右",
        "tel": "",
        "category": "基础设施:公共设施:公共厕所",
        "type": 0,
        "location": {
            "lat": 25.181037,
            "lng": 105.481741
        },
        "ad_info": {
            "adcode": 522328,
            "province": "贵州省",
            "city": "黔西南布依族苗族自治州",
            "district": "安龙县"
        }
    },
    {
        "id": "1357997266163538712",
        "title": "田坝停车区公共厕所",
        "address": "贵州省黔西南布依族苗族自治州兴义市G78汕昆高速附近",
        "tel": "",
        "category": "基础设施:公共设施:公共厕所",
        "type": 0,
        "location": {
            "lat": 25.071284,
            "lng": 104.713356
        },
        "ad_info": {
            "adcode": 522301,
            "province": "贵州省",
            "city": "黔西南布依族苗族自治州",
            "district": "兴义市"
        }
    },
    {
        "id": "13353227071506387039",
        "title": "公共厕所",
        "address": "贵州省黔西南布依族苗族自治州册亨县G552",
        "tel": "",
        "category": "基础设施:公共设施:公共厕所",
        "type": 0,
        "location": {
            "lat": 25.058913,
            "lng": 105.95473
        },
        "ad_info": {
            "adcode": 522327,
            "province": "贵州省",
            "city": "黔西南布依族苗族自治州",
            "district": "册亨县"
        }
    },
    {
        "id": "10298512418770291744",
        "title": "公共厕所",
        "address": "贵州省黔西南布依族苗族自治州兴义市泥凼镇中学西侧250米",
        "tel": "",
        "category": "基础设施:公共设施:公共厕所",
        "type": 0,
        "location": {
            "lat": 24.824075,
            "lng": 104.867208
        },
        "ad_info": {
            "adcode": 522301,
            "province": "贵州省",
            "city": "黔西南布依族苗族自治州",
            "district": "兴义市"
        }
    },
    {
        "id": "14545539050598005656",
        "title": "安龙县旅游公共厕所",
        "address": "贵州省黔西南布依族苗族自治州安龙县北环路与西环路交叉口正西方向37米左右",
        "tel": "",
        "category": "基础设施:公共设施:公共厕所",
        "type": 0,
        "location": {
            "lat": 25.110564,
            "lng": 105.471305
        },
        "ad_info": {
            "adcode": 522328,
            "province": "贵州省",
            "city": "黔西南布依族苗族自治州",
            "district": "安龙县"
        }
    },
    {
        "id": "2327016462395200395",
        "title": "公共厕所",
        "address": "贵州省黔西南布依族苗族自治州贞丰县同心路与建设路交叉口东北方向84米左右",
        "tel": "",
        "category": "基础设施:公共设施:公共厕所",
        "type": 0,
        "location": {
            "lat": 25.388875,
            "lng": 105.636019
        },
        "ad_info": {
            "adcode": 522325,
            "province": "贵州省",
            "city": "黔西南布依族苗族自治州",
            "district": "贞丰县"
        }
    },
    {
        "id": "10397905748207615399",
        "title": "公共厕所",
        "address": "贵州省黔西南布依族苗族自治州安龙县",
        "tel": "",
        "category": "基础设施:公共设施:公共厕所",
        "type": 0,
        "location": {
            "lat": 24.954004,
            "lng": 105.127291
        },
        "ad_info": {
            "adcode": 522328,
            "province": "贵州省",
            "city": "黔西南布依族苗族自治州",
            "district": "安龙县"
        }
    },
    {
        "id": "6099636373743324511",
        "title": "格沙屯停车区公共厕所",
        "address": "贵州省黔西南布依族苗族自治州兴仁市格沙屯停车区",
        "tel": "",
        "category": "基础设施:公共设施:公共厕所",
        "type": 0,
        "location": {
            "lat": 25.30719,
            "lng": 105.060211
        },
        "ad_info": {
            "adcode": 522302,
            "province": "贵州省",
            "city": "黔西南布依族苗族自治州",
            "district": "兴仁市"
        }
    },
    {
        "id": "2057799064193447563",
        "title": "公共厕所",
        "address": "贵州省黔西南布依族苗族自治州兴仁市",
        "tel": "",
        "category": "基础设施:公共设施:公共厕所",
        "type": 0,
        "location": {
            "lat": 25.328633,
            "lng": 105.353306
        },
        "ad_info": {
            "adcode": 522302,
            "province": "贵州省",
            "city": "黔西南布依族苗族自治州",
            "district": "兴仁市"
        }
    },
    {
        "id": "14715584439856643687",
        "title": "金州翠湖宾馆-洗手间",
        "address": "贵州省黔西南布依族苗族自治州兴义市桔丰路与桔山大道交叉口正南方向76米左右",
        "tel": "",
        "category": "基础设施:公共设施:公共厕所",
        "type": 0,
        "location": {
            "lat": 25.095911,
            "lng": 104.91809
        },
        "ad_info": {
            "adcode": 522301,
            "province": "贵州省",
            "city": "黔西南布依族苗族自治州",
            "district": "兴义市"
        }
    },
    {
        "id": "11017543016880233890",
        "title": "公共卫生间",
        "address": "贵州省黔西南布依族苗族自治州安龙县",
        "tel": "",
        "category": "基础设施:公共设施:公共厕所",
        "type": 0,
        "location": {
            "lat": 24.955098,
            "lng": 105.12873
        },
        "ad_info": {
            "adcode": 522328,
            "province": "贵州省",
            "city": "黔西南布依族苗族自治州",
            "district": "安龙县"
        }
    },
    {
        "id": "9843041312463055058",
        "title": "普安茶场停车区-公共厕所",
        "address": "贵州省黔西南布依族苗族自治州普安县普安红大道与纳茶西路交叉口东北方向578米左右",
        "tel": "",
        "category": "基础设施:公共设施:公共厕所",
        "type": 0,
        "location": {
            "lat": 25.748832,
            "lng": 105.082296
        },
        "ad_info": {
            "adcode": 522323,
            "province": "贵州省",
            "city": "黔西南布依族苗族自治州",
            "district": "普安县"
        }
    },
    {
        "id": "5590781388432870125",
        "title": "晴隆服务区公共厕所",
        "address": "贵州省黔西南布依族苗族自治州晴隆县石化黔西南晴隆镇胜2站西南侧100米",
        "tel": "",
        "category": "基础设施:公共设施:公共厕所",
        "type": 0,
        "location": {
            "lat": 25.801247,
            "lng": 105.174098
        },
        "ad_info": {
            "adcode": 522324,
            "province": "贵州省",
            "city": "黔西南布依族苗族自治州",
            "district": "晴隆县"
        }
    },
    {
        "id": "6688344876641820235",
        "title": "公共厕所",
        "address": "贵州省黔西南布依族苗族自治州安龙县",
        "tel": "",
        "category": "基础设施:公共设施:公共厕所",
        "type": 0,
        "location": {
            "lat": 24.953308,
            "lng": 105.126194
        },
        "ad_info": {
            "adcode": 522328,
            "province": "贵州省",
            "city": "黔西南布依族苗族自治州",
            "district": "安龙县"
        }
    },
    {
        "id": "9860460414840314990",
        "title": "公共厕所",
        "address": "贵州省黔西南布依族苗族自治州安龙县G324与S315交叉口正南方向1799米",
        "tel": "",
        "category": "基础设施:公共设施:公共厕所",
        "type": 0,
        "location": {
            "lat": 25.100306,
            "lng": 105.299342
        },
        "ad_info": {
            "adcode": 522328,
            "province": "贵州省",
            "city": "黔西南布依族苗族自治州",
            "district": "安龙县"
        }
    },
    {
        "id": "11110650493990978077",
        "title": "田坝停车区公共厕所",
        "address": "贵州省黔西南布依族苗族自治州兴义市汕昆高速",
        "tel": "",
        "category": "基础设施:公共设施:公共厕所",
        "type": 0,
        "location": {
            "lat": 25.068254,
            "lng": 104.708129
        },
        "ad_info": {
            "adcode": 522301,
            "province": "贵州省",
            "city": "黔西南布依族苗族自治州",
            "district": "兴义市"
        }
    },
    {
        "id": "16417501953915765948",
        "title": "鲁屯停车区公共厕所",
        "address": "贵州省黔西南布依族苗族自治州兴义市G78汕昆高速与鲁屯停车区交叉口西260米",
        "tel": "",
        "category": "基础设施:公共设施:公共厕所",
        "type": 0,
        "location": {
            "lat": 25.154427,
            "lng": 105.126419
        },
        "ad_info": {
            "adcode": 522301,
            "province": "贵州省",
            "city": "黔西南布依族苗族自治州",
            "district": "兴义市"
        }
    },
    {
        "id": "12059013886879768247",
        "title": "长耳营服务区公共厕所",
        "address": "贵州省黔西南布依族苗族自治州兴仁市S313与莹石厂分离式桥交叉口西南方向256米左右",
        "tel": "",
        "category": "基础设施:公共设施:公共厕所",
        "type": 0,
        "location": {
            "lat": 25.427365,
            "lng": 105.14035
        },
        "ad_info": {
            "adcode": 522302,
            "province": "贵州省",
            "city": "黔西南布依族苗族自治州",
            "district": "兴仁市"
        }
    },
    {
        "id": "4098229245042729296",
        "title": "公共厕所",
        "address": "贵州省黔西南布依族苗族自治州安龙县安龙大道与泓福商业步行街交叉口东南方向170米左右",
        "tel": "",
        "category": "基础设施:公共设施:公共厕所",
        "type": 0,
        "location": {
            "lat": 25.095078,
            "lng": 105.445819
        },
        "ad_info": {
            "adcode": 522328,
            "province": "贵州省",
            "city": "黔西南布依族苗族自治州",
            "district": "安龙县"
        }
    },
    {
        "id": "10012144979239886965",
        "title": "公共厕所(GZ-QX-0907)",
        "address": "贵州省黔西南布依族苗族自治州望谟县平洞街道办户外劳动者服务站东北侧180米",
        "tel": "",
        "category": "基础设施:公共设施:公共厕所",
        "type": 0,
        "location": {
            "lat": 25.151319,
            "lng": 106.059768
        },
        "ad_info": {
            "adcode": 522326,
            "province": "贵州省",
            "city": "黔西南布依族苗族自治州",
            "district": "望谟县"
        }
    },
    {
        "id": "17768410419320469141",
        "title": "公共厕所",
        "address": "贵州省黔西南布依族苗族自治州安龙县S210与龙城大道交叉口正东方向1934米左右",
        "tel": "",
        "category": "基础设施:公共设施:公共厕所",
        "type": 0,
        "location": {
            "lat": 25.181037,
            "lng": 105.481741
        },
        "ad_info": {
            "adcode": 522328,
            "province": "贵州省",
            "city": "黔西南布依族苗族自治州",
            "district": "安龙县"
        }
    },
    {
        "id": "1357997266163538712",
        "title": "田坝停车区公共厕所",
        "address": "贵州省黔西南布依族苗族自治州兴义市G78汕昆高速附近",
        "tel": "",
        "category": "基础设施:公共设施:公共厕所",
        "type": 0,
        "location": {
            "lat": 25.071284,
            "lng": 104.713356
        },
        "ad_info": {
            "adcode": 522301,
            "province": "贵州省",
            "city": "黔西南布依族苗族自治州",
            "district": "兴义市"
        }
    },
    {
        "id": "13353227071506387039",
        "title": "公共厕所",
        "address": "贵州省黔西南布依族苗族自治州册亨县G552",
        "tel": "",
        "category": "基础设施:公共设施:公共厕所",
        "type": 0,
        "location": {
            "lat": 25.058913,
            "lng": 105.95473
        },
        "ad_info": {
            "adcode": 522327,
            "province": "贵州省",
            "city": "黔西南布依族苗族自治州",
            "district": "册亨县"
        }
    },
    {
        "id": "10298512418770291744",
        "title": "公共厕所",
        "address": "贵州省黔西南布依族苗族自治州兴义市泥凼镇中学西侧250米",
        "tel": "",
        "category": "基础设施:公共设施:公共厕所",
        "type": 0,
        "location": {
            "lat": 24.824075,
            "lng": 104.867208
        },
        "ad_info": {
            "adcode": 522301,
            "province": "贵州省",
            "city": "黔西南布依族苗族自治州",
            "district": "兴义市"
        }
    },
    {
        "id": "14545539050598005656",
        "title": "安龙县旅游公共厕所",
        "address": "贵州省黔西南布依族苗族自治州安龙县北环路与西环路交叉口正西方向37米左右",
        "tel": "",
        "category": "基础设施:公共设施:公共厕所",
        "type": 0,
        "location": {
            "lat": 25.110564,
            "lng": 105.471305
        },
        "ad_info": {
            "adcode": 522328,
            "province": "贵州省",
            "city": "黔西南布依族苗族自治州",
            "district": "安龙县"
        }
    },
    {
        "id": "2327016462395200395",
        "title": "公共厕所",
        "address": "贵州省黔西南布依族苗族自治州贞丰县同心路与建设路交叉口东北方向84米左右",
        "tel": "",
        "category": "基础设施:公共设施:公共厕所",
        "type": 0,
        "location": {
            "lat": 25.388875,
            "lng": 105.636019
        },
        "ad_info": {
            "adcode": 522325,
            "province": "贵州省",
            "city": "黔西南布依族苗族自治州",
            "district": "贞丰县"
        }
    },
    {
        "id": "10397905748207615399",
        "title": "公共厕所",
        "address": "贵州省黔西南布依族苗族自治州安龙县",
        "tel": "",
        "category": "基础设施:公共设施:公共厕所",
        "type": 0,
        "location": {
            "lat": 24.954004,
            "lng": 105.127291
        },
        "ad_info": {
            "adcode": 522328,
            "province": "贵州省",
            "city": "黔西南布依族苗族自治州",
            "district": "安龙县"
        }
    },
    {
        "id": "6099636373743324511",
        "title": "格沙屯停车区公共厕所",
        "address": "贵州省黔西南布依族苗族自治州兴仁市格沙屯停车区",
        "tel": "",
        "category": "基础设施:公共设施:公共厕所",
        "type": 0,
        "location": {
            "lat": 25.30719,
            "lng": 105.060211
        },
        "ad_info": {
            "adcode": 522302,
            "province": "贵州省",
            "city": "黔西南布依族苗族自治州",
            "district": "兴仁市"
        }
    },
    {
        "id": "2057799064193447563",
        "title": "公共厕所",
        "address": "贵州省黔西南布依族苗族自治州兴仁市",
        "tel": "",
        "category": "基础设施:公共设施:公共厕所",
        "type": 0,
        "location": {
            "lat": 25.328633,
            "lng": 105.353306
        },
        "ad_info": {
            "adcode": 522302,
            "province": "贵州省",
            "city": "黔西南布依族苗族自治州",
            "district": "兴仁市"
        }
    },
    {
        "id": "14715584439856643687",
        "title": "金州翠湖宾馆-洗手间",
        "address": "贵州省黔西南布依族苗族自治州兴义市桔丰路与桔山大道交叉口正南方向76米左右",
        "tel": "",
        "category": "基础设施:公共设施:公共厕所",
        "type": 0,
        "location": {
            "lat": 25.095911,
            "lng": 104.91809
        },
        "ad_info": {
            "adcode": 522301,
            "province": "贵州省",
            "city": "黔西南布依族苗族自治州",
            "district": "兴义市"
        }
    },
    {
        "id": "11017543016880233890",
        "title": "公共卫生间",
        "address": "贵州省黔西南布依族苗族自治州安龙县",
        "tel": "",
        "category": "基础设施:公共设施:公共厕所",
        "type": 0,
        "location": {
            "lat": 24.955098,
            "lng": 105.12873
        },
        "ad_info": {
            "adcode": 522328,
            "province": "贵州省",
            "city": "黔西南布依族苗族自治州",
            "district": "安龙县"
        }
    },
    {
        "id": "9843041312463055058",
        "title": "普安茶场停车区-公共厕所",
        "address": "贵州省黔西南布依族苗族自治州普安县普安红大道与纳茶西路交叉口东北方向578米左右",
        "tel": "",
        "category": "基础设施:公共设施:公共厕所",
        "type": 0,
        "location": {
            "lat": 25.748832,
            "lng": 105.082296
        },
        "ad_info": {
            "adcode": 522323,
            "province": "贵州省",
            "city": "黔西南布依族苗族自治州",
            "district": "普安县"
        }
    },
    {
        "id": "5590781388432870125",
        "title": "晴隆服务区公共厕所",
        "address": "贵州省黔西南布依族苗族自治州晴隆县石化黔西南晴隆镇胜2站西南侧100米",
        "tel": "",
        "category": "基础设施:公共设施:公共厕所",
        "type": 0,
        "location": {
            "lat": 25.801247,
            "lng": 105.174098
        },
        "ad_info": {
            "adcode": 522324,
            "province": "贵州省",
            "city": "黔西南布依族苗族自治州",
            "district": "晴隆县"
        }
    },
    {
        "id": "6688344876641820235",
        "title": "公共厕所",
        "address": "贵州省黔西南布依族苗族自治州安龙县",
        "tel": "",
        "category": "基础设施:公共设施:公共厕所",
        "type": 0,
        "location": {
            "lat": 24.953308,
            "lng": 105.126194
        },
        "ad_info": {
            "adcode": 522328,
            "province": "贵州省",
            "city": "黔西南布依族苗族自治州",
            "district": "安龙县"
        }
    },
    {
        "id": "9860460414840314990",
        "title": "公共厕所",
        "address": "贵州省黔西南布依族苗族自治州安龙县G324与S315交叉口正南方向1799米",
        "tel": "",
        "category": "基础设施:公共设施:公共厕所",
        "type": 0,
        "location": {
            "lat": 25.100306,
            "lng": 105.299342
        },
        "ad_info": {
            "adcode": 522328,
            "province": "贵州省",
            "city": "黔西南布依族苗族自治州",
            "district": "安龙县"
        }
    },
    {
        "id": "11110650493990978077",
        "title": "田坝停车区公共厕所",
        "address": "贵州省黔西南布依族苗族自治州兴义市汕昆高速",
        "tel": "",
        "category": "基础设施:公共设施:公共厕所",
        "type": 0,
        "location": {
            "lat": 25.068254,
            "lng": 104.708129
        },
        "ad_info": {
            "adcode": 522301,
            "province": "贵州省",
            "city": "黔西南布依族苗族自治州",
            "district": "兴义市"
        }
    },
    {
        "id": "16417501953915765948",
        "title": "鲁屯停车区公共厕所",
        "address": "贵州省黔西南布依族苗族自治州兴义市G78汕昆高速与鲁屯停车区交叉口西260米",
        "tel": "",
        "category": "基础设施:公共设施:公共厕所",
        "type": 0,
        "location": {
            "lat": 25.154427,
            "lng": 105.126419
        },
        "ad_info": {
            "adcode": 522301,
            "province": "贵州省",
            "city": "黔西南布依族苗族自治州",
            "district": "兴义市"
        }
    },
    {
        "id": "12059013886879768247",
        "title": "长耳营服务区公共厕所",
        "address": "贵州省黔西南布依族苗族自治州兴仁市S313与莹石厂分离式桥交叉口西南方向256米左右",
        "tel": "",
        "category": "基础设施:公共设施:公共厕所",
        "type": 0,
        "location": {
            "lat": 25.427365,
            "lng": 105.14035
        },
        "ad_info": {
            "adcode": 522302,
            "province": "贵州省",
            "city": "黔西南布依族苗族自治州",
            "district": "兴仁市"
        }
    },
    {
        "id": "4098229245042729296",
        "title": "公共厕所",
        "address": "贵州省黔西南布依族苗族自治州安龙县安龙大道与泓福商业步行街交叉口东南方向170米左右",
        "tel": "",
        "category": "基础设施:公共设施:公共厕所",
        "type": 0,
        "location": {
            "lat": 25.095078,
            "lng": 105.445819
        },
        "ad_info": {
            "adcode": 522328,
            "province": "贵州省",
            "city": "黔西南布依族苗族自治州",
            "district": "安龙县"
        }
    },
    {
        "id": "10012144979239886965",
        "title": "公共厕所(GZ-QX-0907)",
        "address": "贵州省黔西南布依族苗族自治州望谟县平洞街道办户外劳动者服务站东北侧180米",
        "tel": "",
        "category": "基础设施:公共设施:公共厕所",
        "type": 0,
        "location": {
            "lat": 25.151319,
            "lng": 106.059768
        },
        "ad_info": {
            "adcode": 522326,
            "province": "贵州省",
            "city": "黔西南布依族苗族自治州",
            "district": "望谟县"
        }
    },
    {
        "id": "17768410419320469141",
        "title": "公共厕所",
        "address": "贵州省黔西南布依族苗族自治州安龙县S210与龙城大道交叉口正东方向1934米左右",
        "tel": "",
        "category": "基础设施:公共设施:公共厕所",
        "type": 0,
        "location": {
            "lat": 25.181037,
            "lng": 105.481741
        },
        "ad_info": {
            "adcode": 522328,
            "province": "贵州省",
            "city": "黔西南布依族苗族自治州",
            "district": "安龙县"
        }
    },
    {
        "id": "1357997266163538712",
        "title": "田坝停车区公共厕所",
        "address": "贵州省黔西南布依族苗族自治州兴义市G78汕昆高速附近",
        "tel": "",
        "category": "基础设施:公共设施:公共厕所",
        "type": 0,
        "location": {
            "lat": 25.071284,
            "lng": 104.713356
        },
        "ad_info": {
            "adcode": 522301,
            "province": "贵州省",
            "city": "黔西南布依族苗族自治州",
            "district": "兴义市"
        }
    },
    {
        "id": "13353227071506387039",
        "title": "公共厕所",
        "address": "贵州省黔西南布依族苗族自治州册亨县G552",
        "tel": "",
        "category": "基础设施:公共设施:公共厕所",
        "type": 0,
        "location": {
            "lat": 25.058913,
            "lng": 105.95473
        },
        "ad_info": {
            "adcode": 522327,
            "province": "贵州省",
            "city": "黔西南布依族苗族自治州",
            "district": "册亨县"
        }
    },
    {
        "id": "10298512418770291744",
        "title": "公共厕所",
        "address": "贵州省黔西南布依族苗族自治州兴义市泥凼镇中学西侧250米",
        "tel": "",
        "category": "基础设施:公共设施:公共厕所",
        "type": 0,
        "location": {
            "lat": 24.824075,
            "lng": 104.867208
        },
        "ad_info": {
            "adcode": 522301,
            "province": "贵州省",
            "city": "黔西南布依族苗族自治州",
            "district": "兴义市"
        }
    },
    {
        "id": "14545539050598005656",
        "title": "安龙县旅游公共厕所",
        "address": "贵州省黔西南布依族苗族自治州安龙县北环路与西环路交叉口正西方向37米左右",
        "tel": "",
        "category": "基础设施:公共设施:公共厕所",
        "type": 0,
        "location": {
            "lat": 25.110564,
            "lng": 105.471305
        },
        "ad_info": {
            "adcode": 522328,
            "province": "贵州省",
            "city": "黔西南布依族苗族自治州",
            "district": "安龙县"
        }
    },
    {
        "id": "2327016462395200395",
        "title": "公共厕所",
        "address": "贵州省黔西南布依族苗族自治州贞丰县同心路与建设路交叉口东北方向84米左右",
        "tel": "",
        "category": "基础设施:公共设施:公共厕所",
        "type": 0,
        "location": {
            "lat": 25.388875,
            "lng": 105.636019
        },
        "ad_info": {
            "adcode": 522325,
            "province": "贵州省",
            "city": "黔西南布依族苗族自治州",
            "district": "贞丰县"
        }
    },
    {
        "id": "10397905748207615399",
        "title": "公共厕所",
        "address": "贵州省黔西南布依族苗族自治州安龙县",
        "tel": "",
        "category": "基础设施:公共设施:公共厕所",
        "type": 0,
        "location": {
            "lat": 24.954004,
            "lng": 105.127291
        },
        "ad_info": {
            "adcode": 522328,
            "province": "贵州省",
            "city": "黔西南布依族苗族自治州",
            "district": "安龙县"
        }
    },
    {
        "id": "6099636373743324511",
        "title": "格沙屯停车区公共厕所",
        "address": "贵州省黔西南布依族苗族自治州兴仁市格沙屯停车区",
        "tel": "",
        "category": "基础设施:公共设施:公共厕所",
        "type": 0,
        "location": {
            "lat": 25.30719,
            "lng": 105.060211
        },
        "ad_info": {
            "adcode": 522302,
            "province": "贵州省",
            "city": "黔西南布依族苗族自治州",
            "district": "兴仁市"
        }
    },
    {
        "id": "2057799064193447563",
        "title": "公共厕所",
        "address": "贵州省黔西南布依族苗族自治州兴仁市",
        "tel": "",
        "category": "基础设施:公共设施:公共厕所",
        "type": 0,
        "location": {
            "lat": 25.328633,
            "lng": 105.353306
        },
        "ad_info": {
            "adcode": 522302,
            "province": "贵州省",
            "city": "黔西南布依族苗族自治州",
            "district": "兴仁市"
        }
    },
    {
        "id": "14715584439856643687",
        "title": "金州翠湖宾馆-洗手间",
        "address": "贵州省黔西南布依族苗族自治州兴义市桔丰路与桔山大道交叉口正南方向76米左右",
        "tel": "",
        "category": "基础设施:公共设施:公共厕所",
        "type": 0,
        "location": {
            "lat": 25.095911,
            "lng": 104.91809
        },
        "ad_info": {
            "adcode": 522301,
            "province": "贵州省",
            "city": "黔西南布依族苗族自治州",
            "district": "兴义市"
        }
    },
    {
        "id": "11017543016880233890",
        "title": "公共卫生间",
        "address": "贵州省黔西南布依族苗族自治州安龙县",
        "tel": "",
        "category": "基础设施:公共设施:公共厕所",
        "type": 0,
        "location": {
            "lat": 24.955098,
            "lng": 105.12873
        },
        "ad_info": {
            "adcode": 522328,
            "province": "贵州省",
            "city": "黔西南布依族苗族自治州",
            "district": "安龙县"
        }
    },
    {
        "id": "9843041312463055058",
        "title": "普安茶场停车区-公共厕所",
        "address": "贵州省黔西南布依族苗族自治州普安县普安红大道与纳茶西路交叉口东北方向578米左右",
        "tel": "",
        "category": "基础设施:公共设施:公共厕所",
        "type": 0,
        "location": {
            "lat": 25.748832,
            "lng": 105.082296
        },
        "ad_info": {
            "adcode": 522323,
            "province": "贵州省",
            "city": "黔西南布依族苗族自治州",
            "district": "普安县"
        }
    },
    {
        "id": "5590781388432870125",
        "title": "晴隆服务区公共厕所",
        "address": "贵州省黔西南布依族苗族自治州晴隆县石化黔西南晴隆镇胜2站西南侧100米",
        "tel": "",
        "category": "基础设施:公共设施:公共厕所",
        "type": 0,
        "location": {
            "lat": 25.801247,
            "lng": 105.174098
        },
        "ad_info": {
            "adcode": 522324,
            "province": "贵州省",
            "city": "黔西南布依族苗族自治州",
            "district": "晴隆县"
        }
    },
    {
        "id": "6688344876641820235",
        "title": "公共厕所",
        "address": "贵州省黔西南布依族苗族自治州安龙县",
        "tel": "",
        "category": "基础设施:公共设施:公共厕所",
        "type": 0,
        "location": {
            "lat": 24.953308,
            "lng": 105.126194
        },
        "ad_info": {
            "adcode": 522328,
            "province": "贵州省",
            "city": "黔西南布依族苗族自治州",
            "district": "安龙县"
        }
    },
    {
        "id": "9860460414840314990",
        "title": "公共厕所",
        "address": "贵州省黔西南布依族苗族自治州安龙县G324与S315交叉口正南方向1799米",
        "tel": "",
        "category": "基础设施:公共设施:公共厕所",
        "type": 0,
        "location": {
            "lat": 25.100306,
            "lng": 105.299342
        },
        "ad_info": {
            "adcode": 522328,
            "province": "贵州省",
            "city": "黔西南布依族苗族自治州",
            "district": "安龙县"
        }
    },
    {
        "id": "11110650493990978077",
        "title": "田坝停车区公共厕所",
        "address": "贵州省黔西南布依族苗族自治州兴义市汕昆高速",
        "tel": "",
        "category": "基础设施:公共设施:公共厕所",
        "type": 0,
        "location": {
            "lat": 25.068254,
            "lng": 104.708129
        },
        "ad_info": {
            "adcode": 522301,
            "province": "贵州省",
            "city": "黔西南布依族苗族自治州",
            "district": "兴义市"
        }
    },
    {
        "id": "16417501953915765948",
        "title": "鲁屯停车区公共厕所",
        "address": "贵州省黔西南布依族苗族自治州兴义市G78汕昆高速与鲁屯停车区交叉口西260米",
        "tel": "",
        "category": "基础设施:公共设施:公共厕所",
        "type": 0,
        "location": {
            "lat": 25.154427,
            "lng": 105.126419
        },
        "ad_info": {
            "adcode": 522301,
            "province": "贵州省",
            "city": "黔西南布依族苗族自治州",
            "district": "兴义市"
        }
    },
    {
        "id": "12059013886879768247",
        "title": "长耳营服务区公共厕所",
        "address": "贵州省黔西南布依族苗族自治州兴仁市S313与莹石厂分离式桥交叉口西南方向256米左右",
        "tel": "",
        "category": "基础设施:公共设施:公共厕所",
        "type": 0,
        "location": {
            "lat": 25.427365,
            "lng": 105.14035
        },
        "ad_info": {
            "adcode": 522302,
            "province": "贵州省",
            "city": "黔西南布依族苗族自治州",
            "district": "兴仁市"
        }
    },
    {
        "id": "4098229245042729296",
        "title": "公共厕所",
        "address": "贵州省黔西南布依族苗族自治州安龙县安龙大道与泓福商业步行街交叉口东南方向170米左右",
        "tel": "",
        "category": "基础设施:公共设施:公共厕所",
        "type": 0,
        "location": {
            "lat": 25.095078,
            "lng": 105.445819
        },
        "ad_info": {
            "adcode": 522328,
            "province": "贵州省",
            "city": "黔西南布依族苗族自治州",
            "district": "安龙县"
        }
    },
    {
        "id": "10012144979239886965",
        "title": "公共厕所(GZ-QX-0907)",
        "address": "贵州省黔西南布依族苗族自治州望谟县平洞街道办户外劳动者服务站东北侧180米",
        "tel": "",
        "category": "基础设施:公共设施:公共厕所",
        "type": 0,
        "location": {
            "lat": 25.151319,
            "lng": 106.059768
        },
        "ad_info": {
            "adcode": 522326,
            "province": "贵州省",
            "city": "黔西南布依族苗族自治州",
            "district": "望谟县"
        }
    },
    {
        "id": "17768410419320469141",
        "title": "公共厕所",
        "address": "贵州省黔西南布依族苗族自治州安龙县S210与龙城大道交叉口正东方向1934米左右",
        "tel": "",
        "category": "基础设施:公共设施:公共厕所",
        "type": 0,
        "location": {
            "lat": 25.181037,
            "lng": 105.481741
        },
        "ad_info": {
            "adcode": 522328,
            "province": "贵州省",
            "city": "黔西南布依族苗族自治州",
            "district": "安龙县"
        }
    },
    {
        "id": "1357997266163538712",
        "title": "田坝停车区公共厕所",
        "address": "贵州省黔西南布依族苗族自治州兴义市G78汕昆高速附近",
        "tel": "",
        "category": "基础设施:公共设施:公共厕所",
        "type": 0,
        "location": {
            "lat": 25.071284,
            "lng": 104.713356
        },
        "ad_info": {
            "adcode": 522301,
            "province": "贵州省",
            "city": "黔西南布依族苗族自治州",
            "district": "兴义市"
        }
    },
    {
        "id": "13353227071506387039",
        "title": "公共厕所",
        "address": "贵州省黔西南布依族苗族自治州册亨县G552",
        "tel": "",
        "category": "基础设施:公共设施:公共厕所",
        "type": 0,
        "location": {
            "lat": 25.058913,
            "lng": 105.95473
        },
        "ad_info": {
            "adcode": 522327,
            "province": "贵州省",
            "city": "黔西南布依族苗族自治州",
            "district": "册亨县"
        }
    },
    {
        "id": "10298512418770291744",
        "title": "公共厕所",
        "address": "贵州省黔西南布依族苗族自治州兴义市泥凼镇中学西侧250米",
        "tel": "",
        "category": "基础设施:公共设施:公共厕所",
        "type": 0,
        "location": {
            "lat": 24.824075,
            "lng": 104.867208
        },
        "ad_info": {
            "adcode": 522301,
            "province": "贵州省",
            "city": "黔西南布依族苗族自治州",
            "district": "兴义市"
        }
    },
    {
        "id": "14545539050598005656",
        "title": "安龙县旅游公共厕所",
        "address": "贵州省黔西南布依族苗族自治州安龙县北环路与西环路交叉口正西方向37米左右",
        "tel": "",
        "category": "基础设施:公共设施:公共厕所",
        "type": 0,
        "location": {
            "lat": 25.110564,
            "lng": 105.471305
        },
        "ad_info": {
            "adcode": 522328,
            "province": "贵州省",
            "city": "黔西南布依族苗族自治州",
            "district": "安龙县"
        }
    },
    {
        "id": "2327016462395200395",
        "title": "公共厕所",
        "address": "贵州省黔西南布依族苗族自治州贞丰县同心路与建设路交叉口东北方向84米左右",
        "tel": "",
        "category": "基础设施:公共设施:公共厕所",
        "type": 0,
        "location": {
            "lat": 25.388875,
            "lng": 105.636019
        },
        "ad_info": {
            "adcode": 522325,
            "province": "贵州省",
            "city": "黔西南布依族苗族自治州",
            "district": "贞丰县"
        }
    },
    {
        "id": "10397905748207615399",
        "title": "公共厕所",
        "address": "贵州省黔西南布依族苗族自治州安龙县",
        "tel": "",
        "category": "基础设施:公共设施:公共厕所",
        "type": 0,
        "location": {
            "lat": 24.954004,
            "lng": 105.127291
        },
        "ad_info": {
            "adcode": 522328,
            "province": "贵州省",
            "city": "黔西南布依族苗族自治州",
            "district": "安龙县"
        }
    },
    {
        "id": "6099636373743324511",
        "title": "格沙屯停车区公共厕所",
        "address": "贵州省黔西南布依族苗族自治州兴仁市格沙屯停车区",
        "tel": "",
        "category": "基础设施:公共设施:公共厕所",
        "type": 0,
        "location": {
            "lat": 25.30719,
            "lng": 105.060211
        },
        "ad_info": {
            "adcode": 522302,
            "province": "贵州省",
            "city": "黔西南布依族苗族自治州",
            "district": "兴仁市"
        }
    },
    {
        "id": "2057799064193447563",
        "title": "公共厕所",
        "address": "贵州省黔西南布依族苗族自治州兴仁市",
        "tel": "",
        "category": "基础设施:公共设施:公共厕所",
        "type": 0,
        "location": {
            "lat": 25.328633,
            "lng": 105.353306
        },
        "ad_info": {
            "adcode": 522302,
            "province": "贵州省",
            "city": "黔西南布依族苗族自治州",
            "district": "兴仁市"
        }
    },
    {
        "id": "14715584439856643687",
        "title": "金州翠湖宾馆-洗手间",
        "address": "贵州省黔西南布依族苗族自治州兴义市桔丰路与桔山大道交叉口正南方向76米左右",
        "tel": "",
        "category": "基础设施:公共设施:公共厕所",
        "type": 0,
        "location": {
            "lat": 25.095911,
            "lng": 104.91809
        },
        "ad_info": {
            "adcode": 522301,
            "province": "贵州省",
            "city": "黔西南布依族苗族自治州",
            "district": "兴义市"
        }
    },
    {
        "id": "11017543016880233890",
        "title": "公共卫生间",
        "address": "贵州省黔西南布依族苗族自治州安龙县",
        "tel": "",
        "category": "基础设施:公共设施:公共厕所",
        "type": 0,
        "location": {
            "lat": 24.955098,
            "lng": 105.12873
        },
        "ad_info": {
            "adcode": 522328,
            "province": "贵州省",
            "city": "黔西南布依族苗族自治州",
            "district": "安龙县"
        }
    },
    {
        "id": "9843041312463055058",
        "title": "普安茶场停车区-公共厕所",
        "address": "贵州省黔西南布依族苗族自治州普安县普安红大道与纳茶西路交叉口东北方向578米左右",
        "tel": "",
        "category": "基础设施:公共设施:公共厕所",
        "type": 0,
        "location": {
            "lat": 25.748832,
            "lng": 105.082296
        },
        "ad_info": {
            "adcode": 522323,
            "province": "贵州省",
            "city": "黔西南布依族苗族自治州",
            "district": "普安县"
        }
    },
    {
        "id": "5590781388432870125",
        "title": "晴隆服务区公共厕所",
        "address": "贵州省黔西南布依族苗族自治州晴隆县石化黔西南晴隆镇胜2站西南侧100米",
        "tel": "",
        "category": "基础设施:公共设施:公共厕所",
        "type": 0,
        "location": {
            "lat": 25.801247,
            "lng": 105.174098
        },
        "ad_info": {
            "adcode": 522324,
            "province": "贵州省",
            "city": "黔西南布依族苗族自治州",
            "district": "晴隆县"
        }
    },
    {
        "id": "6688344876641820235",
        "title": "公共厕所",
        "address": "贵州省黔西南布依族苗族自治州安龙县",
        "tel": "",
        "category": "基础设施:公共设施:公共厕所",
        "type": 0,
        "location": {
            "lat": 24.953308,
            "lng": 105.126194
        },
        "ad_info": {
            "adcode": 522328,
            "province": "贵州省",
            "city": "黔西南布依族苗族自治州",
            "district": "安龙县"
        }
    },
    {
        "id": "9860460414840314990",
        "title": "公共厕所",
        "address": "贵州省黔西南布依族苗族自治州安龙县G324与S315交叉口正南方向1799米",
        "tel": "",
        "category": "基础设施:公共设施:公共厕所",
        "type": 0,
        "location": {
            "lat": 25.100306,
            "lng": 105.299342
        },
        "ad_info": {
            "adcode": 522328,
            "province": "贵州省",
            "city": "黔西南布依族苗族自治州",
            "district": "安龙县"
        }
    },
    {
        "id": "11110650493990978077",
        "title": "田坝停车区公共厕所",
        "address": "贵州省黔西南布依族苗族自治州兴义市汕昆高速",
        "tel": "",
        "category": "基础设施:公共设施:公共厕所",
        "type": 0,
        "location": {
            "lat": 25.068254,
            "lng": 104.708129
        },
        "ad_info": {
            "adcode": 522301,
            "province": "贵州省",
            "city": "黔西南布依族苗族自治州",
            "district": "兴义市"
        }
    },
    {
        "id": "16417501953915765948",
        "title": "鲁屯停车区公共厕所",
        "address": "贵州省黔西南布依族苗族自治州兴义市G78汕昆高速与鲁屯停车区交叉口西260米",
        "tel": "",
        "category": "基础设施:公共设施:公共厕所",
        "type": 0,
        "location": {
            "lat": 25.154427,
            "lng": 105.126419
        },
        "ad_info": {
            "adcode": 522301,
            "province": "贵州省",
            "city": "黔西南布依族苗族自治州",
            "district": "兴义市"
        }
    },
    {
        "id": "12059013886879768247",
        "title": "长耳营服务区公共厕所",
        "address": "贵州省黔西南布依族苗族自治州兴仁市S313与莹石厂分离式桥交叉口西南方向256米左右",
        "tel": "",
        "category": "基础设施:公共设施:公共厕所",
        "type": 0,
        "location": {
            "lat": 25.427365,
            "lng": 105.14035
        },
        "ad_info": {
            "adcode": 522302,
            "province": "贵州省",
            "city": "黔西南布依族苗族自治州",
            "district": "兴仁市"
        }
    },
    {
        "id": "4098229245042729296",
        "title": "公共厕所",
        "address": "贵州省黔西南布依族苗族自治州安龙县安龙大道与泓福商业步行街交叉口东南方向170米左右",
        "tel": "",
        "category": "基础设施:公共设施:公共厕所",
        "type": 0,
        "location": {
            "lat": 25.095078,
            "lng": 105.445819
        },
        "ad_info": {
            "adcode": 522328,
            "province": "贵州省",
            "city": "黔西南布依族苗族自治州",
            "district": "安龙县"
        }
    },
    {
        "id": "10012144979239886965",
        "title": "公共厕所(GZ-QX-0907)",
        "address": "贵州省黔西南布依族苗族自治州望谟县平洞街道办户外劳动者服务站东北侧180米",
        "tel": "",
        "category": "基础设施:公共设施:公共厕所",
        "type": 0,
        "location": {
            "lat": 25.151319,
            "lng": 106.059768
        },
        "ad_info": {
            "adcode": 522326,
            "province": "贵州省",
            "city": "黔西南布依族苗族自治州",
            "district": "望谟县"
        }
    },
    {
        "id": "17768410419320469141",
        "title": "公共厕所",
        "address": "贵州省黔西南布依族苗族自治州安龙县S210与龙城大道交叉口正东方向1934米左右",
        "tel": "",
        "category": "基础设施:公共设施:公共厕所",
        "type": 0,
        "location": {
            "lat": 25.181037,
            "lng": 105.481741
        },
        "ad_info": {
            "adcode": 522328,
            "province": "贵州省",
            "city": "黔西南布依族苗族自治州",
            "district": "安龙县"
        }
    },
    {
        "id": "1357997266163538712",
        "title": "田坝停车区公共厕所",
        "address": "贵州省黔西南布依族苗族自治州兴义市G78汕昆高速附近",
        "tel": "",
        "category": "基础设施:公共设施:公共厕所",
        "type": 0,
        "location": {
            "lat": 25.071284,
            "lng": 104.713356
        },
        "ad_info": {
            "adcode": 522301,
            "province": "贵州省",
            "city": "黔西南布依族苗族自治州",
            "district": "兴义市"
        }
    },
    {
        "id": "13353227071506387039",
        "title": "公共厕所",
        "address": "贵州省黔西南布依族苗族自治州册亨县G552",
        "tel": "",
        "category": "基础设施:公共设施:公共厕所",
        "type": 0,
        "location": {
            "lat": 25.058913,
            "lng": 105.95473
        },
        "ad_info": {
            "adcode": 522327,
            "province": "贵州省",
            "city": "黔西南布依族苗族自治州",
            "district": "册亨县"
        }
    },
    {
        "id": "10298512418770291744",
        "title": "公共厕所",
        "address": "贵州省黔西南布依族苗族自治州兴义市泥凼镇中学西侧250米",
        "tel": "",
        "category": "基础设施:公共设施:公共厕所",
        "type": 0,
        "location": {
            "lat": 24.824075,
            "lng": 104.867208
        },
        "ad_info": {
            "adcode": 522301,
            "province": "贵州省",
            "city": "黔西南布依族苗族自治州",
            "district": "兴义市"
        }
    },
    {
        "id": "14545539050598005656",
        "title": "安龙县旅游公共厕所",
        "address": "贵州省黔西南布依族苗族自治州安龙县北环路与西环路交叉口正西方向37米左右",
        "tel": "",
        "category": "基础设施:公共设施:公共厕所",
        "type": 0,
        "location": {
            "lat": 25.110564,
            "lng": 105.471305
        },
        "ad_info": {
            "adcode": 522328,
            "province": "贵州省",
            "city": "黔西南布依族苗族自治州",
            "district": "安龙县"
        }
    },
    {
        "id": "2327016462395200395",
        "title": "公共厕所",
        "address": "贵州省黔西南布依族苗族自治州贞丰县同心路与建设路交叉口东北方向84米左右",
        "tel": "",
        "category": "基础设施:公共设施:公共厕所",
        "type": 0,
        "location": {
            "lat": 25.388875,
            "lng": 105.636019
        },
        "ad_info": {
            "adcode": 522325,
            "province": "贵州省",
            "city": "黔西南布依族苗族自治州",
            "district": "贞丰县"
        }
    },
    {
        "id": "10397905748207615399",
        "title": "公共厕所",
        "address": "贵州省黔西南布依族苗族自治州安龙县",
        "tel": "",
        "category": "基础设施:公共设施:公共厕所",
        "type": 0,
        "location": {
            "lat": 24.954004,
            "lng": 105.127291
        },
        "ad_info": {
            "adcode": 522328,
            "province": "贵州省",
            "city": "黔西南布依族苗族自治州",
            "district": "安龙县"
        }
    },
    {
        "id": "6099636373743324511",
        "title": "格沙屯停车区公共厕所",
        "address": "贵州省黔西南布依族苗族自治州兴仁市格沙屯停车区",
        "tel": "",
        "category": "基础设施:公共设施:公共厕所",
        "type": 0,
        "location": {
            "lat": 25.30719,
            "lng": 105.060211
        },
        "ad_info": {
            "adcode": 522302,
            "province": "贵州省",
            "city": "黔西南布依族苗族自治州",
            "district": "兴仁市"
        }
    },
    {
        "id": "2057799064193447563",
        "title": "公共厕所",
        "address": "贵州省黔西南布依族苗族自治州兴仁市",
        "tel": "",
        "category": "基础设施:公共设施:公共厕所",
        "type": 0,
        "location": {
            "lat": 25.328633,
            "lng": 105.353306
        },
        "ad_info": {
            "adcode": 522302,
            "province": "贵州省",
            "city": "黔西南布依族苗族自治州",
            "district": "兴仁市"
        }
    },
    {
        "id": "14715584439856643687",
        "title": "金州翠湖宾馆-洗手间",
        "address": "贵州省黔西南布依族苗族自治州兴义市桔丰路与桔山大道交叉口正南方向76米左右",
        "tel": "",
        "category": "基础设施:公共设施:公共厕所",
        "type": 0,
        "location": {
            "lat": 25.095911,
            "lng": 104.91809
        },
        "ad_info": {
            "adcode": 522301,
            "province": "贵州省",
            "city": "黔西南布依族苗族自治州",
            "district": "兴义市"
        }
    },
    {
        "id": "11017543016880233890",
        "title": "公共卫生间",
        "address": "贵州省黔西南布依族苗族自治州安龙县",
        "tel": "",
        "category": "基础设施:公共设施:公共厕所",
        "type": 0,
        "location": {
            "lat": 24.955098,
            "lng": 105.12873
        },
        "ad_info": {
            "adcode": 522328,
            "province": "贵州省",
            "city": "黔西南布依族苗族自治州",
            "district": "安龙县"
        }
    },
    {
        "id": "9843041312463055058",
        "title": "普安茶场停车区-公共厕所",
        "address": "贵州省黔西南布依族苗族自治州普安县普安红大道与纳茶西路交叉口东北方向578米左右",
        "tel": "",
        "category": "基础设施:公共设施:公共厕所",
        "type": 0,
        "location": {
            "lat": 25.748832,
            "lng": 105.082296
        },
        "ad_info": {
            "adcode": 522323,
            "province": "贵州省",
            "city": "黔西南布依族苗族自治州",
            "district": "普安县"
        }
    },
    {
        "id": "5590781388432870125",
        "title": "晴隆服务区公共厕所",
        "address": "贵州省黔西南布依族苗族自治州晴隆县石化黔西南晴隆镇胜2站西南侧100米",
        "tel": "",
        "category": "基础设施:公共设施:公共厕所",
        "type": 0,
        "location": {
            "lat": 25.801247,
            "lng": 105.174098
        },
        "ad_info": {
            "adcode": 522324,
            "province": "贵州省",
            "city": "黔西南布依族苗族自治州",
            "district": "晴隆县"
        }
    },
    {
        "id": "6688344876641820235",
        "title": "公共厕所",
        "address": "贵州省黔西南布依族苗族自治州安龙县",
        "tel": "",
        "category": "基础设施:公共设施:公共厕所",
        "type": 0,
        "location": {
            "lat": 24.953308,
            "lng": 105.126194
        },
        "ad_info": {
            "adcode": 522328,
            "province": "贵州省",
            "city": "黔西南布依族苗族自治州",
            "district": "安龙县"
        }
    },
    {
        "id": "9860460414840314990",
        "title": "公共厕所",
        "address": "贵州省黔西南布依族苗族自治州安龙县G324与S315交叉口正南方向1799米",
        "tel": "",
        "category": "基础设施:公共设施:公共厕所",
        "type": 0,
        "location": {
            "lat": 25.100306,
            "lng": 105.299342
        },
        "ad_info": {
            "adcode": 522328,
            "province": "贵州省",
            "city": "黔西南布依族苗族自治州",
            "district": "安龙县"
        }
    },
    {
        "id": "11110650493990978077",
        "title": "田坝停车区公共厕所",
        "address": "贵州省黔西南布依族苗族自治州兴义市汕昆高速",
        "tel": "",
        "category": "基础设施:公共设施:公共厕所",
        "type": 0,
        "location": {
            "lat": 25.068254,
            "lng": 104.708129
        },
        "ad_info": {
            "adcode": 522301,
            "province": "贵州省",
            "city": "黔西南布依族苗族自治州",
            "district": "兴义市"
        }
    },
    {
        "id": "16417501953915765948",
        "title": "鲁屯停车区公共厕所",
        "address": "贵州省黔西南布依族苗族自治州兴义市G78汕昆高速与鲁屯停车区交叉口西260米",
        "tel": "",
        "category": "基础设施:公共设施:公共厕所",
        "type": 0,
        "location": {
            "lat": 25.154427,
            "lng": 105.126419
        },
        "ad_info": {
            "adcode": 522301,
            "province": "贵州省",
            "city": "黔西南布依族苗族自治州",
            "district": "兴义市"
        }
    },
    {
        "id": "12059013886879768247",
        "title": "长耳营服务区公共厕所",
        "address": "贵州省黔西南布依族苗族自治州兴仁市S313与莹石厂分离式桥交叉口西南方向256米左右",
        "tel": "",
        "category": "基础设施:公共设施:公共厕所",
        "type": 0,
        "location": {
            "lat": 25.427365,
            "lng": 105.14035
        },
        "ad_info": {
            "adcode": 522302,
            "province": "贵州省",
            "city": "黔西南布依族苗族自治州",
            "district": "兴仁市"
        }
    },
    {
        "id": "4098229245042729296",
        "title": "公共厕所",
        "address": "贵州省黔西南布依族苗族自治州安龙县安龙大道与泓福商业步行街交叉口东南方向170米左右",
        "tel": "",
        "category": "基础设施:公共设施:公共厕所",
        "type": 0,
        "location": {
            "lat": 25.095078,
            "lng": 105.445819
        },
        "ad_info": {
            "adcode": 522328,
            "province": "贵州省",
            "city": "黔西南布依族苗族自治州",
            "district": "安龙县"
        }
    },
    {
        "id": "10012144979239886965",
        "title": "公共厕所(GZ-QX-0907)",
        "address": "贵州省黔西南布依族苗族自治州望谟县平洞街道办户外劳动者服务站东北侧180米",
        "tel": "",
        "category": "基础设施:公共设施:公共厕所",
        "type": 0,
        "location": {
            "lat": 25.151319,
            "lng": 106.059768
        },
        "ad_info": {
            "adcode": 522326,
            "province": "贵州省",
            "city": "黔西南布依族苗族自治州",
            "district": "望谟县"
        }
    },
    {
        "id": "17768410419320469141",
        "title": "公共厕所",
        "address": "贵州省黔西南布依族苗族自治州安龙县S210与龙城大道交叉口正东方向1934米左右",
        "tel": "",
        "category": "基础设施:公共设施:公共厕所",
        "type": 0,
        "location": {
            "lat": 25.181037,
            "lng": 105.481741
        },
        "ad_info": {
            "adcode": 522328,
            "province": "贵州省",
            "city": "黔西南布依族苗族自治州",
            "district": "安龙县"
        }
    },
    {
        "id": "1357997266163538712",
        "title": "田坝停车区公共厕所",
        "address": "贵州省黔西南布依族苗族自治州兴义市G78汕昆高速附近",
        "tel": "",
        "category": "基础设施:公共设施:公共厕所",
        "type": 0,
        "location": {
            "lat": 25.071284,
            "lng": 104.713356
        },
        "ad_info": {
            "adcode": 522301,
            "province": "贵州省",
            "city": "黔西南布依族苗族自治州",
            "district": "兴义市"
        }
    },
    {
        "id": "13353227071506387039",
        "title": "公共厕所",
        "address": "贵州省黔西南布依族苗族自治州册亨县G552",
        "tel": "",
        "category": "基础设施:公共设施:公共厕所",
        "type": 0,
        "location": {
            "lat": 25.058913,
            "lng": 105.95473
        },
        "ad_info": {
            "adcode": 522327,
            "province": "贵州省",
            "city": "黔西南布依族苗族自治州",
            "district": "册亨县"
        }
    },
    {
        "id": "10298512418770291744",
        "title": "公共厕所",
        "address": "贵州省黔西南布依族苗族自治州兴义市泥凼镇中学西侧250米",
        "tel": "",
        "category": "基础设施:公共设施:公共厕所",
        "type": 0,
        "location": {
            "lat": 24.824075,
            "lng": 104.867208
        },
        "ad_info": {
            "adcode": 522301,
            "province": "贵州省",
            "city": "黔西南布依族苗族自治州",
            "district": "兴义市"
        }
    },
    {
        "id": "14545539050598005656",
        "title": "安龙县旅游公共厕所",
        "address": "贵州省黔西南布依族苗族自治州安龙县北环路与西环路交叉口正西方向37米左右",
        "tel": "",
        "category": "基础设施:公共设施:公共厕所",
        "type": 0,
        "location": {
            "lat": 25.110564,
            "lng": 105.471305
        },
        "ad_info": {
            "adcode": 522328,
            "province": "贵州省",
            "city": "黔西南布依族苗族自治州",
            "district": "安龙县"
        }
    },
    {
        "id": "2327016462395200395",
        "title": "公共厕所",
        "address": "贵州省黔西南布依族苗族自治州贞丰县同心路与建设路交叉口东北方向84米左右",
        "tel": "",
        "category": "基础设施:公共设施:公共厕所",
        "type": 0,
        "location": {
            "lat": 25.388875,
            "lng": 105.636019
        },
        "ad_info": {
            "adcode": 522325,
            "province": "贵州省",
            "city": "黔西南布依族苗族自治州",
            "district": "贞丰县"
        }
    },
    {
        "id": "10397905748207615399",
        "title": "公共厕所",
        "address": "贵州省黔西南布依族苗族自治州安龙县",
        "tel": "",
        "category": "基础设施:公共设施:公共厕所",
        "type": 0,
        "location": {
            "lat": 24.954004,
            "lng": 105.127291
        },
        "ad_info": {
            "adcode": 522328,
            "province": "贵州省",
            "city": "黔西南布依族苗族自治州",
            "district": "安龙县"
        }
    },
    {
        "id": "6099636373743324511",
        "title": "格沙屯停车区公共厕所",
        "address": "贵州省黔西南布依族苗族自治州兴仁市格沙屯停车区",
        "tel": "",
        "category": "基础设施:公共设施:公共厕所",
        "type": 0,
        "location": {
            "lat": 25.30719,
            "lng": 105.060211
        },
        "ad_info": {
            "adcode": 522302,
            "province": "贵州省",
            "city": "黔西南布依族苗族自治州",
            "district": "兴仁市"
        }
    },
    {
        "id": "2057799064193447563",
        "title": "公共厕所",
        "address": "贵州省黔西南布依族苗族自治州兴仁市",
        "tel": "",
        "category": "基础设施:公共设施:公共厕所",
        "type": 0,
        "location": {
            "lat": 25.328633,
            "lng": 105.353306
        },
        "ad_info": {
            "adcode": 522302,
            "province": "贵州省",
            "city": "黔西南布依族苗族自治州",
            "district": "兴仁市"
        }
    },
    {
        "id": "14715584439856643687",
        "title": "金州翠湖宾馆-洗手间",
        "address": "贵州省黔西南布依族苗族自治州兴义市桔丰路与桔山大道交叉口正南方向76米左右",
        "tel": "",
        "category": "基础设施:公共设施:公共厕所",
        "type": 0,
        "location": {
            "lat": 25.095911,
            "lng": 104.91809
        },
        "ad_info": {
            "adcode": 522301,
            "province": "贵州省",
            "city": "黔西南布依族苗族自治州",
            "district": "兴义市"
        }
    },
    {
        "id": "11017543016880233890",
        "title": "公共卫生间",
        "address": "贵州省黔西南布依族苗族自治州安龙县",
        "tel": "",
        "category": "基础设施:公共设施:公共厕所",
        "type": 0,
        "location": {
            "lat": 24.955098,
            "lng": 105.12873
        },
        "ad_info": {
            "adcode": 522328,
            "province": "贵州省",
            "city": "黔西南布依族苗族自治州",
            "district": "安龙县"
        }
    },
    {
        "id": "9843041312463055058",
        "title": "普安茶场停车区-公共厕所",
        "address": "贵州省黔西南布依族苗族自治州普安县普安红大道与纳茶西路交叉口东北方向578米左右",
        "tel": "",
        "category": "基础设施:公共设施:公共厕所",
        "type": 0,
        "location": {
            "lat": 25.748832,
            "lng": 105.082296
        },
        "ad_info": {
            "adcode": 522323,
            "province": "贵州省",
            "city": "黔西南布依族苗族自治州",
            "district": "普安县"
        }
    },
    {
        "id": "5590781388432870125",
        "title": "晴隆服务区公共厕所",
        "address": "贵州省黔西南布依族苗族自治州晴隆县石化黔西南晴隆镇胜2站西南侧100米",
        "tel": "",
        "category": "基础设施:公共设施:公共厕所",
        "type": 0,
        "location": {
            "lat": 25.801247,
            "lng": 105.174098
        },
        "ad_info": {
            "adcode": 522324,
            "province": "贵州省",
            "city": "黔西南布依族苗族自治州",
            "district": "晴隆县"
        }
    },
    {
        "id": "6688344876641820235",
        "title": "公共厕所",
        "address": "贵州省黔西南布依族苗族自治州安龙县",
        "tel": "",
        "category": "基础设施:公共设施:公共厕所",
        "type": 0,
        "location": {
            "lat": 24.953308,
            "lng": 105.126194
        },
        "ad_info": {
            "adcode": 522328,
            "province": "贵州省",
            "city": "黔西南布依族苗族自治州",
            "district": "安龙县"
        }
    },
    {
        "id": "9860460414840314990",
        "title": "公共厕所",
        "address": "贵州省黔西南布依族苗族自治州安龙县G324与S315交叉口正南方向1799米",
        "tel": "",
        "category": "基础设施:公共设施:公共厕所",
        "type": 0,
        "location": {
            "lat": 25.100306,
            "lng": 105.299342
        },
        "ad_info": {
            "adcode": 522328,
            "province": "贵州省",
            "city": "黔西南布依族苗族自治州",
            "district": "安龙县"
        }
    },
    {
        "id": "11110650493990978077",
        "title": "田坝停车区公共厕所",
        "address": "贵州省黔西南布依族苗族自治州兴义市汕昆高速",
        "tel": "",
        "category": "基础设施:公共设施:公共厕所",
        "type": 0,
        "location": {
            "lat": 25.068254,
            "lng": 104.708129
        },
        "ad_info": {
            "adcode": 522301,
            "province": "贵州省",
            "city": "黔西南布依族苗族自治州",
            "district": "兴义市"
        }
    },
    {
        "id": "16417501953915765948",
        "title": "鲁屯停车区公共厕所",
        "address": "贵州省黔西南布依族苗族自治州兴义市G78汕昆高速与鲁屯停车区交叉口西260米",
        "tel": "",
        "category": "基础设施:公共设施:公共厕所",
        "type": 0,
        "location": {
            "lat": 25.154427,
            "lng": 105.126419
        },
        "ad_info": {
            "adcode": 522301,
            "province": "贵州省",
            "city": "黔西南布依族苗族自治州",
            "district": "兴义市"
        }
    },
    {
        "id": "12059013886879768247",
        "title": "长耳营服务区公共厕所",
        "address": "贵州省黔西南布依族苗族自治州兴仁市S313与莹石厂分离式桥交叉口西南方向256米左右",
        "tel": "",
        "category": "基础设施:公共设施:公共厕所",
        "type": 0,
        "location": {
            "lat": 25.427365,
            "lng": 105.14035
        },
        "ad_info": {
            "adcode": 522302,
            "province": "贵州省",
            "city": "黔西南布依族苗族自治州",
            "district": "兴仁市"
        }
    },
    {
        "id": "4098229245042729296",
        "title": "公共厕所",
        "address": "贵州省黔西南布依族苗族自治州安龙县安龙大道与泓福商业步行街交叉口东南方向170米左右",
        "tel": "",
        "category": "基础设施:公共设施:公共厕所",
        "type": 0,
        "location": {
            "lat": 25.095078,
            "lng": 105.445819
        },
        "ad_info": {
            "adcode": 522328,
            "province": "贵州省",
            "city": "黔西南布依族苗族自治州",
            "district": "安龙县"
        }
    },
    {
        "id": "10012144979239886965",
        "title": "公共厕所(GZ-QX-0907)",
        "address": "贵州省黔西南布依族苗族自治州望谟县平洞街道办户外劳动者服务站东北侧180米",
        "tel": "",
        "category": "基础设施:公共设施:公共厕所",
        "type": 0,
        "location": {
            "lat": 25.151319,
            "lng": 106.059768
        },
        "ad_info": {
            "adcode": 522326,
            "province": "贵州省",
            "city": "黔西南布依族苗族自治州",
            "district": "望谟县"
        }
    },
    {
        "id": "17768410419320469141",
        "title": "公共厕所",
        "address": "贵州省黔西南布依族苗族自治州安龙县S210与龙城大道交叉口正东方向1934米左右",
        "tel": "",
        "category": "基础设施:公共设施:公共厕所",
        "type": 0,
        "location": {
            "lat": 25.181037,
            "lng": 105.481741
        },
        "ad_info": {
            "adcode": 522328,
            "province": "贵州省",
            "city": "黔西南布依族苗族自治州",
            "district": "安龙县"
        }
    },
    {
        "id": "1357997266163538712",
        "title": "田坝停车区公共厕所",
        "address": "贵州省黔西南布依族苗族自治州兴义市G78汕昆高速附近",
        "tel": "",
        "category": "基础设施:公共设施:公共厕所",
        "type": 0,
        "location": {
            "lat": 25.071284,
            "lng": 104.713356
        },
        "ad_info": {
            "adcode": 522301,
            "province": "贵州省",
            "city": "黔西南布依族苗族自治州",
            "district": "兴义市"
        }
    }
]