[
    {
        "id": "12301761607614848742",
        "title": "公共厕所",
        "address": "黑龙江省齐齐哈尔市龙江县县府街与正阳路交叉口东北方向186米左右",
        "tel": "",
        "category": "基础设施:公共设施:公共厕所",
        "type": 0,
        "location": {
            "lat": 47.339576,
            "lng": 123.189118
        },
        "ad_info": {
            "adcode": 230221,
            "province": "黑龙江省",
            "city": "齐齐哈尔市",
            "district": "龙江县"
        }
    },
    {
        "id": "8041764123424923982",
        "title": "公共厕所",
        "address": "黑龙江省齐齐哈尔市龙江县市场巷与市场街交叉口正南方向82米左右",
        "tel": "",
        "category": "基础设施:公共设施:公共厕所",
        "type": 0,
        "location": {
            "lat": 47.333796,
            "lng": 123.185622
        },
        "ad_info": {
            "adcode": 230221,
            "province": "黑龙江省",
            "city": "齐齐哈尔市",
            "district": "龙江县"
        }
    },
    {
        "id": "11689109832106611157",
        "title": "公共厕所",
        "address": "黑龙江省齐齐哈尔市富裕县南一道路与新华街交叉口正东方向137米左右",
        "tel": "",
        "category": "基础设施:公共设施:公共厕所",
        "type": 0,
        "location": {
            "lat": 47.794862,
            "lng": 124.469172
        },
        "ad_info": {
            "adcode": 230227,
            "province": "黑龙江省",
            "city": "齐齐哈尔市",
            "district": "富裕县"
        }
    },
    {
        "id": "4165062065356328317",
        "title": "公共厕所",
        "address": "黑龙江省齐齐哈尔市建华区中华十胡同与皮毛厂街交叉口西南方向30米左右",
        "tel": "",
        "category": "基础设施:公共设施:公共厕所",
        "type": 0,
        "location": {
            "lat": 47.346095,
            "lng": 123.985786
        },
        "ad_info": {
            "adcode": 230203,
            "province": "黑龙江省",
            "city": "齐齐哈尔市",
            "district": "建华区"
        }
    },
    {
        "id": "14483941162880548804",
        "title": "公共厕所",
        "address": "黑龙江省齐齐哈尔市龙沙区公园胡同与公园路交叉口西南方向88米左右",
        "tel": "",
        "category": "基础设施:公共设施:公共厕所",
        "type": 0,
        "location": {
            "lat": 47.344871,
            "lng": 123.9492
        },
        "ad_info": {
            "adcode": 230202,
            "province": "黑龙江省",
            "city": "齐齐哈尔市",
            "district": "龙沙区"
        }
    },
    {
        "id": "8180492884480927127",
        "title": "公共厕所",
        "address": "黑龙江省齐齐哈尔市龙沙区卜奎大街与工会胡同交叉口正西方向51米左右",
        "tel": "",
        "category": "基础设施:公共设施:公共厕所",
        "type": 0,
        "location": {
            "lat": 47.342503,
            "lng": 123.956076
        },
        "ad_info": {
            "adcode": 230202,
            "province": "黑龙江省",
            "city": "齐齐哈尔市",
            "district": "龙沙区"
        }
    },
    {
        "id": "3260879074352462143",
        "title": "公共厕所",
        "address": "黑龙江省齐齐哈尔市依安县展望路与永廉街交叉口西北方向414米左右",
        "tel": "",
        "category": "基础设施:公共设施:公共厕所",
        "type": 0,
        "location": {
            "lat": 47.903839,
            "lng": 125.304693
        },
        "ad_info": {
            "adcode": 230223,
            "province": "黑龙江省",
            "city": "齐齐哈尔市",
            "district": "依安县"
        }
    },
    {
        "id": "9477664038832346118",
        "title": "公共厕所",
        "address": "黑龙江省齐齐哈尔市建华区东四道街与双华路交叉口正东方向48米左右",
        "tel": "",
        "category": "基础设施:公共设施:公共厕所",
        "type": 0,
        "location": {
            "lat": 47.364134,
            "lng": 123.961532
        },
        "ad_info": {
            "adcode": 230203,
            "province": "黑龙江省",
            "city": "齐齐哈尔市",
            "district": "建华区"
        }
    },
    {
        "id": "13405165671992298844",
        "title": "公共厕所",
        "address": "黑龙江省齐齐哈尔市龙沙区卜奎大街与龙华路交叉口正西方向100米左右",
        "tel": "",
        "category": "基础设施:公共设施:公共厕所",
        "type": 0,
        "location": {
            "lat": 47.34081,
            "lng": 123.9557
        },
        "ad_info": {
            "adcode": 230202,
            "province": "黑龙江省",
            "city": "齐齐哈尔市",
            "district": "龙沙区"
        }
    },
    {
        "id": "1705340290539483308",
        "title": "公共厕所",
        "address": "黑龙江省齐齐哈尔市讷河市康安路10号",
        "tel": "",
        "category": "基础设施:公共设施:公共厕所",
        "type": 0,
        "location": {
            "lat": 48.484214,
            "lng": 124.883277
        },
        "ad_info": {
            "adcode": 230281,
            "province": "黑龙江省",
            "city": "齐齐哈尔市",
            "district": "讷河市"
        }
    },
    {
        "id": "11870450873608725833",
        "title": "公共厕所",
        "address": "黑龙江省齐齐哈尔市碾子山区中兴街与繁荣路交叉口西北方向71米左右",
        "tel": "",
        "category": "基础设施:公共设施:公共厕所",
        "type": 0,
        "location": {
            "lat": 47.517141,
            "lng": 122.888169
        },
        "ad_info": {
            "adcode": 230207,
            "province": "黑龙江省",
            "city": "齐齐哈尔市",
            "district": "碾子山区"
        }
    },
    {
        "id": "12189046449789467796",
        "title": "公共厕所",
        "address": "黑龙江省齐齐哈尔市龙江县延顺北路与延顺路交叉口正东方向88米左右",
        "tel": "",
        "category": "基础设施:公共设施:公共厕所",
        "type": 0,
        "location": {
            "lat": 47.340084,
            "lng": 123.21173
        },
        "ad_info": {
            "adcode": 230221,
            "province": "黑龙江省",
            "city": "齐齐哈尔市",
            "district": "龙江县"
        }
    },
    {
        "id": "13903594816506928780",
        "title": "公共厕所",
        "address": "黑龙江省齐齐哈尔市建华区中华西路与劳技东街交叉口正东方向173米左右",
        "tel": "",
        "category": "基础设施:公共设施:公共厕所",
        "type": 0,
        "location": {
            "lat": 47.357289,
            "lng": 123.942143
        },
        "ad_info": {
            "adcode": 230203,
            "province": "黑龙江省",
            "city": "齐齐哈尔市",
            "district": "建华区"
        }
    },
    {
        "id": "15282030744322494520",
        "title": "公共厕所",
        "address": "黑龙江省齐齐哈尔市建华区玉兴旅店(裕民街东)",
        "tel": "",
        "category": "基础设施:公共设施:公共厕所",
        "type": 0,
        "location": {
            "lat": 47.34789,
            "lng": 123.964227
        },
        "ad_info": {
            "adcode": 230203,
            "province": "黑龙江省",
            "city": "齐齐哈尔市",
            "district": "建华区"
        }
    },
    {
        "id": "7043595121683784826",
        "title": "公共厕所",
        "address": "黑龙江省齐齐哈尔市龙江县延顺北路与延顺路交叉口正东方向51米左右",
        "tel": "",
        "category": "基础设施:公共设施:公共厕所",
        "type": 0,
        "location": {
            "lat": 47.340208,
            "lng": 123.211265
        },
        "ad_info": {
            "adcode": 230221,
            "province": "黑龙江省",
            "city": "齐齐哈尔市",
            "district": "龙江县"
        }
    },
    {
        "id": "18064490019581294831",
        "title": "公共厕所",
        "address": "黑龙江省齐齐哈尔市龙沙区中环南路与光复街交叉口正西方向235米左右",
        "tel": "",
        "category": "基础设施:公共设施:公共厕所",
        "type": 0,
        "location": {
            "lat": 47.342445,
            "lng": 123.943653
        },
        "ad_info": {
            "adcode": 230202,
            "province": "黑龙江省",
            "city": "齐齐哈尔市",
            "district": "龙沙区"
        }
    },
    {
        "id": "17424662337794140273",
        "title": "公共厕所",
        "address": "黑龙江省齐齐哈尔市拜泉县育新街与育英路交叉口正北方向83米左右",
        "tel": "",
        "category": "基础设施:公共设施:公共厕所",
        "type": 0,
        "location": {
            "lat": 47.609644,
            "lng": 126.102743
        },
        "ad_info": {
            "adcode": 230231,
            "province": "黑龙江省",
            "city": "齐齐哈尔市",
            "district": "拜泉县"
        }
    },
    {
        "id": "14436024959112452592",
        "title": "公共厕所",
        "address": "黑龙江省齐齐哈尔市甘南县工农路与建华路交叉口西北方向220米左右",
        "tel": "",
        "category": "基础设施:公共设施:公共厕所",
        "type": 0,
        "location": {
            "lat": 47.92186,
            "lng": 123.495976
        },
        "ad_info": {
            "adcode": 230225,
            "province": "黑龙江省",
            "city": "齐齐哈尔市",
            "district": "甘南县"
        }
    },
    {
        "id": "12020395727703784255",
        "title": "公共厕所",
        "address": "黑龙江省齐齐哈尔市克山县北环西路与石桥北路交叉口正南方向95米左右",
        "tel": "",
        "category": "基础设施:公共设施:公共厕所",
        "type": 0,
        "location": {
            "lat": 48.040148,
            "lng": 125.866793
        },
        "ad_info": {
            "adcode": 230229,
            "province": "黑龙江省",
            "city": "齐齐哈尔市",
            "district": "克山县"
        }
    },
    {
        "id": "10894791040571172764",
        "title": "公共厕所",
        "address": "黑龙江省齐齐哈尔市碾子山区站北街与繁荣路交叉口正南方向249米左右",
        "tel": "",
        "category": "基础设施:公共设施:公共厕所",
        "type": 0,
        "location": {
            "lat": 47.515616,
            "lng": 122.884441
        },
        "ad_info": {
            "adcode": 230207,
            "province": "黑龙江省",
            "city": "齐齐哈尔市",
            "district": "碾子山区"
        }
    },
    {
        "id": "17684294452284910141",
        "title": "公共厕所",
        "address": "黑龙江省齐齐哈尔市富裕县公园街与北一道路交叉口正北方向30米左右",
        "tel": "",
        "category": "基础设施:公共设施:公共厕所",
        "type": 0,
        "location": {
            "lat": 47.797849,
            "lng": 124.476446
        },
        "ad_info": {
            "adcode": 230227,
            "province": "黑龙江省",
            "city": "齐齐哈尔市",
            "district": "富裕县"
        }
    },
    {
        "id": "1519308347881783656",
        "title": "公共厕所",
        "address": "黑龙江省齐齐哈尔市甘南县奋斗路与甘双线交叉口正南方向143米左右",
        "tel": "",
        "category": "基础设施:公共设施:公共厕所",
        "type": 0,
        "location": {
            "lat": 47.917537,
            "lng": 123.5159
        },
        "ad_info": {
            "adcode": 230225,
            "province": "黑龙江省",
            "city": "齐齐哈尔市",
            "district": "甘南县"
        }
    },
    {
        "id": "5227506145875098065",
        "title": "公共厕所",
        "address": "黑龙江省齐齐哈尔市龙江县龙江县民祥货站西南侧130米",
        "tel": "",
        "category": "基础设施:公共设施:公共厕所",
        "type": 0,
        "location": {
            "lat": 47.271334,
            "lng": 123.255165
        },
        "ad_info": {
            "adcode": 230221,
            "province": "黑龙江省",
            "city": "齐齐哈尔市",
            "district": "龙江县"
        }
    },
    {
        "id": "5267489884045096907",
        "title": "公共厕所",
        "address": "黑龙江省齐齐哈尔市龙江县通达街与长横街交叉口正北方向25米左右",
        "tel": "",
        "category": "基础设施:公共设施:公共厕所",
        "type": 0,
        "location": {
            "lat": 47.349791,
            "lng": 123.181608
        },
        "ad_info": {
            "adcode": 230221,
            "province": "黑龙江省",
            "city": "齐齐哈尔市",
            "district": "龙江县"
        }
    },
    {
        "id": "6826993939704957457",
        "title": "公共厕所",
        "address": "黑龙江省齐齐哈尔市梅里斯达斡尔族区Y094与齐查公路交叉口东北方向315米左右",
        "tel": "",
        "category": "基础设施:公共设施:公共厕所",
        "type": 0,
        "location": {
            "lat": 47.458796,
            "lng": 123.907639
        },
        "ad_info": {
            "adcode": 230208,
            "province": "黑龙江省",
            "city": "齐齐哈尔市",
            "district": "梅里斯达斡尔族区"
        }
    },
    {
        "id": "17264787790545228044",
        "title": "公共厕所",
        "address": "黑龙江省齐齐哈尔市昂昂溪区同德路与铁南街交叉口西南方向21米左右",
        "tel": "",
        "category": "基础设施:公共设施:公共厕所",
        "type": 0,
        "location": {
            "lat": 47.153096,
            "lng": 123.805086
        },
        "ad_info": {
            "adcode": 230205,
            "province": "黑龙江省",
            "city": "齐齐哈尔市",
            "district": "昂昂溪区"
        }
    },
    {
        "id": "5529178820048854690",
        "title": "公共厕所",
        "address": "黑龙江省齐齐哈尔市拜泉县西安街与龙泉路交叉口东南方向48米左右",
        "tel": "",
        "category": "基础设施:公共设施:公共厕所",
        "type": 0,
        "location": {
            "lat": 47.612754,
            "lng": 126.084775
        },
        "ad_info": {
            "adcode": 230231,
            "province": "黑龙江省",
            "city": "齐齐哈尔市",
            "district": "拜泉县"
        }
    },
    {
        "id": "5181134942888014776",
        "title": "公共厕所",
        "address": "黑龙江省齐齐哈尔市拜泉县黑大公路与042乡道交叉口西北180米",
        "tel": "",
        "category": "基础设施:公共设施:公共厕所",
        "type": 0,
        "location": {
            "lat": 47.376721,
            "lng": 125.972595
        },
        "ad_info": {
            "adcode": 230231,
            "province": "黑龙江省",
            "city": "齐齐哈尔市",
            "district": "拜泉县"
        }
    },
    {
        "id": "2820707709902820697",
        "title": "公共厕所",
        "address": "黑龙江省齐齐哈尔市龙沙区新立街与长青路交叉口正南方向79米左右",
        "tel": "",
        "category": "基础设施:公共设施:公共厕所",
        "type": 0,
        "location": {
            "lat": 47.318354,
            "lng": 123.921244
        },
        "ad_info": {
            "adcode": 230202,
            "province": "黑龙江省",
            "city": "齐齐哈尔市",
            "district": "龙沙区"
        }
    },
    {
        "id": "17556154803423841494",
        "title": "公共厕所",
        "address": "黑龙江省齐齐哈尔市富裕县仁和路与友谊路交叉口东南方向188米左右",
        "tel": "",
        "category": "基础设施:公共设施:公共厕所",
        "type": 0,
        "location": {
            "lat": 47.777678,
            "lng": 124.465976
        },
        "ad_info": {
            "adcode": 230227,
            "province": "黑龙江省",
            "city": "齐齐哈尔市",
            "district": "富裕县"
        }
    },
    {
        "id": "9564951326421807015",
        "title": "公共厕所",
        "address": "黑龙江省齐齐哈尔市讷河市建设路与环城东大街交叉口西北方向34米左右",
        "tel": "",
        "category": "基础设施:公共设施:公共厕所",
        "type": 0,
        "location": {
            "lat": 48.479141,
            "lng": 124.891914
        },
        "ad_info": {
            "adcode": 230281,
            "province": "黑龙江省",
            "city": "齐齐哈尔市",
            "district": "讷河市"
        }
    },
    {
        "id": "2042117332622875265",
        "title": "公共厕所",
        "address": "黑龙江省齐齐哈尔市龙沙区劳卫路与天齐庙前街交叉口正南方向45米左右",
        "tel": "",
        "category": "基础设施:公共设施:公共厕所",
        "type": 0,
        "location": {
            "lat": 47.340736,
            "lng": 123.939756
        },
        "ad_info": {
            "adcode": 230202,
            "province": "黑龙江省",
            "city": "齐齐哈尔市",
            "district": "龙沙区"
        }
    },
    {
        "id": "12341905691186510206",
        "title": "公共厕所",
        "address": "黑龙江省齐齐哈尔市依安县城工街与粮丰路交叉口正东方向34米左右",
        "tel": "",
        "category": "基础设施:公共设施:公共厕所",
        "type": 0,
        "location": {
            "lat": 47.882455,
            "lng": 125.316835
        },
        "ad_info": {
            "adcode": 230223,
            "province": "黑龙江省",
            "city": "齐齐哈尔市",
            "district": "依安县"
        }
    },
    {
        "id": "17892276459500134326",
        "title": "公共厕所",
        "address": "黑龙江省齐齐哈尔市昂昂溪区G232与齐昂公路交叉口东北方向97米左右",
        "tel": "",
        "category": "基础设施:公共设施:公共厕所",
        "type": 0,
        "location": {
            "lat": 47.164422,
            "lng": 123.835276
        },
        "ad_info": {
            "adcode": 230205,
            "province": "黑龙江省",
            "city": "齐齐哈尔市",
            "district": "昂昂溪区"
        }
    },
    {
        "id": "2888748413398664760",
        "title": "公共厕所",
        "address": "黑龙江省齐齐哈尔市克山县东环南路与泡东巷交叉口正北方向36米左右",
        "tel": "",
        "category": "基础设施:公共设施:公共厕所",
        "type": 0,
        "location": {
            "lat": 48.030485,
            "lng": 125.888699
        },
        "ad_info": {
            "adcode": 230229,
            "province": "黑龙江省",
            "city": "齐齐哈尔市",
            "district": "克山县"
        }
    },
    {
        "id": "3156518439629672794",
        "title": "公共厕所",
        "address": "黑龙江省齐齐哈尔市昂昂溪区东胜街与丹阳路交叉口正南方向1181米左右",
        "tel": "",
        "category": "基础设施:公共设施:公共厕所",
        "type": 0,
        "location": {
            "lat": 47.139644,
            "lng": 123.809968
        },
        "ad_info": {
            "adcode": 230205,
            "province": "黑龙江省",
            "city": "齐齐哈尔市",
            "district": "昂昂溪区"
        }
    },
    {
        "id": "3902774551021300478",
        "title": "公共厕所",
        "address": "黑龙江省齐齐哈尔市依安县北新路依安二中",
        "tel": "",
        "category": "基础设施:公共设施:公共厕所",
        "type": 0,
        "location": {
            "lat": 47.89356,
            "lng": 125.296768
        },
        "ad_info": {
            "adcode": 230223,
            "province": "黑龙江省",
            "city": "齐齐哈尔市",
            "district": "依安县"
        }
    },
    {
        "id": "13922580335790625857",
        "title": "公共厕所",
        "address": "黑龙江省齐齐哈尔市依安县兴科路与城兴街交叉口正东方向33米左右",
        "tel": "",
        "category": "基础设施:公共设施:公共厕所",
        "type": 0,
        "location": {
            "lat": 47.881296,
            "lng": 125.307402
        },
        "ad_info": {
            "adcode": 230223,
            "province": "黑龙江省",
            "city": "齐齐哈尔市",
            "district": "依安县"
        }
    },
    {
        "id": "17272355228130531766",
        "title": "公共厕所",
        "address": "黑龙江省齐齐哈尔市富裕县G502与S309交叉口西南方向90米左右",
        "tel": "",
        "category": "基础设施:公共设施:公共厕所",
        "type": 0,
        "location": {
            "lat": 47.653917,
            "lng": 124.67802
        },
        "ad_info": {
            "adcode": 230227,
            "province": "黑龙江省",
            "city": "齐齐哈尔市",
            "district": "富裕县"
        }
    },
    {
        "id": "17054660671823599624",
        "title": "公共厕所",
        "address": "黑龙江省齐齐哈尔市富拉尔基区兴安路与建富路交叉口正东方向33米左右",
        "tel": "",
        "category": "基础设施:公共设施:公共厕所",
        "type": 0,
        "location": {
            "lat": 47.218593,
            "lng": 123.64641
        },
        "ad_info": {
            "adcode": 230206,
            "province": "黑龙江省",
            "city": "齐齐哈尔市",
            "district": "富拉尔基区"
        }
    },
    {
        "id": "3901571069822843109",
        "title": "公共厕所",
        "address": "黑龙江省齐齐哈尔市甘南县工农路与平安路交叉口正北方向37米左右",
        "tel": "",
        "category": "基础设施:公共设施:公共厕所",
        "type": 0,
        "location": {
            "lat": 47.910148,
            "lng": 123.502994
        },
        "ad_info": {
            "adcode": 230225,
            "province": "黑龙江省",
            "city": "齐齐哈尔市",
            "district": "甘南县"
        }
    },
    {
        "id": "7273917217738809194",
        "title": "公共厕所",
        "address": "黑龙江省齐齐哈尔市梅里斯达斡尔族区达呼店镇绥满高速公路中国石油加油站",
        "tel": "",
        "category": "基础设施:公共设施:公共厕所",
        "type": 0,
        "location": {
            "lat": 47.63577,
            "lng": 123.623929
        },
        "ad_info": {
            "adcode": 230208,
            "province": "黑龙江省",
            "city": "齐齐哈尔市",
            "district": "梅里斯达斡尔族区"
        }
    },
    {
        "id": "2865609478970963284",
        "title": "公共厕所",
        "address": "黑龙江省齐齐哈尔市甘南县光明路与奋斗路交叉口正北方向140米左右",
        "tel": "",
        "category": "基础设施:公共设施:公共厕所",
        "type": 0,
        "location": {
            "lat": 47.922517,
            "lng": 123.513895
        },
        "ad_info": {
            "adcode": 230225,
            "province": "黑龙江省",
            "city": "齐齐哈尔市",
            "district": "甘南县"
        }
    },
    {
        "id": "6211044474249453621",
        "title": "公共厕所",
        "address": "黑龙江省齐齐哈尔市依安县兴科路与城兴街交叉口东北方向71米左右",
        "tel": "",
        "category": "基础设施:公共设施:公共厕所",
        "type": 0,
        "location": {
            "lat": 47.881781,
            "lng": 125.307664
        },
        "ad_info": {
            "adcode": 230223,
            "province": "黑龙江省",
            "city": "齐齐哈尔市",
            "district": "依安县"
        }
    },
    {
        "id": "10870459007831851753",
        "title": "公共厕所",
        "address": "黑龙江省齐齐哈尔市昂昂溪区西江路与铁中街交叉口正西方向54米左右",
        "tel": "",
        "category": "基础设施:公共设施:公共厕所",
        "type": 0,
        "location": {
            "lat": 47.167928,
            "lng": 123.816975
        },
        "ad_info": {
            "adcode": 230205,
            "province": "黑龙江省",
            "city": "齐齐哈尔市",
            "district": "昂昂溪区"
        }
    },
    {
        "id": "4593051778011683112",
        "title": "公共厕所",
        "address": "黑龙江省齐齐哈尔市碾子山区第三小学校东侧130米",
        "tel": "",
        "category": "基础设施:公共设施:公共厕所",
        "type": 0,
        "location": {
            "lat": 47.522041,
            "lng": 122.897513
        },
        "ad_info": {
            "adcode": 230207,
            "province": "黑龙江省",
            "city": "齐齐哈尔市",
            "district": "碾子山区"
        }
    },
    {
        "id": "3681174499906413149",
        "title": "公共厕所",
        "address": "黑龙江省齐齐哈尔市富拉尔基区园林路与小北路交叉口正东方向83米左右",
        "tel": "",
        "category": "基础设施:公共设施:公共厕所",
        "type": 0,
        "location": {
            "lat": 47.226455,
            "lng": 123.660066
        },
        "ad_info": {
            "adcode": 230206,
            "province": "黑龙江省",
            "city": "齐齐哈尔市",
            "district": "富拉尔基区"
        }
    },
    {
        "id": "1035071173764971252",
        "title": "公共厕所",
        "address": "黑龙江省齐齐哈尔市讷河市农乐街与环城北路交叉口正东方向120米左右",
        "tel": "",
        "category": "基础设施:公共设施:公共厕所",
        "type": 0,
        "location": {
            "lat": 48.488142,
            "lng": 124.886413
        },
        "ad_info": {
            "adcode": 230281,
            "province": "黑龙江省",
            "city": "齐齐哈尔市",
            "district": "讷河市"
        }
    },
    {
        "id": "9045228621816248237",
        "title": "公共厕所",
        "address": "黑龙江省齐齐哈尔市讷河市奋斗路与安顺街交叉口东北方向112米左右",
        "tel": "",
        "category": "基础设施:公共设施:公共厕所",
        "type": 0,
        "location": {
            "lat": 48.720525,
            "lng": 125.513253
        },
        "ad_info": {
            "adcode": 230281,
            "province": "黑龙江省",
            "city": "齐齐哈尔市",
            "district": "讷河市"
        }
    },
    {
        "id": "9428540833802440159",
        "title": "公共厕所",
        "address": "黑龙江省齐齐哈尔市克山县中共克山县公安委员会东北",
        "tel": "",
        "category": "基础设施:公共设施:公共厕所",
        "type": 0,
        "location": {
            "lat": 48.029821,
            "lng": 125.862534
        },
        "ad_info": {
            "adcode": 230229,
            "province": "黑龙江省",
            "city": "齐齐哈尔市",
            "district": "克山县"
        }
    },
    {
        "id": "439289347461777452",
        "title": "公共厕所",
        "address": "黑龙江省齐齐哈尔市龙沙区农田路与齐昂公路交叉口东南方向94米左右",
        "tel": "",
        "category": "基础设施:公共设施:公共厕所",
        "type": 0,
        "location": {
            "lat": 47.279216,
            "lng": 123.923422
        },
        "ad_info": {
            "adcode": 230202,
            "province": "黑龙江省",
            "city": "齐齐哈尔市",
            "district": "龙沙区"
        }
    },
    {
        "id": "9131155354945684258",
        "title": "公共厕所",
        "address": "黑龙江省齐齐哈尔市碾子山区新惠路与跃进街交叉口西北方向23米左右",
        "tel": "",
        "category": "基础设施:公共设施:公共厕所",
        "type": 0,
        "location": {
            "lat": 47.511333,
            "lng": 122.874602
        },
        "ad_info": {
            "adcode": 230207,
            "province": "黑龙江省",
            "city": "齐齐哈尔市",
            "district": "碾子山区"
        }
    },
    {
        "id": "1292201456202895966",
        "title": "公共厕所",
        "address": "黑龙江省齐齐哈尔市梅里斯达斡尔族区清真屠宰厂(齐查公路)东侧160米",
        "tel": "",
        "category": "基础设施:公共设施:公共厕所",
        "type": 0,
        "location": {
            "lat": 47.435563,
            "lng": 123.87554
        },
        "ad_info": {
            "adcode": 230208,
            "province": "黑龙江省",
            "city": "齐齐哈尔市",
            "district": "梅里斯达斡尔族区"
        }
    },
    {
        "id": "11868994781756928616",
        "title": "公共厕所",
        "address": "黑龙江省齐齐哈尔市富拉尔基区新华路与红岸大街交叉口正南方向215米左右",
        "tel": "",
        "category": "基础设施:公共设施:公共厕所",
        "type": 0,
        "location": {
            "lat": 47.206194,
            "lng": 123.644768
        },
        "ad_info": {
            "adcode": 230206,
            "province": "黑龙江省",
            "city": "齐齐哈尔市",
            "district": "富拉尔基区"
        }
    },
    {
        "id": "14205659096035716024",
        "title": "公共厕所",
        "address": "黑龙江省齐齐哈尔市依安县永廉街与粮丰路交叉口东南方向25米左右",
        "tel": "",
        "category": "基础设施:公共设施:公共厕所",
        "type": 0,
        "location": {
            "lat": 47.883112,
            "lng": 125.318701
        },
        "ad_info": {
            "adcode": 230223,
            "province": "黑龙江省",
            "city": "齐齐哈尔市",
            "district": "依安县"
        }
    },
    {
        "id": "15178748894818876937",
        "title": "公共厕所",
        "address": "黑龙江省齐齐哈尔市克东县圣水路与惠民街交叉口正北方向225米左右",
        "tel": "",
        "category": "基础设施:公共设施:公共厕所",
        "type": 0,
        "location": {
            "lat": 48.046812,
            "lng": 126.256902
        },
        "ad_info": {
            "adcode": 230230,
            "province": "黑龙江省",
            "city": "齐齐哈尔市",
            "district": "克东县"
        }
    },
    {
        "id": "961344195780052465",
        "title": "公共厕所",
        "address": "黑龙江省齐齐哈尔市依安县依安镇第三派出所(北新路北)",
        "tel": "",
        "category": "基础设施:公共设施:公共厕所",
        "type": 0,
        "location": {
            "lat": 47.899559,
            "lng": 125.310137
        },
        "ad_info": {
            "adcode": 230223,
            "province": "黑龙江省",
            "city": "齐齐哈尔市",
            "district": "依安县"
        }
    },
    {
        "id": "16998755295974884441",
        "title": "公共厕所",
        "address": "黑龙江省齐齐哈尔市昂昂溪区西江路与铁南街交叉口正北方向95米左右",
        "tel": "",
        "category": "基础设施:公共设施:公共厕所",
        "type": 0,
        "location": {
            "lat": 47.161577,
            "lng": 123.809901
        },
        "ad_info": {
            "adcode": 230205,
            "province": "黑龙江省",
            "city": "齐齐哈尔市",
            "district": "昂昂溪区"
        }
    },
    {
        "id": "7699975316367397561",
        "title": "公共厕所",
        "address": "黑龙江省齐齐哈尔市梅里斯达斡尔族区富梅路与梅甘街交叉口西南方向96米左右",
        "tel": "",
        "category": "基础设施:公共设施:公共厕所",
        "type": 0,
        "location": {
            "lat": 47.31233,
            "lng": 123.761733
        },
        "ad_info": {
            "adcode": 230208,
            "province": "黑龙江省",
            "city": "齐齐哈尔市",
            "district": "梅里斯达斡尔族区"
        }
    },
    {
        "id": "1957125050760216729",
        "title": "公共厕所",
        "address": "黑龙江省齐齐哈尔市拜泉县县直街与红旗路交叉口正北方向84米左右",
        "tel": "",
        "category": "基础设施:公共设施:公共厕所",
        "type": 0,
        "location": {
            "lat": 47.602659,
            "lng": 126.095945
        },
        "ad_info": {
            "adcode": 230231,
            "province": "黑龙江省",
            "city": "齐齐哈尔市",
            "district": "拜泉县"
        }
    },
    {
        "id": "12261436119154561406",
        "title": "公共厕所",
        "address": "黑龙江省齐齐哈尔市克东县南阳路克东县妇幼保健院",
        "tel": "",
        "category": "基础设施:公共设施:公共厕所",
        "type": 0,
        "location": {
            "lat": 48.029968,
            "lng": 126.246807
        },
        "ad_info": {
            "adcode": 230230,
            "province": "黑龙江省",
            "city": "齐齐哈尔市",
            "district": "克东县"
        }
    },
    {
        "id": "4388860617299280480",
        "title": "公共厕所",
        "address": "黑龙江省齐齐哈尔市梅里斯达斡尔族区Y094与齐查公路交叉口正南方向892米左右",
        "tel": "",
        "category": "基础设施:公共设施:公共厕所",
        "type": 0,
        "location": {
            "lat": 47.448841,
            "lng": 123.909948
        },
        "ad_info": {
            "adcode": 230208,
            "province": "黑龙江省",
            "city": "齐齐哈尔市",
            "district": "梅里斯达斡尔族区"
        }
    },
    {
        "id": "15299283547450306890",
        "title": "公共厕所",
        "address": "黑龙江省齐齐哈尔市龙沙区五福路与卜奎南大街交叉口正南方向44米左右",
        "tel": "",
        "category": "基础设施:公共设施:公共厕所",
        "type": 0,
        "location": {
            "lat": 47.32875,
            "lng": 123.958387
        },
        "ad_info": {
            "adcode": 230202,
            "province": "黑龙江省",
            "city": "齐齐哈尔市",
            "district": "龙沙区"
        }
    },
    {
        "id": "4310537297324767662",
        "title": "公共厕所",
        "address": "黑龙江省齐齐哈尔市克东县一条街与鑫源路交叉口西北方向17米左右",
        "tel": "",
        "category": "基础设施:公共设施:公共厕所",
        "type": 0,
        "location": {
            "lat": 48.034499,
            "lng": 126.235427
        },
        "ad_info": {
            "adcode": 230230,
            "province": "黑龙江省",
            "city": "齐齐哈尔市",
            "district": "克东县"
        }
    },
    {
        "id": "123718224523806784",
        "title": "公共卫生间",
        "address": "黑龙江省齐齐哈尔市龙江县北市街与新谊路交叉口正北方向87米左右",
        "tel": "",
        "category": "基础设施:公共设施:公共厕所",
        "type": 0,
        "location": {
            "lat": 47.339299,
            "lng": 123.197654
        },
        "ad_info": {
            "adcode": 230221,
            "province": "黑龙江省",
            "city": "齐齐哈尔市",
            "district": "龙江县"
        }
    },
    {
        "id": "10856006218723303206",
        "title": "公共厕所",
        "address": "黑龙江省齐齐哈尔市泰来县建设路与新生街交叉口西南方向28米左右",
        "tel": "",
        "category": "基础设施:公共设施:公共厕所",
        "type": 0,
        "location": {
            "lat": 46.402021,
            "lng": 123.419878
        },
        "ad_info": {
            "adcode": 230224,
            "province": "黑龙江省",
            "city": "齐齐哈尔市",
            "district": "泰来县"
        }
    },
    {
        "id": "5129264628021149911",
        "title": "公共厕所",
        "address": "黑龙江省齐齐哈尔市拜泉县向阳路与曙光街交叉口正北方向29米左右",
        "tel": "",
        "category": "基础设施:公共设施:公共厕所",
        "type": 0,
        "location": {
            "lat": 47.60896,
            "lng": 126.09517
        },
        "ad_info": {
            "adcode": 230231,
            "province": "黑龙江省",
            "city": "齐齐哈尔市",
            "district": "拜泉县"
        }
    },
    {
        "id": "8144243653317821032",
        "title": "公共厕所",
        "address": "黑龙江省齐齐哈尔市拜泉县建设路与西安街交叉口东南方向68米左右",
        "tel": "",
        "category": "基础设施:公共设施:公共厕所",
        "type": 0,
        "location": {
            "lat": 47.603342,
            "lng": 126.089969
        },
        "ad_info": {
            "adcode": 230231,
            "province": "黑龙江省",
            "city": "齐齐哈尔市",
            "district": "拜泉县"
        }
    },
    {
        "id": "10530221957567457474",
        "title": "公共厕所",
        "address": "黑龙江省齐齐哈尔市龙沙区东甫胡同与北大仓街交叉口正南方向51米左右",
        "tel": "",
        "category": "基础设施:公共设施:公共厕所",
        "type": 0,
        "location": {
            "lat": 47.341985,
            "lng": 123.961164
        },
        "ad_info": {
            "adcode": 230202,
            "province": "黑龙江省",
            "city": "齐齐哈尔市",
            "district": "龙沙区"
        }
    },
    {
        "id": "15054749482186521982",
        "title": "公共厕所",
        "address": "黑龙江省齐齐哈尔市克东县S304",
        "tel": "",
        "category": "基础设施:公共设施:公共厕所",
        "type": 0,
        "location": {
            "lat": 48.215546,
            "lng": 126.062962
        },
        "ad_info": {
            "adcode": 230230,
            "province": "黑龙江省",
            "city": "齐齐哈尔市",
            "district": "克东县"
        }
    },
    {
        "id": "5934784169180096691",
        "title": "公共厕所",
        "address": "黑龙江省齐齐哈尔市克东县安顺街与民安路交叉口西南方向37米左右",
        "tel": "",
        "category": "基础设施:公共设施:公共厕所",
        "type": 0,
        "location": {
            "lat": 48.031035,
            "lng": 126.238091
        },
        "ad_info": {
            "adcode": 230230,
            "province": "黑龙江省",
            "city": "齐齐哈尔市",
            "district": "克东县"
        }
    },
    {
        "id": "3563836409725516038",
        "title": "公共厕所",
        "address": "黑龙江省齐齐哈尔市龙沙区南马路与通达街交叉口东南方向81米左右",
        "tel": "",
        "category": "基础设施:公共设施:公共厕所",
        "type": 0,
        "location": {
            "lat": 47.333692,
            "lng": 123.950623
        },
        "ad_info": {
            "adcode": 230202,
            "province": "黑龙江省",
            "city": "齐齐哈尔市",
            "district": "龙沙区"
        }
    },
    {
        "id": "14031829541907862807",
        "title": "公共厕所",
        "address": "黑龙江省齐齐哈尔市克东县圣水路与新成街交叉口北220米",
        "tel": "",
        "category": "基础设施:公共设施:公共厕所",
        "type": 0,
        "location": {
            "lat": 48.046973,
            "lng": 126.259453
        },
        "ad_info": {
            "adcode": 230230,
            "province": "黑龙江省",
            "city": "齐齐哈尔市",
            "district": "克东县"
        }
    },
    {
        "id": "5362703029237931522",
        "title": "公共厕所",
        "address": "黑龙江省齐齐哈尔市克东县复兴街与鑫源路交叉口正南方向96米左右",
        "tel": "",
        "category": "基础设施:公共设施:公共厕所",
        "type": 0,
        "location": {
            "lat": 48.03514,
            "lng": 126.256519
        },
        "ad_info": {
            "adcode": 230230,
            "province": "黑龙江省",
            "city": "齐齐哈尔市",
            "district": "克东县"
        }
    },
    {
        "id": "6539386469017633590",
        "title": "公共厕所",
        "address": "黑龙江省齐齐哈尔市铁锋区金百合快捷酒店(齐齐哈尔站西)",
        "tel": "",
        "category": "基础设施:公共设施:公共厕所",
        "type": 0,
        "location": {
            "lat": 47.340938,
            "lng": 123.992458
        },
        "ad_info": {
            "adcode": 230204,
            "province": "黑龙江省",
            "city": "齐齐哈尔市",
            "district": "铁锋区"
        }
    },
    {
        "id": "15245752604693633016",
        "title": "公共厕所",
        "address": "黑龙江省齐齐哈尔市克东县民安路与鹤祥街交叉口东北方向27米左右",
        "tel": "",
        "category": "基础设施:公共设施:公共厕所",
        "type": 0,
        "location": {
            "lat": 48.031296,
            "lng": 126.236319
        },
        "ad_info": {
            "adcode": 230230,
            "province": "黑龙江省",
            "city": "齐齐哈尔市",
            "district": "克东县"
        }
    },
    {
        "id": "682150898891822229",
        "title": "公共厕所",
        "address": "黑龙江省齐齐哈尔市克东县建设街与蒲峪大道交叉口东南方向230米左右",
        "tel": "",
        "category": "基础设施:公共设施:公共厕所",
        "type": 0,
        "location": {
            "lat": 48.038301,
            "lng": 126.269304
        },
        "ad_info": {
            "adcode": 230230,
            "province": "黑龙江省",
            "city": "齐齐哈尔市",
            "district": "克东县"
        }
    },
    {
        "id": "4523046944992616270",
        "title": "公共厕所",
        "address": "黑龙江省齐齐哈尔市龙沙区合意大街与安顺路交叉口东北方向59米左右",
        "tel": "",
        "category": "基础设施:公共设施:公共厕所",
        "type": 0,
        "location": {
            "lat": 47.333181,
            "lng": 123.931157
        },
        "ad_info": {
            "adcode": 230202,
            "province": "黑龙江省",
            "city": "齐齐哈尔市",
            "district": "龙沙区"
        }
    },
    {
        "id": "17498335258884859182",
        "title": "公共厕所",
        "address": "黑龙江省齐齐哈尔市克东县南六路与振兴街交叉口正东方向224米左右",
        "tel": "",
        "category": "基础设施:公共设施:公共厕所",
        "type": 0,
        "location": {
            "lat": 48.023735,
            "lng": 126.248349
        },
        "ad_info": {
            "adcode": 230230,
            "province": "黑龙江省",
            "city": "齐齐哈尔市",
            "district": "克东县"
        }
    },
    {
        "id": "15364430380216161845",
        "title": "公共厕所",
        "address": "黑龙江省齐齐哈尔市龙江县新谊路与科技巷交叉口正南方向110米左右",
        "tel": "",
        "category": "基础设施:公共设施:公共厕所",
        "type": 0,
        "location": {
            "lat": 47.336503,
            "lng": 123.196024
        },
        "ad_info": {
            "adcode": 230221,
            "province": "黑龙江省",
            "city": "齐齐哈尔市",
            "district": "龙江县"
        }
    },
    {
        "id": "13173049011944533652",
        "title": "公共厕所",
        "address": "黑龙江省齐齐哈尔市克山县石桥南街与通达路交叉口西北方向61米左右",
        "tel": "",
        "category": "基础设施:公共设施:公共厕所",
        "type": 0,
        "location": {
            "lat": 48.030614,
            "lng": 125.870581
        },
        "ad_info": {
            "adcode": 230229,
            "province": "黑龙江省",
            "city": "齐齐哈尔市",
            "district": "克山县"
        }
    },
    {
        "id": "7665401558078053445",
        "title": "公共卫生间",
        "address": "黑龙江省齐齐哈尔市龙江县恒丰街兴海家园",
        "tel": "",
        "category": "基础设施:公共设施:公共厕所",
        "type": 0,
        "location": {
            "lat": 47.341841,
            "lng": 123.206225
        },
        "ad_info": {
            "adcode": 230221,
            "province": "黑龙江省",
            "city": "齐齐哈尔市",
            "district": "龙江县"
        }
    },
    {
        "id": "8030955469450116748",
        "title": "公共厕所",
        "address": "黑龙江省齐齐哈尔市依安县城育路与英泰街交叉口西北方向48米左右",
        "tel": "",
        "category": "基础设施:公共设施:公共厕所",
        "type": 0,
        "location": {
            "lat": 47.888218,
            "lng": 125.294462
        },
        "ad_info": {
            "adcode": 230223,
            "province": "黑龙江省",
            "city": "齐齐哈尔市",
            "district": "依安县"
        }
    },
    {
        "id": "10322609063574129741",
        "title": "公共厕所",
        "address": "黑龙江省齐齐哈尔市龙江县北市街与延顺路交叉口西北方向85米左右",
        "tel": "",
        "category": "基础设施:公共设施:公共厕所",
        "type": 0,
        "location": {
            "lat": 47.33555,
            "lng": 123.205551
        },
        "ad_info": {
            "adcode": 230221,
            "province": "黑龙江省",
            "city": "齐齐哈尔市",
            "district": "龙江县"
        }
    },
    {
        "id": "5659962288467995723",
        "title": "齐齐哈尔服务区公共厕所",
        "address": "黑龙江省齐齐哈尔市梅里斯达斡尔族区与G10绥满高速交叉口西180米",
        "tel": "",
        "category": "基础设施:公共设施:公共厕所",
        "type": 0,
        "location": {
            "lat": 47.41876,
            "lng": 123.753848
        },
        "ad_info": {
            "adcode": 230208,
            "province": "黑龙江省",
            "city": "齐齐哈尔市",
            "district": "梅里斯达斡尔族区"
        }
    },
    {
        "id": "11700901493020206521",
        "title": "公共厕所",
        "address": "黑龙江省齐齐哈尔市讷河市中心大街与兴华路交叉口正东方向186米左右",
        "tel": "",
        "category": "基础设施:公共设施:公共厕所",
        "type": 0,
        "location": {
            "lat": 48.489879,
            "lng": 124.882128
        },
        "ad_info": {
            "adcode": 230281,
            "province": "黑龙江省",
            "city": "齐齐哈尔市",
            "district": "讷河市"
        }
    },
    {
        "id": "2898970617785882873",
        "title": "公共厕所",
        "address": "黑龙江省齐齐哈尔市泰来县八一路与金昌街交叉口正北方向96米左右",
        "tel": "",
        "category": "基础设施:公共设施:公共厕所",
        "type": 0,
        "location": {
            "lat": 46.384035,
            "lng": 123.415006
        },
        "ad_info": {
            "adcode": 230224,
            "province": "黑龙江省",
            "city": "齐齐哈尔市",
            "district": "泰来县"
        }
    },
    {
        "id": "14112557828588245254",
        "title": "龙沙夜市公共厕所",
        "address": "黑龙江省齐齐哈尔市龙沙区中环路与永安大街交叉口正西方向120米左右",
        "tel": "",
        "category": "基础设施:公共设施:公共厕所",
        "type": 0,
        "location": {
            "lat": 47.342718,
            "lng": 123.949756
        },
        "ad_info": {
            "adcode": 230202,
            "province": "黑龙江省",
            "city": "齐齐哈尔市",
            "district": "龙沙区"
        }
    },
    {
        "id": "15467067552619556162",
        "title": "公共厕所",
        "address": "黑龙江省齐齐哈尔市泰来县汤池镇中央大街汤池站旁",
        "tel": "",
        "category": "基础设施:公共设施:公共厕所",
        "type": 0,
        "location": {
            "lat": 46.986873,
            "lng": 123.774324
        },
        "ad_info": {
            "adcode": 230224,
            "province": "黑龙江省",
            "city": "齐齐哈尔市",
            "district": "泰来县"
        }
    },
    {
        "id": "12362272608191839981",
        "title": "公共厕所",
        "address": "黑龙江省齐齐哈尔市泰来县宾馆路与金源街交叉口正南方向50米左右",
        "tel": "",
        "category": "基础设施:公共设施:公共厕所",
        "type": 0,
        "location": {
            "lat": 46.398933,
            "lng": 123.418904
        },
        "ad_info": {
            "adcode": 230224,
            "province": "黑龙江省",
            "city": "齐齐哈尔市",
            "district": "泰来县"
        }
    },
    {
        "id": "10449317250593118784",
        "title": "公共厕所",
        "address": "黑龙江省齐齐哈尔市泰来县泰来镇丰田村卫生室东南侧180米",
        "tel": "",
        "category": "基础设施:公共设施:公共厕所",
        "type": 0,
        "location": {
            "lat": 46.29612,
            "lng": 123.386364
        },
        "ad_info": {
            "adcode": 230224,
            "province": "黑龙江省",
            "city": "齐齐哈尔市",
            "district": "泰来县"
        }
    },
    {
        "id": "12343978652614810335",
        "title": "公共厕所",
        "address": "黑龙江省齐齐哈尔市泰来县建设路与泰塔线交叉口正北方向403米左右",
        "tel": "",
        "category": "基础设施:公共设施:公共厕所",
        "type": 0,
        "location": {
            "lat": 46.419103,
            "lng": 123.425278
        },
        "ad_info": {
            "adcode": 230224,
            "province": "黑龙江省",
            "city": "齐齐哈尔市",
            "district": "泰来县"
        }
    },
    {
        "id": "15002407262239895987",
        "title": "公共厕所",
        "address": "黑龙江省齐齐哈尔市铁锋区民航路与站前南大街交叉口西北方向172米左右",
        "tel": "",
        "category": "基础设施:公共设施:公共厕所",
        "type": 0,
        "location": {
            "lat": 47.316148,
            "lng": 123.978998
        },
        "ad_info": {
            "adcode": 230204,
            "province": "黑龙江省",
            "city": "齐齐哈尔市",
            "district": "铁锋区"
        }
    },
    {
        "id": "8459785171069500842",
        "title": "公共厕所",
        "address": "黑龙江省齐齐哈尔市拜泉县政府路与育新街交叉口正北方向14米左右",
        "tel": "",
        "category": "基础设施:公共设施:公共厕所",
        "type": 0,
        "location": {
            "lat": 47.613898,
            "lng": 126.10029
        },
        "ad_info": {
            "adcode": 230231,
            "province": "黑龙江省",
            "city": "齐齐哈尔市",
            "district": "拜泉县"
        }
    },
    {
        "id": "17123863833466396011",
        "title": "公共厕所",
        "address": "黑龙江省齐齐哈尔市泰来县光明街与胜利路交叉口正南方向154米左右",
        "tel": "",
        "category": "基础设施:公共设施:公共厕所",
        "type": 0,
        "location": {
            "lat": 46.385961,
            "lng": 123.426761
        },
        "ad_info": {
            "adcode": 230224,
            "province": "黑龙江省",
            "city": "齐齐哈尔市",
            "district": "泰来县"
        }
    },
    {
        "id": "13570645546036865972",
        "title": "公共厕所",
        "address": "黑龙江省齐齐哈尔市泰来县G231与繁荣街交叉口正西方向122米左右",
        "tel": "",
        "category": "基础设施:公共设施:公共厕所",
        "type": 0,
        "location": {
            "lat": 46.377787,
            "lng": 123.410222
        },
        "ad_info": {
            "adcode": 230224,
            "province": "黑龙江省",
            "city": "齐齐哈尔市",
            "district": "泰来县"
        }
    },
    {
        "id": "13632784841567374555",
        "title": "男洗手间(齐齐哈尔万达广场)",
        "address": "黑龙江省齐齐哈尔市建华区新江路1号万达广场B1",
        "tel": "",
        "category": "基础设施:公共设施:公共厕所",
        "type": 0,
        "location": {
            "lat": 47.368782,
            "lng": 123.947014
        },
        "ad_info": {
            "adcode": 230203,
            "province": "黑龙江省",
            "city": "齐齐哈尔市",
            "district": "建华区"
        }
    },
    {
        "id": "2835996660217473433",
        "title": "公共厕所",
        "address": "黑龙江省齐齐哈尔市铁锋区民主东街齐铁分局体育馆",
        "tel": "",
        "category": "基础设施:公共设施:公共厕所",
        "type": 0,
        "location": {
            "lat": 47.340022,
            "lng": 123.991679
        },
        "ad_info": {
            "adcode": 230204,
            "province": "黑龙江省",
            "city": "齐齐哈尔市",
            "district": "铁锋区"
        }
    },
    {
        "id": "11171306654340429119",
        "title": "依安服务区公共厕所",
        "address": "黑龙江省齐齐哈尔市依安县伊齐高速依安服务区",
        "tel": "",
        "category": "基础设施:公共设施:公共厕所",
        "type": 0,
        "location": {
            "lat": 47.910191,
            "lng": 125.03644
        },
        "ad_info": {
            "adcode": 230223,
            "province": "黑龙江省",
            "city": "齐齐哈尔市",
            "district": "依安县"
        }
    },
    {
        "id": "13677477663394346608",
        "title": "公共厕所",
        "address": "黑龙江省齐齐哈尔市铁锋区黎明街人民小区",
        "tel": "",
        "category": "基础设施:公共设施:公共厕所",
        "type": 0,
        "location": {
            "lat": 47.343,
            "lng": 124.014448
        },
        "ad_info": {
            "adcode": 230204,
            "province": "黑龙江省",
            "city": "齐齐哈尔市",
            "district": "铁锋区"
        }
    },
    {
        "id": "11069000908527120450",
        "title": "甘南服务区公共厕所",
        "address": "黑龙江省齐齐哈尔市甘南县G301与S309交叉口东南方向883米左右",
        "tel": "",
        "category": "基础设施:公共设施:公共厕所",
        "type": 0,
        "location": {
            "lat": 47.962706,
            "lng": 123.531094
        },
        "ad_info": {
            "adcode": 230225,
            "province": "黑龙江省",
            "city": "齐齐哈尔市",
            "district": "甘南县"
        }
    },
    {
        "id": "5167585714470786258",
        "title": "公共厕所",
        "address": "黑龙江省齐齐哈尔市铁锋区平安北街与平安南街交叉口正东方向52米左右",
        "tel": "",
        "category": "基础设施:公共设施:公共厕所",
        "type": 0,
        "location": {
            "lat": 47.340927,
            "lng": 123.973753
        },
        "ad_info": {
            "adcode": 230204,
            "province": "黑龙江省",
            "city": "齐齐哈尔市",
            "district": "铁锋区"
        }
    },
    {
        "id": "7630243148242632682",
        "title": "昂昂溪服务区公共厕所",
        "address": "黑龙江省齐齐哈尔市昂昂溪区双嫩高速与嫩泰高速交叉口东北方向1659米左右",
        "tel": "",
        "category": "基础设施:公共设施:公共厕所",
        "type": 0,
        "location": {
            "lat": 47.235429,
            "lng": 124.056099
        },
        "ad_info": {
            "adcode": 230205,
            "province": "黑龙江省",
            "city": "齐齐哈尔市",
            "district": "昂昂溪区"
        }
    },
    {
        "id": "18155396110683431281",
        "title": "甘南服务区公共厕所",
        "address": "黑龙江省齐齐哈尔市甘南县G301与S309交叉口东南方向811米左右",
        "tel": "",
        "category": "基础设施:公共设施:公共厕所",
        "type": 0,
        "location": {
            "lat": 47.961642,
            "lng": 123.529111
        },
        "ad_info": {
            "adcode": 230225,
            "province": "黑龙江省",
            "city": "齐齐哈尔市",
            "district": "甘南县"
        }
    },
    {
        "id": "15543452029900899151",
        "title": "昂昂溪服务区公共厕所",
        "address": "黑龙江省齐齐哈尔市昂昂溪区昂昂溪服务区与G4512双嫩高速交叉口西南340米",
        "tel": "",
        "category": "基础设施:公共设施:公共厕所",
        "type": 0,
        "location": {
            "lat": 47.2339,
            "lng": 124.057157
        },
        "ad_info": {
            "adcode": 230205,
            "province": "黑龙江省",
            "city": "齐齐哈尔市",
            "district": "昂昂溪区"
        }
    },
    {
        "id": "3779768748969454818",
        "title": "公共厕所",
        "address": "黑龙江省齐齐哈尔市铁锋区南局宅一路与民主东街交叉口正西方向114米左右",
        "tel": "",
        "category": "基础设施:公共设施:公共厕所",
        "type": 0,
        "location": {
            "lat": 47.33545,
            "lng": 123.988377
        },
        "ad_info": {
            "adcode": 230204,
            "province": "黑龙江省",
            "city": "齐齐哈尔市",
            "district": "铁锋区"
        }
    },
    {
        "id": "16740730565483515442",
        "title": "富裕服务区公共厕所",
        "address": "黑龙江省齐齐哈尔市富裕县友谊乡嫩泰高速公路富裕服务区",
        "tel": "",
        "category": "基础设施:公共设施:公共厕所",
        "type": 0,
        "location": {
            "lat": 47.754982,
            "lng": 124.460407
        },
        "ad_info": {
            "adcode": 230227,
            "province": "黑龙江省",
            "city": "齐齐哈尔市",
            "district": "富裕县"
        }
    },
    {
        "id": "6051575688877482538",
        "title": "公共厕所",
        "address": "黑龙江省齐齐哈尔市铁锋区太顺街与民主街交叉口西南方向74米左右",
        "tel": "",
        "category": "基础设施:公共设施:公共厕所",
        "type": 0,
        "location": {
            "lat": 47.340137,
            "lng": 123.988632
        },
        "ad_info": {
            "adcode": 230204,
            "province": "黑龙江省",
            "city": "齐齐哈尔市",
            "district": "铁锋区"
        }
    },
    {
        "id": "4438559922360922848",
        "title": "老莱服务区公共厕所",
        "address": "黑龙江省齐齐哈尔市讷河市老莱镇嫩泰高速公路老莱服务区",
        "tel": "",
        "category": "基础设施:公共设施:公共厕所",
        "type": 0,
        "location": {
            "lat": 48.660066,
            "lng": 124.990409
        },
        "ad_info": {
            "adcode": 230281,
            "province": "黑龙江省",
            "city": "齐齐哈尔市",
            "district": "讷河市"
        }
    },
    {
        "id": "3341025172347659378",
        "title": "太和服务区公共厕所",
        "address": "黑龙江省齐齐哈尔市讷河市双嫩高速太和服务区",
        "tel": "",
        "category": "基础设施:公共设施:公共厕所",
        "type": 0,
        "location": {
            "lat": 48.330438,
            "lng": 124.807308
        },
        "ad_info": {
            "adcode": 230281,
            "province": "黑龙江省",
            "city": "齐齐哈尔市",
            "district": "讷河市"
        }
    },
    {
        "id": "4148100132370400119",
        "title": "公共厕所",
        "address": "黑龙江省齐齐哈尔市铁锋区站前南大街280号",
        "tel": "",
        "category": "基础设施:公共设施:公共厕所",
        "type": 0,
        "location": {
            "lat": 47.331697,
            "lng": 123.989864
        },
        "ad_info": {
            "adcode": 230204,
            "province": "黑龙江省",
            "city": "齐齐哈尔市",
            "district": "铁锋区"
        }
    },
    {
        "id": "8812921884027661424",
        "title": "泰来服务区公共厕所",
        "address": "黑龙江省齐齐哈尔市泰来县双嫩高速",
        "tel": "",
        "category": "基础设施:公共设施:公共厕所",
        "type": 0,
        "location": {
            "lat": 46.386922,
            "lng": 123.480233
        },
        "ad_info": {
            "adcode": 230224,
            "province": "黑龙江省",
            "city": "齐齐哈尔市",
            "district": "泰来县"
        }
    },
    {
        "id": "5823953504765096229",
        "title": "泰来服务区公共厕所",
        "address": "黑龙江省齐齐哈尔市泰来县Y003与金源街交叉口东南方向1939米左右",
        "tel": "",
        "category": "基础设施:公共设施:公共厕所",
        "type": 0,
        "location": {
            "lat": 46.38742,
            "lng": 123.478084
        },
        "ad_info": {
            "adcode": 230224,
            "province": "黑龙江省",
            "city": "齐齐哈尔市",
            "district": "泰来县"
        }
    },
    {
        "id": "6738874572517187196",
        "title": "残疾人洗手间(万达广场)",
        "address": "黑龙江省齐齐哈尔市建华区新江路1号万达广场F2",
        "tel": "",
        "category": "基础设施:公共设施:无障碍洗手间",
        "type": 0,
        "location": {
            "lat": 47.368778,
            "lng": 123.947104
        },
        "ad_info": {
            "adcode": 230203,
            "province": "黑龙江省",
            "city": "齐齐哈尔市",
            "district": "建华区"
        }
    },
    {
        "id": "5535557180351165389",
        "title": "女洗手间(齐齐哈尔万达广场)",
        "address": "黑龙江省齐齐哈尔市建华区新江路1号万达广场F3",
        "tel": "",
        "category": "基础设施:公共设施:女洗手间",
        "type": 0,
        "location": {
            "lat": 47.367574,
            "lng": 123.949654
        },
        "ad_info": {
            "adcode": 230203,
            "province": "黑龙江省",
            "city": "齐齐哈尔市",
            "district": "建华区"
        }
    },
    {
        "id": "2136501262352600957",
        "title": "女卫生间",
        "address": "黑龙江省齐齐哈尔市建华区新江路1号万达广场F2",
        "tel": "",
        "category": "基础设施:公共设施:女洗手间",
        "type": 0,
        "location": {
            "lat": 47.367942,
            "lng": 123.948503
        },
        "ad_info": {
            "adcode": 230203,
            "province": "黑龙江省",
            "city": "齐齐哈尔市",
            "district": "建华区"
        }
    },
    {
        "id": "878103484733854285",
        "title": "残疾人卫生间",
        "address": "黑龙江省齐齐哈尔市建华区新江路1号万达广场F4",
        "tel": "",
        "category": "基础设施:公共设施:无障碍洗手间",
        "type": 0,
        "location": {
            "lat": 47.368341,
            "lng": 123.946914
        },
        "ad_info": {
            "adcode": 230203,
            "province": "黑龙江省",
            "city": "齐齐哈尔市",
            "district": "建华区"
        }
    },
    {
        "id": "18420117787636652635",
        "title": "女卫生间",
        "address": "黑龙江省齐齐哈尔市建华区新江路1号万达广场F2",
        "tel": "",
        "category": "基础设施:公共设施:女洗手间",
        "type": 0,
        "location": {
            "lat": 47.367576,
            "lng": 123.949656
        },
        "ad_info": {
            "adcode": 230203,
            "province": "黑龙江省",
            "city": "齐齐哈尔市",
            "district": "建华区"
        }
    },
    {
        "id": "13241494936093333894",
        "title": "女卫生间",
        "address": "黑龙江省齐齐哈尔市建华区新江路1号万达广场F3",
        "tel": "",
        "category": "基础设施:公共设施:女洗手间",
        "type": 0,
        "location": {
            "lat": 47.368345,
            "lng": 123.948539
        },
        "ad_info": {
            "adcode": 230203,
            "province": "黑龙江省",
            "city": "齐齐哈尔市",
            "district": "建华区"
        }
    },
    {
        "id": "8239162344403447214",
        "title": "残疾人卫生间",
        "address": "黑龙江省齐齐哈尔市建华区新江路1号万达广场F1",
        "tel": "",
        "category": "基础设施:公共设施:无障碍洗手间",
        "type": 0,
        "location": {
            "lat": 47.368777,
            "lng": 123.947102
        },
        "ad_info": {
            "adcode": 230203,
            "province": "黑龙江省",
            "city": "齐齐哈尔市",
            "district": "建华区"
        }
    },
    {
        "id": "3772211676879293615",
        "title": "公共厕所",
        "address": "黑龙江省齐齐哈尔市龙江县北市街与青平路交叉口正北方向53米左右",
        "tel": "",
        "category": "基础设施:公共设施:公共厕所",
        "type": 0,
        "location": {
            "lat": 47.337316,
            "lng": 123.201535
        },
        "ad_info": {
            "adcode": 230221,
            "province": "黑龙江省",
            "city": "齐齐哈尔市",
            "district": "龙江县"
        }
    },
    {
        "id": "3627425873924191299",
        "title": "男卫生间",
        "address": "黑龙江省齐齐哈尔市建华区新江路1号万达广场F3",
        "tel": "",
        "category": "基础设施:公共设施:男洗手间",
        "type": 0,
        "location": {
            "lat": 47.368836,
            "lng": 123.947052
        },
        "ad_info": {
            "adcode": 230203,
            "province": "黑龙江省",
            "city": "齐齐哈尔市",
            "district": "建华区"
        }
    },
    {
        "id": "9709110715811107767",
        "title": "公共卫生间",
        "address": "黑龙江省齐齐哈尔市甘南县发展街与建设路交叉口东南方向126米左右",
        "tel": "",
        "category": "基础设施:公共设施:公共厕所",
        "type": 0,
        "location": {
            "lat": 47.912698,
            "lng": 123.507876
        },
        "ad_info": {
            "adcode": 230225,
            "province": "黑龙江省",
            "city": "齐齐哈尔市",
            "district": "甘南县"
        }
    },
    {
        "id": "665519279604934823",
        "title": "公共厕所",
        "address": "黑龙江省齐齐哈尔市龙江县安卫街与长青路交叉口西南方向63米左右",
        "tel": "",
        "category": "基础设施:公共设施:公共厕所",
        "type": 0,
        "location": {
            "lat": 47.335259,
            "lng": 123.178164
        },
        "ad_info": {
            "adcode": 230221,
            "province": "黑龙江省",
            "city": "齐齐哈尔市",
            "district": "龙江县"
        }
    },
    {
        "id": "10418797314371008106",
        "title": "残疾人卫生间",
        "address": "黑龙江省齐齐哈尔市建华区新江路1号万达广场F3",
        "tel": "",
        "category": "基础设施:公共设施:无障碍洗手间",
        "type": 0,
        "location": {
            "lat": 47.368777,
            "lng": 123.947101
        },
        "ad_info": {
            "adcode": 230203,
            "province": "黑龙江省",
            "city": "齐齐哈尔市",
            "district": "建华区"
        }
    },
    {
        "id": "18219644557371630481",
        "title": "公共厕所",
        "address": "黑龙江省齐齐哈尔市依安县民乐街与永清路交叉口正北方向63米左右",
        "tel": "",
        "category": "基础设施:公共设施:公共厕所",
        "type": 0,
        "location": {
            "lat": 47.88539,
            "lng": 125.31246
        },
        "ad_info": {
            "adcode": 230223,
            "province": "黑龙江省",
            "city": "齐齐哈尔市",
            "district": "依安县"
        }
    },
    {
        "id": "1591701768607918543",
        "title": "公共厕所",
        "address": "黑龙江省齐齐哈尔市甘南县奋斗路与甘双线交叉口正东方向438米左右",
        "tel": "",
        "category": "基础设施:公共设施:公共厕所",
        "type": 0,
        "location": {
            "lat": 47.919711,
            "lng": 123.52126
        },
        "ad_info": {
            "adcode": 230225,
            "province": "黑龙江省",
            "city": "齐齐哈尔市",
            "district": "甘南县"
        }
    },
    {
        "id": "6063723186417087814",
        "title": "公共厕所",
        "address": "黑龙江省齐齐哈尔市碾子山区跃新路齐齐哈尔市碾子山区第二小学校东北侧约210米",
        "tel": "",
        "category": "基础设施:公共设施:公共厕所",
        "type": 0,
        "location": {
            "lat": 47.510222,
            "lng": 122.88048
        },
        "ad_info": {
            "adcode": 230207,
            "province": "黑龙江省",
            "city": "齐齐哈尔市",
            "district": "碾子山区"
        }
    },
    {
        "id": "3120685531238284359",
        "title": "公共厕所",
        "address": "黑龙江省齐齐哈尔市建华区新明大街与春江路交叉口正北方向81米左右",
        "tel": "",
        "category": "基础设施:公共设施:公共厕所",
        "type": 0,
        "location": {
            "lat": 47.368652,
            "lng": 123.928951
        },
        "ad_info": {
            "adcode": 230203,
            "province": "黑龙江省",
            "city": "齐齐哈尔市",
            "district": "建华区"
        }
    },
    {
        "id": "15832639673329916608",
        "title": "太和服务区公共厕所",
        "address": "黑龙江省齐齐哈尔市讷河市双嫩高速太和服务区",
        "tel": "",
        "category": "基础设施:公共设施:公共厕所",
        "type": 0,
        "location": {
            "lat": 48.329224,
            "lng": 124.808958
        },
        "ad_info": {
            "adcode": 230281,
            "province": "黑龙江省",
            "city": "齐齐哈尔市",
            "district": "讷河市"
        }
    },
    {
        "id": "7431926519050531263",
        "title": "公共厕所",
        "address": "黑龙江省齐齐哈尔市铁锋区先锋街73号",
        "tel": "",
        "category": "基础设施:公共设施:公共厕所",
        "type": 0,
        "location": {
            "lat": 47.341475,
            "lng": 124.001952
        },
        "ad_info": {
            "adcode": 230204,
            "province": "黑龙江省",
            "city": "齐齐哈尔市",
            "district": "铁锋区"
        }
    },
    {
        "id": "17836248812899572405",
        "title": "公共厕所",
        "address": "黑龙江省齐齐哈尔市铁锋区厂北路与新工街交叉口东南方向237米左右",
        "tel": "",
        "category": "基础设施:公共设施:公共厕所",
        "type": 0,
        "location": {
            "lat": 47.355096,
            "lng": 124.023496
        },
        "ad_info": {
            "adcode": 230204,
            "province": "黑龙江省",
            "city": "齐齐哈尔市",
            "district": "铁锋区"
        }
    },
    {
        "id": "13232542896827403657",
        "title": "公共厕所",
        "address": "黑龙江省齐齐哈尔市建华区龙北街与龙沙路交叉口西北方向80米左右",
        "tel": "",
        "category": "基础设施:公共设施:公共厕所",
        "type": 0,
        "location": {
            "lat": 47.34586,
            "lng": 123.967534
        },
        "ad_info": {
            "adcode": 230203,
            "province": "黑龙江省",
            "city": "齐齐哈尔市",
            "district": "建华区"
        }
    },
    {
        "id": "10080701192953762545",
        "title": "公共厕所",
        "address": "黑龙江省齐齐哈尔市龙沙区喜庆路与天山街交叉口正北方向151米左右",
        "tel": "",
        "category": "基础设施:公共设施:公共厕所",
        "type": 0,
        "location": {
            "lat": 47.310679,
            "lng": 123.938654
        },
        "ad_info": {
            "adcode": 230202,
            "province": "黑龙江省",
            "city": "齐齐哈尔市",
            "district": "龙沙区"
        }
    },
    {
        "id": "12339899944019925869",
        "title": "公共厕所",
        "address": "黑龙江省齐齐哈尔市建华区中华西路与新明大街交叉口东北方向60米左右",
        "tel": "",
        "category": "基础设施:公共设施:公共厕所",
        "type": 0,
        "location": {
            "lat": 47.360346,
            "lng": 123.923068
        },
        "ad_info": {
            "adcode": 230203,
            "province": "黑龙江省",
            "city": "齐齐哈尔市",
            "district": "建华区"
        }
    },
    {
        "id": "8237616041516693757",
        "title": "公共厕所",
        "address": "黑龙江省齐齐哈尔市龙江县县府街与建设路交叉口东南方向118米左右",
        "tel": "",
        "category": "基础设施:公共设施:公共厕所",
        "type": 0,
        "location": {
            "lat": 47.336352,
            "lng": 123.191542
        },
        "ad_info": {
            "adcode": 230221,
            "province": "黑龙江省",
            "city": "齐齐哈尔市",
            "district": "龙江县"
        }
    },
    {
        "id": "6626564337672885014",
        "title": "公共厕所",
        "address": "黑龙江省齐齐哈尔市龙江县龙江镇中国石油龙江通齐路加油站西北",
        "tel": "",
        "category": "基础设施:公共设施:公共厕所",
        "type": 0,
        "location": {
            "lat": 47.323903,
            "lng": 123.200227
        },
        "ad_info": {
            "adcode": 230221,
            "province": "黑龙江省",
            "city": "齐齐哈尔市",
            "district": "龙江县"
        }
    },
    {
        "id": "1064105684035738980",
        "title": "残疾人卫生间",
        "address": "黑龙江省齐齐哈尔市建华区新江路1号万达广场F3",
        "tel": "",
        "category": "基础设施:公共设施:无障碍洗手间",
        "type": 0,
        "location": {
            "lat": 47.367604,
            "lng": 123.949689
        },
        "ad_info": {
            "adcode": 230203,
            "province": "黑龙江省",
            "city": "齐齐哈尔市",
            "district": "建华区"
        }
    },
    {
        "id": "6299700221527045221",
        "title": "公共厕所",
        "address": "黑龙江省齐齐哈尔市拜泉县拜自公路与镇直路交叉口正北方向403米左右",
        "tel": "",
        "category": "基础设施:公共设施:公共厕所",
        "type": 0,
        "location": {
            "lat": 47.478948,
            "lng": 125.796521
        },
        "ad_info": {
            "adcode": 230231,
            "province": "黑龙江省",
            "city": "齐齐哈尔市",
            "district": "拜泉县"
        }
    },
    {
        "id": "2751015483498663623",
        "title": "公共厕所",
        "address": "黑龙江省齐齐哈尔市拜泉县人民街与龙泉路交叉口西南方向56米左右",
        "tel": "",
        "category": "基础设施:公共设施:公共厕所",
        "type": 0,
        "location": {
            "lat": 47.61345,
            "lng": 126.08617
        },
        "ad_info": {
            "adcode": 230231,
            "province": "黑龙江省",
            "city": "齐齐哈尔市",
            "district": "拜泉县"
        }
    },
    {
        "id": "6613668645727383091",
        "title": "公共厕所",
        "address": "黑龙江省齐齐哈尔市龙江县建设路与通达街交叉口正南方向164米左右",
        "tel": "",
        "category": "基础设施:公共设施:公共厕所",
        "type": 0,
        "location": {
            "lat": 47.342309,
            "lng": 123.197089
        },
        "ad_info": {
            "adcode": 230221,
            "province": "黑龙江省",
            "city": "齐齐哈尔市",
            "district": "龙江县"
        }
    },
    {
        "id": "7952353448523437521",
        "title": "公共厕所",
        "address": "黑龙江省齐齐哈尔市克东县人和路与建设街交叉口西南方向34米左右",
        "tel": "",
        "category": "基础设施:公共设施:公共厕所",
        "type": 0,
        "location": {
            "lat": 48.041737,
            "lng": 126.265853
        },
        "ad_info": {
            "adcode": 230230,
            "province": "黑龙江省",
            "city": "齐齐哈尔市",
            "district": "克东县"
        }
    },
    {
        "id": "10637563076773691502",
        "title": "公共厕所",
        "address": "黑龙江省齐齐哈尔市拜泉县光辉街拜泉星耀明德小学",
        "tel": "",
        "category": "基础设施:公共设施:公共厕所",
        "type": 0,
        "location": {
            "lat": 47.610364,
            "lng": 126.080481
        },
        "ad_info": {
            "adcode": 230231,
            "province": "黑龙江省",
            "city": "齐齐哈尔市",
            "district": "拜泉县"
        }
    },
    {
        "id": "513215759292045318",
        "title": "公共厕所",
        "address": "黑龙江省齐齐哈尔市克山县S305与齐北北线交叉口东北方向524米左右",
        "tel": "",
        "category": "基础设施:公共设施:公共厕所",
        "type": 0,
        "location": {
            "lat": 48.082038,
            "lng": 126.05378
        },
        "ad_info": {
            "adcode": 230229,
            "province": "黑龙江省",
            "city": "齐齐哈尔市",
            "district": "克山县"
        }
    },
    {
        "id": "9401708728156953915",
        "title": "公共厕所",
        "address": "黑龙江省齐齐哈尔市建华区文化大街齐齐哈尔大学西校区",
        "tel": "",
        "category": "基础设施:公共设施:公共厕所",
        "type": 0,
        "location": {
            "lat": 47.35484,
            "lng": 123.930575
        },
        "ad_info": {
            "adcode": 230203,
            "province": "黑龙江省",
            "city": "齐齐哈尔市",
            "district": "建华区"
        }
    },
    {
        "id": "17690462725634075825",
        "title": "公共厕所",
        "address": "黑龙江省齐齐哈尔市克东县蒲峪大道与鹤祥街交叉口正北方向178米左右",
        "tel": "",
        "category": "基础设施:公共设施:公共厕所",
        "type": 0,
        "location": {
            "lat": 48.038535,
            "lng": 126.23521
        },
        "ad_info": {
            "adcode": 230230,
            "province": "黑龙江省",
            "city": "齐齐哈尔市",
            "district": "克东县"
        }
    },
    {
        "id": "8925988345836552391",
        "title": "富裕服务区公共厕所",
        "address": "黑龙江省齐齐哈尔市富裕县富裕大道与府右街交叉口西南方向1183米左右",
        "tel": "",
        "category": "基础设施:公共设施:公共厕所",
        "type": 0,
        "location": {
            "lat": 47.753278,
            "lng": 124.460244
        },
        "ad_info": {
            "adcode": 230227,
            "province": "黑龙江省",
            "city": "齐齐哈尔市",
            "district": "富裕县"
        }
    },
    {
        "id": "8817457329178057082",
        "title": "公共厕所",
        "address": "黑龙江省齐齐哈尔市依安县城兴街与民裕路交叉口正北方向89米左右",
        "tel": "",
        "category": "基础设施:公共设施:公共厕所",
        "type": 0,
        "location": {
            "lat": 47.886382,
            "lng": 125.304013
        },
        "ad_info": {
            "adcode": 230223,
            "province": "黑龙江省",
            "city": "齐齐哈尔市",
            "district": "依安县"
        }
    },
    {
        "id": "5564058634891067946",
        "title": "公共厕所",
        "address": "黑龙江省齐齐哈尔市富拉尔基区新华路与永青九巷交叉口正南方向31米左右",
        "tel": "",
        "category": "基础设施:公共设施:公共厕所",
        "type": 0,
        "location": {
            "lat": 47.221959,
            "lng": 123.604816
        },
        "ad_info": {
            "adcode": 230206,
            "province": "黑龙江省",
            "city": "齐齐哈尔市",
            "district": "富拉尔基区"
        }
    },
    {
        "id": "6929235656212900095",
        "title": "公共厕所",
        "address": "黑龙江省齐齐哈尔市克山县东环北街与建设路三段交叉口北300米",
        "tel": "",
        "category": "基础设施:公共设施:公共厕所",
        "type": 0,
        "location": {
            "lat": 48.043706,
            "lng": 125.883426
        },
        "ad_info": {
            "adcode": 230229,
            "province": "黑龙江省",
            "city": "齐齐哈尔市",
            "district": "克山县"
        }
    },
    {
        "id": "3680467188068009609",
        "title": "公共厕所",
        "address": "黑龙江省齐齐哈尔市依安县兴学路与城工街交叉口西南方向90米左右",
        "tel": "",
        "category": "基础设施:公共设施:公共厕所",
        "type": 0,
        "location": {
            "lat": 47.894966,
            "lng": 125.307042
        },
        "ad_info": {
            "adcode": 230223,
            "province": "黑龙江省",
            "city": "齐齐哈尔市",
            "district": "依安县"
        }
    },
    {
        "id": "14880890158701460627",
        "title": "公共厕所",
        "address": "黑龙江省齐齐哈尔市依安县民强路依安第一小学",
        "tel": "",
        "category": "基础设施:公共设施:公共厕所",
        "type": 0,
        "location": {
            "lat": 47.88727,
            "lng": 125.29778
        },
        "ad_info": {
            "adcode": 230223,
            "province": "黑龙江省",
            "city": "齐齐哈尔市",
            "district": "依安县"
        }
    },
    {
        "id": "8126988491011995869",
        "title": "公共厕所",
        "address": "黑龙江省齐齐哈尔市建华区劳动路与文化大街交叉口正北方向40米左右",
        "tel": "",
        "category": "基础设施:公共设施:公共厕所",
        "type": 0,
        "location": {
            "lat": 47.350023,
            "lng": 123.929439
        },
        "ad_info": {
            "adcode": 230203,
            "province": "黑龙江省",
            "city": "齐齐哈尔市",
            "district": "建华区"
        }
    },
    {
        "id": "14619156138603490833",
        "title": "公共厕所",
        "address": "黑龙江省齐齐哈尔市克东县302省道东50米",
        "tel": "",
        "category": "基础设施:公共设施:公共厕所",
        "type": 0,
        "location": {
            "lat": 48.168661,
            "lng": 126.520982
        },
        "ad_info": {
            "adcode": 230230,
            "province": "黑龙江省",
            "city": "齐齐哈尔市",
            "district": "克东县"
        }
    },
    {
        "id": "7323317571790361192",
        "title": "公共厕所",
        "address": "黑龙江省齐齐哈尔市克山县宝山巷与春风大街交叉口正东方向75米左右",
        "tel": "",
        "category": "基础设施:公共设施:公共厕所",
        "type": 0,
        "location": {
            "lat": 48.024806,
            "lng": 125.855993
        },
        "ad_info": {
            "adcode": 230229,
            "province": "黑龙江省",
            "city": "齐齐哈尔市",
            "district": "克山县"
        }
    },
    {
        "id": "16972015852869212290",
        "title": "公共厕所",
        "address": "黑龙江省齐齐哈尔市昂昂溪区区府路与地质街交叉口西北方向58米左右",
        "tel": "",
        "category": "基础设施:公共设施:公共厕所",
        "type": 0,
        "location": {
            "lat": 47.15855,
            "lng": 123.802435
        },
        "ad_info": {
            "adcode": 230205,
            "province": "黑龙江省",
            "city": "齐齐哈尔市",
            "district": "昂昂溪区"
        }
    },
    {
        "id": "7043892941543515336",
        "title": "公共厕所",
        "address": "黑龙江省齐齐哈尔市富裕县东迁路与赛依台克街交叉口东北方向98米左右",
        "tel": "",
        "category": "基础设施:公共设施:公共厕所",
        "type": 0,
        "location": {
            "lat": 47.801492,
            "lng": 124.627114
        },
        "ad_info": {
            "adcode": 230227,
            "province": "黑龙江省",
            "city": "齐齐哈尔市",
            "district": "富裕县"
        }
    },
    {
        "id": "12047092840103646684",
        "title": "公共厕所",
        "address": "黑龙江省齐齐哈尔市拜泉县人民街与政府路交叉口正东方向25米左右",
        "tel": "",
        "category": "基础设施:公共设施:公共厕所",
        "type": 0,
        "location": {
            "lat": 47.610732,
            "lng": 126.088768
        },
        "ad_info": {
            "adcode": 230231,
            "province": "黑龙江省",
            "city": "齐齐哈尔市",
            "district": "拜泉县"
        }
    },
    {
        "id": "13045373298075023265",
        "title": "公共厕所",
        "address": "黑龙江省齐齐哈尔市龙沙区合意大街与新合路交叉口正南方向172米左右",
        "tel": "",
        "category": "基础设施:公共设施:公共厕所",
        "type": 0,
        "location": {
            "lat": 47.323751,
            "lng": 123.928117
        },
        "ad_info": {
            "adcode": 230202,
            "province": "黑龙江省",
            "city": "齐齐哈尔市",
            "district": "龙沙区"
        }
    },
    {
        "id": "9583858341550988343",
        "title": "公共厕所",
        "address": "黑龙江省齐齐哈尔市克山县西环北街与通体路交叉口正北方向224米左右",
        "tel": "",
        "category": "基础设施:公共设施:公共厕所",
        "type": 0,
        "location": {
            "lat": 48.038865,
            "lng": 125.85849
        },
        "ad_info": {
            "adcode": 230229,
            "province": "黑龙江省",
            "city": "齐齐哈尔市",
            "district": "克山县"
        }
    },
    {
        "id": "12931250952261187718",
        "title": "公共厕所",
        "address": "黑龙江省齐齐哈尔市甘南县人民路与建华路交叉口正北方向68米左右",
        "tel": "",
        "category": "基础设施:公共设施:公共厕所",
        "type": 0,
        "location": {
            "lat": 47.923484,
            "lng": 123.508622
        },
        "ad_info": {
            "adcode": 230225,
            "province": "黑龙江省",
            "city": "齐齐哈尔市",
            "district": "甘南县"
        }
    },
    {
        "id": "13678917386492885203",
        "title": "公共厕所",
        "address": "黑龙江省齐齐哈尔市龙沙区黄河路与齐富公路交叉口西北方向87米左右",
        "tel": "",
        "category": "基础设施:公共设施:公共厕所",
        "type": 0,
        "location": {
            "lat": 47.295994,
            "lng": 123.926854
        },
        "ad_info": {
            "adcode": 230202,
            "province": "黑龙江省",
            "city": "齐齐哈尔市",
            "district": "龙沙区"
        }
    },
    {
        "id": "17897279908308848035",
        "title": "公共厕所",
        "address": "黑龙江省齐齐哈尔市龙沙区工建路与文化大街交叉口正北方向127米左右",
        "tel": "",
        "category": "基础设施:公共设施:公共厕所",
        "type": 0,
        "location": {
            "lat": 47.347513,
            "lng": 123.931839
        },
        "ad_info": {
            "adcode": 230202,
            "province": "黑龙江省",
            "city": "齐齐哈尔市",
            "district": "龙沙区"
        }
    },
    {
        "id": "3343235754806491688",
        "title": "公共厕所",
        "address": "黑龙江省齐齐哈尔市龙江县S310与龙景路交叉口西南方向1704米左右",
        "tel": "",
        "category": "基础设施:公共设施:公共厕所",
        "type": 0,
        "location": {
            "lat": 47.300858,
            "lng": 123.130159
        },
        "ad_info": {
            "adcode": 230221,
            "province": "黑龙江省",
            "city": "齐齐哈尔市",
            "district": "龙江县"
        }
    },
    {
        "id": "1661501860135487763",
        "title": "公共厕所",
        "address": "黑龙江省齐齐哈尔市克东县惠达路与振兴街交叉口东北方向158米左右",
        "tel": "",
        "category": "基础设施:公共设施:公共厕所",
        "type": 0,
        "location": {
            "lat": 48.034071,
            "lng": 126.245365
        },
        "ad_info": {
            "adcode": 230230,
            "province": "黑龙江省",
            "city": "齐齐哈尔市",
            "district": "克东县"
        }
    },
    {
        "id": "13056348116237596653",
        "title": "公共厕所",
        "address": "黑龙江省齐齐哈尔市依安县兴科路与泰安南大街辅路交叉口东80米",
        "tel": "",
        "category": "基础设施:公共设施:公共厕所",
        "type": 0,
        "location": {
            "lat": 47.882935,
            "lng": 125.312296
        },
        "ad_info": {
            "adcode": 230223,
            "province": "黑龙江省",
            "city": "齐齐哈尔市",
            "district": "依安县"
        }
    },
    {
        "id": "18027398118626483371",
        "title": "公共厕所",
        "address": "黑龙江省齐齐哈尔市铁锋区木海街1号",
        "tel": "",
        "category": "基础设施:公共设施:公共厕所",
        "type": 0,
        "location": {
            "lat": 47.331837,
            "lng": 123.977233
        },
        "ad_info": {
            "adcode": 230204,
            "province": "黑龙江省",
            "city": "齐齐哈尔市",
            "district": "铁锋区"
        }
    },
    {
        "id": "12170073623932348059",
        "title": "公共厕所",
        "address": "黑龙江省齐齐哈尔市拜泉县新生路与科研街交叉口东北方向46米左右",
        "tel": "",
        "category": "基础设施:公共设施:公共厕所",
        "type": 0,
        "location": {
            "lat": 47.606765,
            "lng": 126.106895
        },
        "ad_info": {
            "adcode": 230231,
            "province": "黑龙江省",
            "city": "齐齐哈尔市",
            "district": "拜泉县"
        }
    },
    {
        "id": "6634471063808064843",
        "title": "公共厕所",
        "address": "黑龙江省齐齐哈尔市依安县民裕路与永洁街交叉口西北方向70米左右",
        "tel": "",
        "category": "基础设施:公共设施:公共厕所",
        "type": 0,
        "location": {
            "lat": 47.88545,
            "lng": 125.301617
        },
        "ad_info": {
            "adcode": 230223,
            "province": "黑龙江省",
            "city": "齐齐哈尔市",
            "district": "依安县"
        }
    },
    {
        "id": "875970279644528631",
        "title": "公共厕所",
        "address": "黑龙江省齐齐哈尔市讷河市环城北路与环城西大街交叉口西南方向8米左右",
        "tel": "",
        "category": "基础设施:公共设施:公共厕所",
        "type": 0,
        "location": {
            "lat": 48.486599,
            "lng": 124.870692
        },
        "ad_info": {
            "adcode": 230281,
            "province": "黑龙江省",
            "city": "齐齐哈尔市",
            "district": "讷河市"
        }
    },
    {
        "id": "13323803097463688832",
        "title": "公共厕所",
        "address": "黑龙江省齐齐哈尔市甘南县甘南县公安局甘南镇第二派出所西南",
        "tel": "",
        "category": "基础设施:公共设施:公共厕所",
        "type": 0,
        "location": {
            "lat": 47.922952,
            "lng": 123.491243
        },
        "ad_info": {
            "adcode": 230225,
            "province": "黑龙江省",
            "city": "齐齐哈尔市",
            "district": "甘南县"
        }
    },
    {
        "id": "6649586617120265068",
        "title": "亿隆服务区公共厕所",
        "address": "黑龙江省齐齐哈尔市建华区亿隆服务区与G4512双嫩高速交叉口南100米",
        "tel": "",
        "category": "基础设施:公共设施:公共厕所",
        "type": 0,
        "location": {
            "lat": 47.438138,
            "lng": 124.112586
        },
        "ad_info": {
            "adcode": 230203,
            "province": "黑龙江省",
            "city": "齐齐哈尔市",
            "district": "建华区"
        }
    },
    {
        "id": "11541769929561536624",
        "title": "公共厕所",
        "address": "黑龙江省齐齐哈尔市克东县S305与齐北北线交叉口西北方向250米左右",
        "tel": "",
        "category": "基础设施:公共设施:公共厕所",
        "type": 0,
        "location": {
            "lat": 48.165942,
            "lng": 126.212182
        },
        "ad_info": {
            "adcode": 230230,
            "province": "黑龙江省",
            "city": "齐齐哈尔市",
            "district": "克东县"
        }
    },
    {
        "id": "9069966546379734856",
        "title": "公共厕所",
        "address": "黑龙江省齐齐哈尔市克山县北环西路与石桥北路交叉口正东方向159米左右",
        "tel": "",
        "category": "基础设施:公共设施:公共厕所",
        "type": 0,
        "location": {
            "lat": 48.041545,
            "lng": 125.868688
        },
        "ad_info": {
            "adcode": 230229,
            "province": "黑龙江省",
            "city": "齐齐哈尔市",
            "district": "克山县"
        }
    },
    {
        "id": "2548945620479247394",
        "title": "公共厕所",
        "address": "黑龙江省齐齐哈尔市依安县明安路与英泰街交叉口西北方向67米左右",
        "tel": "",
        "category": "基础设施:公共设施:公共厕所",
        "type": 0,
        "location": {
            "lat": 47.885465,
            "lng": 125.296164
        },
        "ad_info": {
            "adcode": 230223,
            "province": "黑龙江省",
            "city": "齐齐哈尔市",
            "district": "依安县"
        }
    },
    {
        "id": "476138262346480332",
        "title": "公共厕所",
        "address": "黑龙江省齐齐哈尔市富拉尔基区建华东街与新华路交叉口正西方向61米左右",
        "tel": "",
        "category": "基础设施:公共设施:公共厕所",
        "type": 0,
        "location": {
            "lat": 47.216186,
            "lng": 123.620389
        },
        "ad_info": {
            "adcode": 230206,
            "province": "黑龙江省",
            "city": "齐齐哈尔市",
            "district": "富拉尔基区"
        }
    },
    {
        "id": "17354131868499313655",
        "title": "公共厕所",
        "address": "黑龙江省齐齐哈尔市拜泉县友谊街与育英路交叉口东南方向44米左右",
        "tel": "",
        "category": "基础设施:公共设施:公共厕所",
        "type": 0,
        "location": {
            "lat": 47.602649,
            "lng": 126.079876
        },
        "ad_info": {
            "adcode": 230231,
            "province": "黑龙江省",
            "city": "齐齐哈尔市",
            "district": "拜泉县"
        }
    },
    {
        "id": "6203165192021465767",
        "title": "公共厕所",
        "address": "黑龙江省齐齐哈尔市讷河市奋斗路与红11支线交叉口西北方向211米左右",
        "tel": "",
        "category": "基础设施:公共设施:公共厕所",
        "type": 0,
        "location": {
            "lat": 48.714219,
            "lng": 125.522345
        },
        "ad_info": {
            "adcode": 230281,
            "province": "黑龙江省",
            "city": "齐齐哈尔市",
            "district": "讷河市"
        }
    },
    {
        "id": "17675828198158827266",
        "title": "公共厕所",
        "address": "黑龙江省齐齐哈尔市梅里斯达斡尔族区兴梅街幸福家园",
        "tel": "",
        "category": "基础设施:公共设施:公共厕所",
        "type": 0,
        "location": {
            "lat": 47.315096,
            "lng": 123.754614
        },
        "ad_info": {
            "adcode": 230208,
            "province": "黑龙江省",
            "city": "齐齐哈尔市",
            "district": "梅里斯达斡尔族区"
        }
    },
    {
        "id": "13550985893049243728",
        "title": "公共厕所",
        "address": "黑龙江省齐齐哈尔市龙江县德育巷与永康路交叉口正东方向94米左右",
        "tel": "",
        "category": "基础设施:公共设施:公共厕所",
        "type": 0,
        "location": {
            "lat": 47.324918,
            "lng": 123.162185
        },
        "ad_info": {
            "adcode": 230221,
            "province": "黑龙江省",
            "city": "齐齐哈尔市",
            "district": "龙江县"
        }
    },
    {
        "id": "17872979486753205291",
        "title": "公共厕所",
        "address": "黑龙江省齐齐哈尔市克山县S305与东大街交叉口正东方向285米左右",
        "tel": "",
        "category": "基础设施:公共设施:公共厕所",
        "type": 0,
        "location": {
            "lat": 48.036319,
            "lng": 125.891523
        },
        "ad_info": {
            "adcode": 230229,
            "province": "黑龙江省",
            "city": "齐齐哈尔市",
            "district": "克山县"
        }
    },
    {
        "id": "8343102684457981303",
        "title": "公共厕所",
        "address": "黑龙江省齐齐哈尔市铁锋区康庄路与联通大道交叉口西北方向48米左右",
        "tel": "",
        "category": "基础设施:公共设施:公共厕所",
        "type": 0,
        "location": {
            "lat": 47.345186,
            "lng": 124.091866
        },
        "ad_info": {
            "adcode": 230204,
            "province": "黑龙江省",
            "city": "齐齐哈尔市",
            "district": "铁锋区"
        }
    },
    {
        "id": "10037595208085900653",
        "title": "公共厕所",
        "address": "黑龙江省齐齐哈尔市泰来县S313与泰塔线交叉口正北方向923米左右",
        "tel": "",
        "category": "基础设施:公共设施:公共厕所",
        "type": 0,
        "location": {
            "lat": 46.609689,
            "lng": 123.067377
        },
        "ad_info": {
            "adcode": 230224,
            "province": "黑龙江省",
            "city": "齐齐哈尔市",
            "district": "泰来县"
        }
    },
    {
        "id": "12303283799076568708",
        "title": "公共厕所",
        "address": "黑龙江省齐齐哈尔市克东县南阳路与繁荣街交叉口正西方向24米左右",
        "tel": "",
        "category": "基础设施:公共设施:公共厕所",
        "type": 0,
        "location": {
            "lat": 48.030369,
            "lng": 126.251746
        },
        "ad_info": {
            "adcode": 230230,
            "province": "黑龙江省",
            "city": "齐齐哈尔市",
            "district": "克东县"
        }
    },
    {
        "id": "10104288966919227633",
        "title": "男卫生间",
        "address": "黑龙江省齐齐哈尔市建华区新江路1号万达广场F1",
        "tel": "",
        "category": "基础设施:公共设施:男洗手间",
        "type": 0,
        "location": {
            "lat": 47.368836,
            "lng": 123.947056
        },
        "ad_info": {
            "adcode": 230203,
            "province": "黑龙江省",
            "city": "齐齐哈尔市",
            "district": "建华区"
        }
    },
    {
        "id": "15705203263556094023",
        "title": "公共厕所",
        "address": "黑龙江省齐齐哈尔市讷河市电视台西侧",
        "tel": "",
        "category": "基础设施:公共设施:公共厕所",
        "type": 0,
        "location": {
            "lat": 48.49817,
            "lng": 124.876374
        },
        "ad_info": {
            "adcode": 230281,
            "province": "黑龙江省",
            "city": "齐齐哈尔市",
            "district": "讷河市"
        }
    },
    {
        "id": "12883601478811283604",
        "title": "公共厕所",
        "address": "黑龙江省齐齐哈尔市拜泉县政府路与西城街交叉口东南方向25米左右",
        "tel": "",
        "category": "基础设施:公共设施:公共厕所",
        "type": 0,
        "location": {
            "lat": 47.608331,
            "lng": 126.079449
        },
        "ad_info": {
            "adcode": 230231,
            "province": "黑龙江省",
            "city": "齐齐哈尔市",
            "district": "拜泉县"
        }
    },
    {
        "id": "3549358291333117308",
        "title": "公共厕所",
        "address": "黑龙江省齐齐哈尔市讷河市阳光水岸北500米",
        "tel": "",
        "category": "基础设施:公共设施:公共厕所",
        "type": 0,
        "location": {
            "lat": 48.487164,
            "lng": 124.865995
        },
        "ad_info": {
            "adcode": 230281,
            "province": "黑龙江省",
            "city": "齐齐哈尔市",
            "district": "讷河市"
        }
    },
    {
        "id": "2973987631317169228",
        "title": "公共厕所",
        "address": "黑龙江省齐齐哈尔市克山县东环南路与泡北路交叉口正北方向39米左右",
        "tel": "",
        "category": "基础设施:公共设施:公共厕所",
        "type": 0,
        "location": {
            "lat": 48.033251,
            "lng": 125.887594
        },
        "ad_info": {
            "adcode": 230229,
            "province": "黑龙江省",
            "city": "齐齐哈尔市",
            "district": "克山县"
        }
    },
    {
        "id": "18371378142660146077",
        "title": "公共厕所",
        "address": "黑龙江省齐齐哈尔市拜泉县曙光街与龙泉路交叉口正北方向370米左右",
        "tel": "",
        "category": "基础设施:公共设施:公共厕所",
        "type": 0,
        "location": {
            "lat": 47.618271,
            "lng": 126.090903
        },
        "ad_info": {
            "adcode": 230231,
            "province": "黑龙江省",
            "city": "齐齐哈尔市",
            "district": "拜泉县"
        }
    },
    {
        "id": "18071591554588289417",
        "title": "公共厕所",
        "address": "黑龙江省齐齐哈尔市富拉尔基区向阳大街与工农街交叉口正东方向181米左右",
        "tel": "",
        "category": "基础设施:公共设施:公共厕所",
        "type": 0,
        "location": {
            "lat": 47.20902,
            "lng": 123.657489
        },
        "ad_info": {
            "adcode": 230206,
            "province": "黑龙江省",
            "city": "齐齐哈尔市",
            "district": "富拉尔基区"
        }
    },
    {
        "id": "17748768246984417590",
        "title": "肯德基(民航餐厅)洗手间",
        "address": "黑龙江省齐齐哈尔市龙沙区卜奎大街12-1号",
        "tel": "",
        "category": "基础设施:公共设施:公共厕所",
        "type": 0,
        "location": {
            "lat": 47.34307,
            "lng": 123.95678
        },
        "ad_info": {
            "adcode": 230202,
            "province": "黑龙江省",
            "city": "齐齐哈尔市",
            "district": "龙沙区"
        }
    },
    {
        "id": "11427688811656096978",
        "title": "公共厕所",
        "address": "黑龙江省齐齐哈尔市龙江县兴业街与龙甘路交叉口东北方向581米左右",
        "tel": "",
        "category": "基础设施:公共设施:公共厕所",
        "type": 0,
        "location": {
            "lat": 47.359179,
            "lng": 123.203497
        },
        "ad_info": {
            "adcode": 230221,
            "province": "黑龙江省",
            "city": "齐齐哈尔市",
            "district": "龙江县"
        }
    },
    {
        "id": "5430303747948483345",
        "title": "公共厕所",
        "address": "黑龙江省齐齐哈尔市泰来县建设路与文博街交叉口西南方向22米左右",
        "tel": "",
        "category": "基础设施:公共设施:公共厕所",
        "type": 0,
        "location": {
            "lat": 46.389063,
            "lng": 123.419983
        },
        "ad_info": {
            "adcode": 230224,
            "province": "黑龙江省",
            "city": "齐齐哈尔市",
            "district": "泰来县"
        }
    },
    {
        "id": "8376165636727708890",
        "title": "公共厕所",
        "address": "黑龙江省齐齐哈尔市克山县S305与齐北北线交叉口东北方向407米左右",
        "tel": "",
        "category": "基础设施:公共设施:公共厕所",
        "type": 0,
        "location": {
            "lat": 48.082017,
            "lng": 126.051272
        },
        "ad_info": {
            "adcode": 230229,
            "province": "黑龙江省",
            "city": "齐齐哈尔市",
            "district": "克山县"
        }
    },
    {
        "id": "1763125215230566809",
        "title": "卫生间",
        "address": "黑龙江省齐齐哈尔市建华区新江路1号万达广场B1",
        "tel": "",
        "category": "基础设施:公共设施:公共厕所",
        "type": 0,
        "location": {
            "lat": 47.367641,
            "lng": 123.949656
        },
        "ad_info": {
            "adcode": 230203,
            "province": "黑龙江省",
            "city": "齐齐哈尔市",
            "district": "建华区"
        }
    },
    {
        "id": "15512737711592485866",
        "title": "公共厕所",
        "address": "黑龙江省齐齐哈尔市富拉尔基区工农街与建富路交叉口正西方向35米左右",
        "tel": "",
        "category": "基础设施:公共设施:公共厕所",
        "type": 0,
        "location": {
            "lat": 47.21441,
            "lng": 123.65701
        },
        "ad_info": {
            "adcode": 230206,
            "province": "黑龙江省",
            "city": "齐齐哈尔市",
            "district": "富拉尔基区"
        }
    },
    {
        "id": "12149512087361230994",
        "title": "公共厕所",
        "address": "黑龙江省齐齐哈尔市龙沙区恒际纸箱厂东侧170米",
        "tel": "",
        "category": "基础设施:公共设施:公共厕所",
        "type": 0,
        "location": {
            "lat": 47.303458,
            "lng": 123.91038
        },
        "ad_info": {
            "adcode": 230202,
            "province": "黑龙江省",
            "city": "齐齐哈尔市",
            "district": "龙沙区"
        }
    },
    {
        "id": "15303358961358473945",
        "title": "公共厕所",
        "address": "黑龙江省齐齐哈尔市泰来县光明街与建设路交叉口正南方向85米左右",
        "tel": "",
        "category": "基础设施:公共设施:公共厕所",
        "type": 0,
        "location": {
            "lat": 46.385657,
            "lng": 123.42042
        },
        "ad_info": {
            "adcode": 230224,
            "province": "黑龙江省",
            "city": "齐齐哈尔市",
            "district": "泰来县"
        }
    },
    {
        "id": "11913657204613647600",
        "title": "公共厕所",
        "address": "黑龙江省齐齐哈尔市拜泉县人民街与育英路交叉口正北方向73米左右",
        "tel": "",
        "category": "基础设施:公共设施:公共厕所",
        "type": 0,
        "location": {
            "lat": 47.60659,
            "lng": 126.090879
        },
        "ad_info": {
            "adcode": 230231,
            "province": "黑龙江省",
            "city": "齐齐哈尔市",
            "district": "拜泉县"
        }
    },
    {
        "id": "17872979486753205291",
        "title": "公共厕所",
        "address": "黑龙江省齐齐哈尔市克山县S305与东大街交叉口正东方向285米左右",
        "tel": "",
        "category": "基础设施:公共设施:公共厕所",
        "type": 0,
        "location": {
            "lat": 48.036319,
            "lng": 125.891523
        },
        "ad_info": {
            "adcode": 230229,
            "province": "黑龙江省",
            "city": "齐齐哈尔市",
            "district": "克山县"
        }
    },
    {
        "id": "8343102684457981303",
        "title": "公共厕所",
        "address": "黑龙江省齐齐哈尔市铁锋区康庄路与联通大道交叉口西北方向48米左右",
        "tel": "",
        "category": "基础设施:公共设施:公共厕所",
        "type": 0,
        "location": {
            "lat": 47.345186,
            "lng": 124.091866
        },
        "ad_info": {
            "adcode": 230204,
            "province": "黑龙江省",
            "city": "齐齐哈尔市",
            "district": "铁锋区"
        }
    },
    {
        "id": "10037595208085900653",
        "title": "公共厕所",
        "address": "黑龙江省齐齐哈尔市泰来县S313与泰塔线交叉口正北方向923米左右",
        "tel": "",
        "category": "基础设施:公共设施:公共厕所",
        "type": 0,
        "location": {
            "lat": 46.609689,
            "lng": 123.067377
        },
        "ad_info": {
            "adcode": 230224,
            "province": "黑龙江省",
            "city": "齐齐哈尔市",
            "district": "泰来县"
        }
    },
    {
        "id": "12303283799076568708",
        "title": "公共厕所",
        "address": "黑龙江省齐齐哈尔市克东县南阳路与繁荣街交叉口正西方向24米左右",
        "tel": "",
        "category": "基础设施:公共设施:公共厕所",
        "type": 0,
        "location": {
            "lat": 48.030369,
            "lng": 126.251746
        },
        "ad_info": {
            "adcode": 230230,
            "province": "黑龙江省",
            "city": "齐齐哈尔市",
            "district": "克东县"
        }
    },
    {
        "id": "10104288966919227633",
        "title": "男卫生间",
        "address": "黑龙江省齐齐哈尔市建华区新江路1号万达广场F1",
        "tel": "",
        "category": "基础设施:公共设施:男洗手间",
        "type": 0,
        "location": {
            "lat": 47.368836,
            "lng": 123.947056
        },
        "ad_info": {
            "adcode": 230203,
            "province": "黑龙江省",
            "city": "齐齐哈尔市",
            "district": "建华区"
        }
    },
    {
        "id": "15705203263556094023",
        "title": "公共厕所",
        "address": "黑龙江省齐齐哈尔市讷河市电视台西侧",
        "tel": "",
        "category": "基础设施:公共设施:公共厕所",
        "type": 0,
        "location": {
            "lat": 48.49817,
            "lng": 124.876374
        },
        "ad_info": {
            "adcode": 230281,
            "province": "黑龙江省",
            "city": "齐齐哈尔市",
            "district": "讷河市"
        }
    },
    {
        "id": "12883601478811283604",
        "title": "公共厕所",
        "address": "黑龙江省齐齐哈尔市拜泉县政府路与西城街交叉口东南方向25米左右",
        "tel": "",
        "category": "基础设施:公共设施:公共厕所",
        "type": 0,
        "location": {
            "lat": 47.608331,
            "lng": 126.079449
        },
        "ad_info": {
            "adcode": 230231,
            "province": "黑龙江省",
            "city": "齐齐哈尔市",
            "district": "拜泉县"
        }
    },
    {
        "id": "3549358291333117308",
        "title": "公共厕所",
        "address": "黑龙江省齐齐哈尔市讷河市阳光水岸北500米",
        "tel": "",
        "category": "基础设施:公共设施:公共厕所",
        "type": 0,
        "location": {
            "lat": 48.487164,
            "lng": 124.865995
        },
        "ad_info": {
            "adcode": 230281,
            "province": "黑龙江省",
            "city": "齐齐哈尔市",
            "district": "讷河市"
        }
    },
    {
        "id": "2973987631317169228",
        "title": "公共厕所",
        "address": "黑龙江省齐齐哈尔市克山县东环南路与泡北路交叉口正北方向39米左右",
        "tel": "",
        "category": "基础设施:公共设施:公共厕所",
        "type": 0,
        "location": {
            "lat": 48.033251,
            "lng": 125.887594
        },
        "ad_info": {
            "adcode": 230229,
            "province": "黑龙江省",
            "city": "齐齐哈尔市",
            "district": "克山县"
        }
    },
    {
        "id": "18371378142660146077",
        "title": "公共厕所",
        "address": "黑龙江省齐齐哈尔市拜泉县曙光街与龙泉路交叉口正北方向370米左右",
        "tel": "",
        "category": "基础设施:公共设施:公共厕所",
        "type": 0,
        "location": {
            "lat": 47.618271,
            "lng": 126.090903
        },
        "ad_info": {
            "adcode": 230231,
            "province": "黑龙江省",
            "city": "齐齐哈尔市",
            "district": "拜泉县"
        }
    },
    {
        "id": "18071591554588289417",
        "title": "公共厕所",
        "address": "黑龙江省齐齐哈尔市富拉尔基区向阳大街与工农街交叉口正东方向181米左右",
        "tel": "",
        "category": "基础设施:公共设施:公共厕所",
        "type": 0,
        "location": {
            "lat": 47.20902,
            "lng": 123.657489
        },
        "ad_info": {
            "adcode": 230206,
            "province": "黑龙江省",
            "city": "齐齐哈尔市",
            "district": "富拉尔基区"
        }
    },
    {
        "id": "17748768246984417590",
        "title": "肯德基(民航餐厅)洗手间",
        "address": "黑龙江省齐齐哈尔市龙沙区卜奎大街12-1号",
        "tel": "",
        "category": "基础设施:公共设施:公共厕所",
        "type": 0,
        "location": {
            "lat": 47.34307,
            "lng": 123.95678
        },
        "ad_info": {
            "adcode": 230202,
            "province": "黑龙江省",
            "city": "齐齐哈尔市",
            "district": "龙沙区"
        }
    },
    {
        "id": "11427688811656096978",
        "title": "公共厕所",
        "address": "黑龙江省齐齐哈尔市龙江县兴业街与龙甘路交叉口东北方向581米左右",
        "tel": "",
        "category": "基础设施:公共设施:公共厕所",
        "type": 0,
        "location": {
            "lat": 47.359179,
            "lng": 123.203497
        },
        "ad_info": {
            "adcode": 230221,
            "province": "黑龙江省",
            "city": "齐齐哈尔市",
            "district": "龙江县"
        }
    },
    {
        "id": "5430303747948483345",
        "title": "公共厕所",
        "address": "黑龙江省齐齐哈尔市泰来县建设路与文博街交叉口西南方向22米左右",
        "tel": "",
        "category": "基础设施:公共设施:公共厕所",
        "type": 0,
        "location": {
            "lat": 46.389063,
            "lng": 123.419983
        },
        "ad_info": {
            "adcode": 230224,
            "province": "黑龙江省",
            "city": "齐齐哈尔市",
            "district": "泰来县"
        }
    },
    {
        "id": "8376165636727708890",
        "title": "公共厕所",
        "address": "黑龙江省齐齐哈尔市克山县S305与齐北北线交叉口东北方向407米左右",
        "tel": "",
        "category": "基础设施:公共设施:公共厕所",
        "type": 0,
        "location": {
            "lat": 48.082017,
            "lng": 126.051272
        },
        "ad_info": {
            "adcode": 230229,
            "province": "黑龙江省",
            "city": "齐齐哈尔市",
            "district": "克山县"
        }
    },
    {
        "id": "1763125215230566809",
        "title": "卫生间",
        "address": "黑龙江省齐齐哈尔市建华区新江路1号万达广场B1",
        "tel": "",
        "category": "基础设施:公共设施:公共厕所",
        "type": 0,
        "location": {
            "lat": 47.367641,
            "lng": 123.949656
        },
        "ad_info": {
            "adcode": 230203,
            "province": "黑龙江省",
            "city": "齐齐哈尔市",
            "district": "建华区"
        }
    },
    {
        "id": "15512737711592485866",
        "title": "公共厕所",
        "address": "黑龙江省齐齐哈尔市富拉尔基区工农街与建富路交叉口正西方向35米左右",
        "tel": "",
        "category": "基础设施:公共设施:公共厕所",
        "type": 0,
        "location": {
            "lat": 47.21441,
            "lng": 123.65701
        },
        "ad_info": {
            "adcode": 230206,
            "province": "黑龙江省",
            "city": "齐齐哈尔市",
            "district": "富拉尔基区"
        }
    },
    {
        "id": "12149512087361230994",
        "title": "公共厕所",
        "address": "黑龙江省齐齐哈尔市龙沙区恒际纸箱厂东侧170米",
        "tel": "",
        "category": "基础设施:公共设施:公共厕所",
        "type": 0,
        "location": {
            "lat": 47.303458,
            "lng": 123.91038
        },
        "ad_info": {
            "adcode": 230202,
            "province": "黑龙江省",
            "city": "齐齐哈尔市",
            "district": "龙沙区"
        }
    },
    {
        "id": "15303358961358473945",
        "title": "公共厕所",
        "address": "黑龙江省齐齐哈尔市泰来县光明街与建设路交叉口正南方向85米左右",
        "tel": "",
        "category": "基础设施:公共设施:公共厕所",
        "type": 0,
        "location": {
            "lat": 46.385657,
            "lng": 123.42042
        },
        "ad_info": {
            "adcode": 230224,
            "province": "黑龙江省",
            "city": "齐齐哈尔市",
            "district": "泰来县"
        }
    },
    {
        "id": "11913657204613647600",
        "title": "公共厕所",
        "address": "黑龙江省齐齐哈尔市拜泉县人民街与育英路交叉口正北方向73米左右",
        "tel": "",
        "category": "基础设施:公共设施:公共厕所",
        "type": 0,
        "location": {
            "lat": 47.60659,
            "lng": 126.090879
        },
        "ad_info": {
            "adcode": 230231,
            "province": "黑龙江省",
            "city": "齐齐哈尔市",
            "district": "拜泉县"
        }
    },
    {
        "id": "17872979486753205291",
        "title": "公共厕所",
        "address": "黑龙江省齐齐哈尔市克山县S305与东大街交叉口正东方向285米左右",
        "tel": "",
        "category": "基础设施:公共设施:公共厕所",
        "type": 0,
        "location": {
            "lat": 48.036319,
            "lng": 125.891523
        },
        "ad_info": {
            "adcode": 230229,
            "province": "黑龙江省",
            "city": "齐齐哈尔市",
            "district": "克山县"
        }
    },
    {
        "id": "8343102684457981303",
        "title": "公共厕所",
        "address": "黑龙江省齐齐哈尔市铁锋区康庄路与联通大道交叉口西北方向48米左右",
        "tel": "",
        "category": "基础设施:公共设施:公共厕所",
        "type": 0,
        "location": {
            "lat": 47.345186,
            "lng": 124.091866
        },
        "ad_info": {
            "adcode": 230204,
            "province": "黑龙江省",
            "city": "齐齐哈尔市",
            "district": "铁锋区"
        }
    },
    {
        "id": "10037595208085900653",
        "title": "公共厕所",
        "address": "黑龙江省齐齐哈尔市泰来县S313与泰塔线交叉口正北方向923米左右",
        "tel": "",
        "category": "基础设施:公共设施:公共厕所",
        "type": 0,
        "location": {
            "lat": 46.609689,
            "lng": 123.067377
        },
        "ad_info": {
            "adcode": 230224,
            "province": "黑龙江省",
            "city": "齐齐哈尔市",
            "district": "泰来县"
        }
    },
    {
        "id": "12303283799076568708",
        "title": "公共厕所",
        "address": "黑龙江省齐齐哈尔市克东县南阳路与繁荣街交叉口正西方向24米左右",
        "tel": "",
        "category": "基础设施:公共设施:公共厕所",
        "type": 0,
        "location": {
            "lat": 48.030369,
            "lng": 126.251746
        },
        "ad_info": {
            "adcode": 230230,
            "province": "黑龙江省",
            "city": "齐齐哈尔市",
            "district": "克东县"
        }
    },
    {
        "id": "10104288966919227633",
        "title": "男卫生间",
        "address": "黑龙江省齐齐哈尔市建华区新江路1号万达广场F1",
        "tel": "",
        "category": "基础设施:公共设施:男洗手间",
        "type": 0,
        "location": {
            "lat": 47.368836,
            "lng": 123.947056
        },
        "ad_info": {
            "adcode": 230203,
            "province": "黑龙江省",
            "city": "齐齐哈尔市",
            "district": "建华区"
        }
    },
    {
        "id": "15705203263556094023",
        "title": "公共厕所",
        "address": "黑龙江省齐齐哈尔市讷河市电视台西侧",
        "tel": "",
        "category": "基础设施:公共设施:公共厕所",
        "type": 0,
        "location": {
            "lat": 48.49817,
            "lng": 124.876374
        },
        "ad_info": {
            "adcode": 230281,
            "province": "黑龙江省",
            "city": "齐齐哈尔市",
            "district": "讷河市"
        }
    },
    {
        "id": "12883601478811283604",
        "title": "公共厕所",
        "address": "黑龙江省齐齐哈尔市拜泉县政府路与西城街交叉口东南方向25米左右",
        "tel": "",
        "category": "基础设施:公共设施:公共厕所",
        "type": 0,
        "location": {
            "lat": 47.608331,
            "lng": 126.079449
        },
        "ad_info": {
            "adcode": 230231,
            "province": "黑龙江省",
            "city": "齐齐哈尔市",
            "district": "拜泉县"
        }
    },
    {
        "id": "3549358291333117308",
        "title": "公共厕所",
        "address": "黑龙江省齐齐哈尔市讷河市阳光水岸北500米",
        "tel": "",
        "category": "基础设施:公共设施:公共厕所",
        "type": 0,
        "location": {
            "lat": 48.487164,
            "lng": 124.865995
        },
        "ad_info": {
            "adcode": 230281,
            "province": "黑龙江省",
            "city": "齐齐哈尔市",
            "district": "讷河市"
        }
    },
    {
        "id": "2973987631317169228",
        "title": "公共厕所",
        "address": "黑龙江省齐齐哈尔市克山县东环南路与泡北路交叉口正北方向39米左右",
        "tel": "",
        "category": "基础设施:公共设施:公共厕所",
        "type": 0,
        "location": {
            "lat": 48.033251,
            "lng": 125.887594
        },
        "ad_info": {
            "adcode": 230229,
            "province": "黑龙江省",
            "city": "齐齐哈尔市",
            "district": "克山县"
        }
    },
    {
        "id": "18371378142660146077",
        "title": "公共厕所",
        "address": "黑龙江省齐齐哈尔市拜泉县曙光街与龙泉路交叉口正北方向370米左右",
        "tel": "",
        "category": "基础设施:公共设施:公共厕所",
        "type": 0,
        "location": {
            "lat": 47.618271,
            "lng": 126.090903
        },
        "ad_info": {
            "adcode": 230231,
            "province": "黑龙江省",
            "city": "齐齐哈尔市",
            "district": "拜泉县"
        }
    },
    {
        "id": "18071591554588289417",
        "title": "公共厕所",
        "address": "黑龙江省齐齐哈尔市富拉尔基区向阳大街与工农街交叉口正东方向181米左右",
        "tel": "",
        "category": "基础设施:公共设施:公共厕所",
        "type": 0,
        "location": {
            "lat": 47.20902,
            "lng": 123.657489
        },
        "ad_info": {
            "adcode": 230206,
            "province": "黑龙江省",
            "city": "齐齐哈尔市",
            "district": "富拉尔基区"
        }
    },
    {
        "id": "17748768246984417590",
        "title": "肯德基(民航餐厅)洗手间",
        "address": "黑龙江省齐齐哈尔市龙沙区卜奎大街12-1号",
        "tel": "",
        "category": "基础设施:公共设施:公共厕所",
        "type": 0,
        "location": {
            "lat": 47.34307,
            "lng": 123.95678
        },
        "ad_info": {
            "adcode": 230202,
            "province": "黑龙江省",
            "city": "齐齐哈尔市",
            "district": "龙沙区"
        }
    },
    {
        "id": "11427688811656096978",
        "title": "公共厕所",
        "address": "黑龙江省齐齐哈尔市龙江县兴业街与龙甘路交叉口东北方向581米左右",
        "tel": "",
        "category": "基础设施:公共设施:公共厕所",
        "type": 0,
        "location": {
            "lat": 47.359179,
            "lng": 123.203497
        },
        "ad_info": {
            "adcode": 230221,
            "province": "黑龙江省",
            "city": "齐齐哈尔市",
            "district": "龙江县"
        }
    },
    {
        "id": "5430303747948483345",
        "title": "公共厕所",
        "address": "黑龙江省齐齐哈尔市泰来县建设路与文博街交叉口西南方向22米左右",
        "tel": "",
        "category": "基础设施:公共设施:公共厕所",
        "type": 0,
        "location": {
            "lat": 46.389063,
            "lng": 123.419983
        },
        "ad_info": {
            "adcode": 230224,
            "province": "黑龙江省",
            "city": "齐齐哈尔市",
            "district": "泰来县"
        }
    },
    {
        "id": "8376165636727708890",
        "title": "公共厕所",
        "address": "黑龙江省齐齐哈尔市克山县S305与齐北北线交叉口东北方向407米左右",
        "tel": "",
        "category": "基础设施:公共设施:公共厕所",
        "type": 0,
        "location": {
            "lat": 48.082017,
            "lng": 126.051272
        },
        "ad_info": {
            "adcode": 230229,
            "province": "黑龙江省",
            "city": "齐齐哈尔市",
            "district": "克山县"
        }
    },
    {
        "id": "1763125215230566809",
        "title": "卫生间",
        "address": "黑龙江省齐齐哈尔市建华区新江路1号万达广场B1",
        "tel": "",
        "category": "基础设施:公共设施:公共厕所",
        "type": 0,
        "location": {
            "lat": 47.367641,
            "lng": 123.949656
        },
        "ad_info": {
            "adcode": 230203,
            "province": "黑龙江省",
            "city": "齐齐哈尔市",
            "district": "建华区"
        }
    },
    {
        "id": "15512737711592485866",
        "title": "公共厕所",
        "address": "黑龙江省齐齐哈尔市富拉尔基区工农街与建富路交叉口正西方向35米左右",
        "tel": "",
        "category": "基础设施:公共设施:公共厕所",
        "type": 0,
        "location": {
            "lat": 47.21441,
            "lng": 123.65701
        },
        "ad_info": {
            "adcode": 230206,
            "province": "黑龙江省",
            "city": "齐齐哈尔市",
            "district": "富拉尔基区"
        }
    },
    {
        "id": "12149512087361230994",
        "title": "公共厕所",
        "address": "黑龙江省齐齐哈尔市龙沙区恒际纸箱厂东侧170米",
        "tel": "",
        "category": "基础设施:公共设施:公共厕所",
        "type": 0,
        "location": {
            "lat": 47.303458,
            "lng": 123.91038
        },
        "ad_info": {
            "adcode": 230202,
            "province": "黑龙江省",
            "city": "齐齐哈尔市",
            "district": "龙沙区"
        }
    },
    {
        "id": "15303358961358473945",
        "title": "公共厕所",
        "address": "黑龙江省齐齐哈尔市泰来县光明街与建设路交叉口正南方向85米左右",
        "tel": "",
        "category": "基础设施:公共设施:公共厕所",
        "type": 0,
        "location": {
            "lat": 46.385657,
            "lng": 123.42042
        },
        "ad_info": {
            "adcode": 230224,
            "province": "黑龙江省",
            "city": "齐齐哈尔市",
            "district": "泰来县"
        }
    },
    {
        "id": "11913657204613647600",
        "title": "公共厕所",
        "address": "黑龙江省齐齐哈尔市拜泉县人民街与育英路交叉口正北方向73米左右",
        "tel": "",
        "category": "基础设施:公共设施:公共厕所",
        "type": 0,
        "location": {
            "lat": 47.60659,
            "lng": 126.090879
        },
        "ad_info": {
            "adcode": 230231,
            "province": "黑龙江省",
            "city": "齐齐哈尔市",
            "district": "拜泉县"
        }
    },
    {
        "id": "17872979486753205291",
        "title": "公共厕所",
        "address": "黑龙江省齐齐哈尔市克山县S305与东大街交叉口正东方向285米左右",
        "tel": "",
        "category": "基础设施:公共设施:公共厕所",
        "type": 0,
        "location": {
            "lat": 48.036319,
            "lng": 125.891523
        },
        "ad_info": {
            "adcode": 230229,
            "province": "黑龙江省",
            "city": "齐齐哈尔市",
            "district": "克山县"
        }
    },
    {
        "id": "8343102684457981303",
        "title": "公共厕所",
        "address": "黑龙江省齐齐哈尔市铁锋区康庄路与联通大道交叉口西北方向48米左右",
        "tel": "",
        "category": "基础设施:公共设施:公共厕所",
        "type": 0,
        "location": {
            "lat": 47.345186,
            "lng": 124.091866
        },
        "ad_info": {
            "adcode": 230204,
            "province": "黑龙江省",
            "city": "齐齐哈尔市",
            "district": "铁锋区"
        }
    },
    {
        "id": "10037595208085900653",
        "title": "公共厕所",
        "address": "黑龙江省齐齐哈尔市泰来县S313与泰塔线交叉口正北方向923米左右",
        "tel": "",
        "category": "基础设施:公共设施:公共厕所",
        "type": 0,
        "location": {
            "lat": 46.609689,
            "lng": 123.067377
        },
        "ad_info": {
            "adcode": 230224,
            "province": "黑龙江省",
            "city": "齐齐哈尔市",
            "district": "泰来县"
        }
    },
    {
        "id": "12303283799076568708",
        "title": "公共厕所",
        "address": "黑龙江省齐齐哈尔市克东县南阳路与繁荣街交叉口正西方向24米左右",
        "tel": "",
        "category": "基础设施:公共设施:公共厕所",
        "type": 0,
        "location": {
            "lat": 48.030369,
            "lng": 126.251746
        },
        "ad_info": {
            "adcode": 230230,
            "province": "黑龙江省",
            "city": "齐齐哈尔市",
            "district": "克东县"
        }
    },
    {
        "id": "10104288966919227633",
        "title": "男卫生间",
        "address": "黑龙江省齐齐哈尔市建华区新江路1号万达广场F1",
        "tel": "",
        "category": "基础设施:公共设施:男洗手间",
        "type": 0,
        "location": {
            "lat": 47.368836,
            "lng": 123.947056
        },
        "ad_info": {
            "adcode": 230203,
            "province": "黑龙江省",
            "city": "齐齐哈尔市",
            "district": "建华区"
        }
    },
    {
        "id": "15705203263556094023",
        "title": "公共厕所",
        "address": "黑龙江省齐齐哈尔市讷河市电视台西侧",
        "tel": "",
        "category": "基础设施:公共设施:公共厕所",
        "type": 0,
        "location": {
            "lat": 48.49817,
            "lng": 124.876374
        },
        "ad_info": {
            "adcode": 230281,
            "province": "黑龙江省",
            "city": "齐齐哈尔市",
            "district": "讷河市"
        }
    },
    {
        "id": "12883601478811283604",
        "title": "公共厕所",
        "address": "黑龙江省齐齐哈尔市拜泉县政府路与西城街交叉口东南方向25米左右",
        "tel": "",
        "category": "基础设施:公共设施:公共厕所",
        "type": 0,
        "location": {
            "lat": 47.608331,
            "lng": 126.079449
        },
        "ad_info": {
            "adcode": 230231,
            "province": "黑龙江省",
            "city": "齐齐哈尔市",
            "district": "拜泉县"
        }
    },
    {
        "id": "3549358291333117308",
        "title": "公共厕所",
        "address": "黑龙江省齐齐哈尔市讷河市阳光水岸北500米",
        "tel": "",
        "category": "基础设施:公共设施:公共厕所",
        "type": 0,
        "location": {
            "lat": 48.487164,
            "lng": 124.865995
        },
        "ad_info": {
            "adcode": 230281,
            "province": "黑龙江省",
            "city": "齐齐哈尔市",
            "district": "讷河市"
        }
    },
    {
        "id": "2973987631317169228",
        "title": "公共厕所",
        "address": "黑龙江省齐齐哈尔市克山县东环南路与泡北路交叉口正北方向39米左右",
        "tel": "",
        "category": "基础设施:公共设施:公共厕所",
        "type": 0,
        "location": {
            "lat": 48.033251,
            "lng": 125.887594
        },
        "ad_info": {
            "adcode": 230229,
            "province": "黑龙江省",
            "city": "齐齐哈尔市",
            "district": "克山县"
        }
    },
    {
        "id": "18371378142660146077",
        "title": "公共厕所",
        "address": "黑龙江省齐齐哈尔市拜泉县曙光街与龙泉路交叉口正北方向370米左右",
        "tel": "",
        "category": "基础设施:公共设施:公共厕所",
        "type": 0,
        "location": {
            "lat": 47.618271,
            "lng": 126.090903
        },
        "ad_info": {
            "adcode": 230231,
            "province": "黑龙江省",
            "city": "齐齐哈尔市",
            "district": "拜泉县"
        }
    },
    {
        "id": "18071591554588289417",
        "title": "公共厕所",
        "address": "黑龙江省齐齐哈尔市富拉尔基区向阳大街与工农街交叉口正东方向181米左右",
        "tel": "",
        "category": "基础设施:公共设施:公共厕所",
        "type": 0,
        "location": {
            "lat": 47.20902,
            "lng": 123.657489
        },
        "ad_info": {
            "adcode": 230206,
            "province": "黑龙江省",
            "city": "齐齐哈尔市",
            "district": "富拉尔基区"
        }
    },
    {
        "id": "17748768246984417590",
        "title": "肯德基(民航餐厅)洗手间",
        "address": "黑龙江省齐齐哈尔市龙沙区卜奎大街12-1号",
        "tel": "",
        "category": "基础设施:公共设施:公共厕所",
        "type": 0,
        "location": {
            "lat": 47.34307,
            "lng": 123.95678
        },
        "ad_info": {
            "adcode": 230202,
            "province": "黑龙江省",
            "city": "齐齐哈尔市",
            "district": "龙沙区"
        }
    },
    {
        "id": "11427688811656096978",
        "title": "公共厕所",
        "address": "黑龙江省齐齐哈尔市龙江县兴业街与龙甘路交叉口东北方向581米左右",
        "tel": "",
        "category": "基础设施:公共设施:公共厕所",
        "type": 0,
        "location": {
            "lat": 47.359179,
            "lng": 123.203497
        },
        "ad_info": {
            "adcode": 230221,
            "province": "黑龙江省",
            "city": "齐齐哈尔市",
            "district": "龙江县"
        }
    },
    {
        "id": "5430303747948483345",
        "title": "公共厕所",
        "address": "黑龙江省齐齐哈尔市泰来县建设路与文博街交叉口西南方向22米左右",
        "tel": "",
        "category": "基础设施:公共设施:公共厕所",
        "type": 0,
        "location": {
            "lat": 46.389063,
            "lng": 123.419983
        },
        "ad_info": {
            "adcode": 230224,
            "province": "黑龙江省",
            "city": "齐齐哈尔市",
            "district": "泰来县"
        }
    },
    {
        "id": "8376165636727708890",
        "title": "公共厕所",
        "address": "黑龙江省齐齐哈尔市克山县S305与齐北北线交叉口东北方向407米左右",
        "tel": "",
        "category": "基础设施:公共设施:公共厕所",
        "type": 0,
        "location": {
            "lat": 48.082017,
            "lng": 126.051272
        },
        "ad_info": {
            "adcode": 230229,
            "province": "黑龙江省",
            "city": "齐齐哈尔市",
            "district": "克山县"
        }
    },
    {
        "id": "1763125215230566809",
        "title": "卫生间",
        "address": "黑龙江省齐齐哈尔市建华区新江路1号万达广场B1",
        "tel": "",
        "category": "基础设施:公共设施:公共厕所",
        "type": 0,
        "location": {
            "lat": 47.367641,
            "lng": 123.949656
        },
        "ad_info": {
            "adcode": 230203,
            "province": "黑龙江省",
            "city": "齐齐哈尔市",
            "district": "建华区"
        }
    },
    {
        "id": "15512737711592485866",
        "title": "公共厕所",
        "address": "黑龙江省齐齐哈尔市富拉尔基区工农街与建富路交叉口正西方向35米左右",
        "tel": "",
        "category": "基础设施:公共设施:公共厕所",
        "type": 0,
        "location": {
            "lat": 47.21441,
            "lng": 123.65701
        },
        "ad_info": {
            "adcode": 230206,
            "province": "黑龙江省",
            "city": "齐齐哈尔市",
            "district": "富拉尔基区"
        }
    },
    {
        "id": "12149512087361230994",
        "title": "公共厕所",
        "address": "黑龙江省齐齐哈尔市龙沙区恒际纸箱厂东侧170米",
        "tel": "",
        "category": "基础设施:公共设施:公共厕所",
        "type": 0,
        "location": {
            "lat": 47.303458,
            "lng": 123.91038
        },
        "ad_info": {
            "adcode": 230202,
            "province": "黑龙江省",
            "city": "齐齐哈尔市",
            "district": "龙沙区"
        }
    },
    {
        "id": "15303358961358473945",
        "title": "公共厕所",
        "address": "黑龙江省齐齐哈尔市泰来县光明街与建设路交叉口正南方向85米左右",
        "tel": "",
        "category": "基础设施:公共设施:公共厕所",
        "type": 0,
        "location": {
            "lat": 46.385657,
            "lng": 123.42042
        },
        "ad_info": {
            "adcode": 230224,
            "province": "黑龙江省",
            "city": "齐齐哈尔市",
            "district": "泰来县"
        }
    },
    {
        "id": "11913657204613647600",
        "title": "公共厕所",
        "address": "黑龙江省齐齐哈尔市拜泉县人民街与育英路交叉口正北方向73米左右",
        "tel": "",
        "category": "基础设施:公共设施:公共厕所",
        "type": 0,
        "location": {
            "lat": 47.60659,
            "lng": 126.090879
        },
        "ad_info": {
            "adcode": 230231,
            "province": "黑龙江省",
            "city": "齐齐哈尔市",
            "district": "拜泉县"
        }
    },
    {
        "id": "17872979486753205291",
        "title": "公共厕所",
        "address": "黑龙江省齐齐哈尔市克山县S305与东大街交叉口正东方向285米左右",
        "tel": "",
        "category": "基础设施:公共设施:公共厕所",
        "type": 0,
        "location": {
            "lat": 48.036319,
            "lng": 125.891523
        },
        "ad_info": {
            "adcode": 230229,
            "province": "黑龙江省",
            "city": "齐齐哈尔市",
            "district": "克山县"
        }
    },
    {
        "id": "8343102684457981303",
        "title": "公共厕所",
        "address": "黑龙江省齐齐哈尔市铁锋区康庄路与联通大道交叉口西北方向48米左右",
        "tel": "",
        "category": "基础设施:公共设施:公共厕所",
        "type": 0,
        "location": {
            "lat": 47.345186,
            "lng": 124.091866
        },
        "ad_info": {
            "adcode": 230204,
            "province": "黑龙江省",
            "city": "齐齐哈尔市",
            "district": "铁锋区"
        }
    },
    {
        "id": "10037595208085900653",
        "title": "公共厕所",
        "address": "黑龙江省齐齐哈尔市泰来县S313与泰塔线交叉口正北方向923米左右",
        "tel": "",
        "category": "基础设施:公共设施:公共厕所",
        "type": 0,
        "location": {
            "lat": 46.609689,
            "lng": 123.067377
        },
        "ad_info": {
            "adcode": 230224,
            "province": "黑龙江省",
            "city": "齐齐哈尔市",
            "district": "泰来县"
        }
    },
    {
        "id": "12303283799076568708",
        "title": "公共厕所",
        "address": "黑龙江省齐齐哈尔市克东县南阳路与繁荣街交叉口正西方向24米左右",
        "tel": "",
        "category": "基础设施:公共设施:公共厕所",
        "type": 0,
        "location": {
            "lat": 48.030369,
            "lng": 126.251746
        },
        "ad_info": {
            "adcode": 230230,
            "province": "黑龙江省",
            "city": "齐齐哈尔市",
            "district": "克东县"
        }
    },
    {
        "id": "10104288966919227633",
        "title": "男卫生间",
        "address": "黑龙江省齐齐哈尔市建华区新江路1号万达广场F1",
        "tel": "",
        "category": "基础设施:公共设施:男洗手间",
        "type": 0,
        "location": {
            "lat": 47.368836,
            "lng": 123.947056
        },
        "ad_info": {
            "adcode": 230203,
            "province": "黑龙江省",
            "city": "齐齐哈尔市",
            "district": "建华区"
        }
    },
    {
        "id": "15705203263556094023",
        "title": "公共厕所",
        "address": "黑龙江省齐齐哈尔市讷河市电视台西侧",
        "tel": "",
        "category": "基础设施:公共设施:公共厕所",
        "type": 0,
        "location": {
            "lat": 48.49817,
            "lng": 124.876374
        },
        "ad_info": {
            "adcode": 230281,
            "province": "黑龙江省",
            "city": "齐齐哈尔市",
            "district": "讷河市"
        }
    },
    {
        "id": "12883601478811283604",
        "title": "公共厕所",
        "address": "黑龙江省齐齐哈尔市拜泉县政府路与西城街交叉口东南方向25米左右",
        "tel": "",
        "category": "基础设施:公共设施:公共厕所",
        "type": 0,
        "location": {
            "lat": 47.608331,
            "lng": 126.079449
        },
        "ad_info": {
            "adcode": 230231,
            "province": "黑龙江省",
            "city": "齐齐哈尔市",
            "district": "拜泉县"
        }
    },
    {
        "id": "3549358291333117308",
        "title": "公共厕所",
        "address": "黑龙江省齐齐哈尔市讷河市阳光水岸北500米",
        "tel": "",
        "category": "基础设施:公共设施:公共厕所",
        "type": 0,
        "location": {
            "lat": 48.487164,
            "lng": 124.865995
        },
        "ad_info": {
            "adcode": 230281,
            "province": "黑龙江省",
            "city": "齐齐哈尔市",
            "district": "讷河市"
        }
    },
    {
        "id": "2973987631317169228",
        "title": "公共厕所",
        "address": "黑龙江省齐齐哈尔市克山县东环南路与泡北路交叉口正北方向39米左右",
        "tel": "",
        "category": "基础设施:公共设施:公共厕所",
        "type": 0,
        "location": {
            "lat": 48.033251,
            "lng": 125.887594
        },
        "ad_info": {
            "adcode": 230229,
            "province": "黑龙江省",
            "city": "齐齐哈尔市",
            "district": "克山县"
        }
    },
    {
        "id": "18371378142660146077",
        "title": "公共厕所",
        "address": "黑龙江省齐齐哈尔市拜泉县曙光街与龙泉路交叉口正北方向370米左右",
        "tel": "",
        "category": "基础设施:公共设施:公共厕所",
        "type": 0,
        "location": {
            "lat": 47.618271,
            "lng": 126.090903
        },
        "ad_info": {
            "adcode": 230231,
            "province": "黑龙江省",
            "city": "齐齐哈尔市",
            "district": "拜泉县"
        }
    },
    {
        "id": "18071591554588289417",
        "title": "公共厕所",
        "address": "黑龙江省齐齐哈尔市富拉尔基区向阳大街与工农街交叉口正东方向181米左右",
        "tel": "",
        "category": "基础设施:公共设施:公共厕所",
        "type": 0,
        "location": {
            "lat": 47.20902,
            "lng": 123.657489
        },
        "ad_info": {
            "adcode": 230206,
            "province": "黑龙江省",
            "city": "齐齐哈尔市",
            "district": "富拉尔基区"
        }
    },
    {
        "id": "17748768246984417590",
        "title": "肯德基(民航餐厅)洗手间",
        "address": "黑龙江省齐齐哈尔市龙沙区卜奎大街12-1号",
        "tel": "",
        "category": "基础设施:公共设施:公共厕所",
        "type": 0,
        "location": {
            "lat": 47.34307,
            "lng": 123.95678
        },
        "ad_info": {
            "adcode": 230202,
            "province": "黑龙江省",
            "city": "齐齐哈尔市",
            "district": "龙沙区"
        }
    },
    {
        "id": "11427688811656096978",
        "title": "公共厕所",
        "address": "黑龙江省齐齐哈尔市龙江县兴业街与龙甘路交叉口东北方向581米左右",
        "tel": "",
        "category": "基础设施:公共设施:公共厕所",
        "type": 0,
        "location": {
            "lat": 47.359179,
            "lng": 123.203497
        },
        "ad_info": {
            "adcode": 230221,
            "province": "黑龙江省",
            "city": "齐齐哈尔市",
            "district": "龙江县"
        }
    },
    {
        "id": "5430303747948483345",
        "title": "公共厕所",
        "address": "黑龙江省齐齐哈尔市泰来县建设路与文博街交叉口西南方向22米左右",
        "tel": "",
        "category": "基础设施:公共设施:公共厕所",
        "type": 0,
        "location": {
            "lat": 46.389063,
            "lng": 123.419983
        },
        "ad_info": {
            "adcode": 230224,
            "province": "黑龙江省",
            "city": "齐齐哈尔市",
            "district": "泰来县"
        }
    },
    {
        "id": "8376165636727708890",
        "title": "公共厕所",
        "address": "黑龙江省齐齐哈尔市克山县S305与齐北北线交叉口东北方向407米左右",
        "tel": "",
        "category": "基础设施:公共设施:公共厕所",
        "type": 0,
        "location": {
            "lat": 48.082017,
            "lng": 126.051272
        },
        "ad_info": {
            "adcode": 230229,
            "province": "黑龙江省",
            "city": "齐齐哈尔市",
            "district": "克山县"
        }
    },
    {
        "id": "1763125215230566809",
        "title": "卫生间",
        "address": "黑龙江省齐齐哈尔市建华区新江路1号万达广场B1",
        "tel": "",
        "category": "基础设施:公共设施:公共厕所",
        "type": 0,
        "location": {
            "lat": 47.367641,
            "lng": 123.949656
        },
        "ad_info": {
            "adcode": 230203,
            "province": "黑龙江省",
            "city": "齐齐哈尔市",
            "district": "建华区"
        }
    },
    {
        "id": "15512737711592485866",
        "title": "公共厕所",
        "address": "黑龙江省齐齐哈尔市富拉尔基区工农街与建富路交叉口正西方向35米左右",
        "tel": "",
        "category": "基础设施:公共设施:公共厕所",
        "type": 0,
        "location": {
            "lat": 47.21441,
            "lng": 123.65701
        },
        "ad_info": {
            "adcode": 230206,
            "province": "黑龙江省",
            "city": "齐齐哈尔市",
            "district": "富拉尔基区"
        }
    },
    {
        "id": "12149512087361230994",
        "title": "公共厕所",
        "address": "黑龙江省齐齐哈尔市龙沙区恒际纸箱厂东侧170米",
        "tel": "",
        "category": "基础设施:公共设施:公共厕所",
        "type": 0,
        "location": {
            "lat": 47.303458,
            "lng": 123.91038
        },
        "ad_info": {
            "adcode": 230202,
            "province": "黑龙江省",
            "city": "齐齐哈尔市",
            "district": "龙沙区"
        }
    },
    {
        "id": "15303358961358473945",
        "title": "公共厕所",
        "address": "黑龙江省齐齐哈尔市泰来县光明街与建设路交叉口正南方向85米左右",
        "tel": "",
        "category": "基础设施:公共设施:公共厕所",
        "type": 0,
        "location": {
            "lat": 46.385657,
            "lng": 123.42042
        },
        "ad_info": {
            "adcode": 230224,
            "province": "黑龙江省",
            "city": "齐齐哈尔市",
            "district": "泰来县"
        }
    },
    {
        "id": "11913657204613647600",
        "title": "公共厕所",
        "address": "黑龙江省齐齐哈尔市拜泉县人民街与育英路交叉口正北方向73米左右",
        "tel": "",
        "category": "基础设施:公共设施:公共厕所",
        "type": 0,
        "location": {
            "lat": 47.60659,
            "lng": 126.090879
        },
        "ad_info": {
            "adcode": 230231,
            "province": "黑龙江省",
            "city": "齐齐哈尔市",
            "district": "拜泉县"
        }
    },
    {
        "id": "17872979486753205291",
        "title": "公共厕所",
        "address": "黑龙江省齐齐哈尔市克山县S305与东大街交叉口正东方向285米左右",
        "tel": "",
        "category": "基础设施:公共设施:公共厕所",
        "type": 0,
        "location": {
            "lat": 48.036319,
            "lng": 125.891523
        },
        "ad_info": {
            "adcode": 230229,
            "province": "黑龙江省",
            "city": "齐齐哈尔市",
            "district": "克山县"
        }
    },
    {
        "id": "8343102684457981303",
        "title": "公共厕所",
        "address": "黑龙江省齐齐哈尔市铁锋区康庄路与联通大道交叉口西北方向48米左右",
        "tel": "",
        "category": "基础设施:公共设施:公共厕所",
        "type": 0,
        "location": {
            "lat": 47.345186,
            "lng": 124.091866
        },
        "ad_info": {
            "adcode": 230204,
            "province": "黑龙江省",
            "city": "齐齐哈尔市",
            "district": "铁锋区"
        }
    },
    {
        "id": "10037595208085900653",
        "title": "公共厕所",
        "address": "黑龙江省齐齐哈尔市泰来县S313与泰塔线交叉口正北方向923米左右",
        "tel": "",
        "category": "基础设施:公共设施:公共厕所",
        "type": 0,
        "location": {
            "lat": 46.609689,
            "lng": 123.067377
        },
        "ad_info": {
            "adcode": 230224,
            "province": "黑龙江省",
            "city": "齐齐哈尔市",
            "district": "泰来县"
        }
    },
    {
        "id": "12303283799076568708",
        "title": "公共厕所",
        "address": "黑龙江省齐齐哈尔市克东县南阳路与繁荣街交叉口正西方向24米左右",
        "tel": "",
        "category": "基础设施:公共设施:公共厕所",
        "type": 0,
        "location": {
            "lat": 48.030369,
            "lng": 126.251746
        },
        "ad_info": {
            "adcode": 230230,
            "province": "黑龙江省",
            "city": "齐齐哈尔市",
            "district": "克东县"
        }
    },
    {
        "id": "10104288966919227633",
        "title": "男卫生间",
        "address": "黑龙江省齐齐哈尔市建华区新江路1号万达广场F1",
        "tel": "",
        "category": "基础设施:公共设施:男洗手间",
        "type": 0,
        "location": {
            "lat": 47.368836,
            "lng": 123.947056
        },
        "ad_info": {
            "adcode": 230203,
            "province": "黑龙江省",
            "city": "齐齐哈尔市",
            "district": "建华区"
        }
    },
    {
        "id": "15705203263556094023",
        "title": "公共厕所",
        "address": "黑龙江省齐齐哈尔市讷河市电视台西侧",
        "tel": "",
        "category": "基础设施:公共设施:公共厕所",
        "type": 0,
        "location": {
            "lat": 48.49817,
            "lng": 124.876374
        },
        "ad_info": {
            "adcode": 230281,
            "province": "黑龙江省",
            "city": "齐齐哈尔市",
            "district": "讷河市"
        }
    },
    {
        "id": "12883601478811283604",
        "title": "公共厕所",
        "address": "黑龙江省齐齐哈尔市拜泉县政府路与西城街交叉口东南方向25米左右",
        "tel": "",
        "category": "基础设施:公共设施:公共厕所",
        "type": 0,
        "location": {
            "lat": 47.608331,
            "lng": 126.079449
        },
        "ad_info": {
            "adcode": 230231,
            "province": "黑龙江省",
            "city": "齐齐哈尔市",
            "district": "拜泉县"
        }
    },
    {
        "id": "3549358291333117308",
        "title": "公共厕所",
        "address": "黑龙江省齐齐哈尔市讷河市阳光水岸北500米",
        "tel": "",
        "category": "基础设施:公共设施:公共厕所",
        "type": 0,
        "location": {
            "lat": 48.487164,
            "lng": 124.865995
        },
        "ad_info": {
            "adcode": 230281,
            "province": "黑龙江省",
            "city": "齐齐哈尔市",
            "district": "讷河市"
        }
    },
    {
        "id": "2973987631317169228",
        "title": "公共厕所",
        "address": "黑龙江省齐齐哈尔市克山县东环南路与泡北路交叉口正北方向39米左右",
        "tel": "",
        "category": "基础设施:公共设施:公共厕所",
        "type": 0,
        "location": {
            "lat": 48.033251,
            "lng": 125.887594
        },
        "ad_info": {
            "adcode": 230229,
            "province": "黑龙江省",
            "city": "齐齐哈尔市",
            "district": "克山县"
        }
    },
    {
        "id": "18371378142660146077",
        "title": "公共厕所",
        "address": "黑龙江省齐齐哈尔市拜泉县曙光街与龙泉路交叉口正北方向370米左右",
        "tel": "",
        "category": "基础设施:公共设施:公共厕所",
        "type": 0,
        "location": {
            "lat": 47.618271,
            "lng": 126.090903
        },
        "ad_info": {
            "adcode": 230231,
            "province": "黑龙江省",
            "city": "齐齐哈尔市",
            "district": "拜泉县"
        }
    },
    {
        "id": "18071591554588289417",
        "title": "公共厕所",
        "address": "黑龙江省齐齐哈尔市富拉尔基区向阳大街与工农街交叉口正东方向181米左右",
        "tel": "",
        "category": "基础设施:公共设施:公共厕所",
        "type": 0,
        "location": {
            "lat": 47.20902,
            "lng": 123.657489
        },
        "ad_info": {
            "adcode": 230206,
            "province": "黑龙江省",
            "city": "齐齐哈尔市",
            "district": "富拉尔基区"
        }
    },
    {
        "id": "17748768246984417590",
        "title": "肯德基(民航餐厅)洗手间",
        "address": "黑龙江省齐齐哈尔市龙沙区卜奎大街12-1号",
        "tel": "",
        "category": "基础设施:公共设施:公共厕所",
        "type": 0,
        "location": {
            "lat": 47.34307,
            "lng": 123.95678
        },
        "ad_info": {
            "adcode": 230202,
            "province": "黑龙江省",
            "city": "齐齐哈尔市",
            "district": "龙沙区"
        }
    },
    {
        "id": "11427688811656096978",
        "title": "公共厕所",
        "address": "黑龙江省齐齐哈尔市龙江县兴业街与龙甘路交叉口东北方向581米左右",
        "tel": "",
        "category": "基础设施:公共设施:公共厕所",
        "type": 0,
        "location": {
            "lat": 47.359179,
            "lng": 123.203497
        },
        "ad_info": {
            "adcode": 230221,
            "province": "黑龙江省",
            "city": "齐齐哈尔市",
            "district": "龙江县"
        }
    },
    {
        "id": "5430303747948483345",
        "title": "公共厕所",
        "address": "黑龙江省齐齐哈尔市泰来县建设路与文博街交叉口西南方向22米左右",
        "tel": "",
        "category": "基础设施:公共设施:公共厕所",
        "type": 0,
        "location": {
            "lat": 46.389063,
            "lng": 123.419983
        },
        "ad_info": {
            "adcode": 230224,
            "province": "黑龙江省",
            "city": "齐齐哈尔市",
            "district": "泰来县"
        }
    },
    {
        "id": "8376165636727708890",
        "title": "公共厕所",
        "address": "黑龙江省齐齐哈尔市克山县S305与齐北北线交叉口东北方向407米左右",
        "tel": "",
        "category": "基础设施:公共设施:公共厕所",
        "type": 0,
        "location": {
            "lat": 48.082017,
            "lng": 126.051272
        },
        "ad_info": {
            "adcode": 230229,
            "province": "黑龙江省",
            "city": "齐齐哈尔市",
            "district": "克山县"
        }
    },
    {
        "id": "1763125215230566809",
        "title": "卫生间",
        "address": "黑龙江省齐齐哈尔市建华区新江路1号万达广场B1",
        "tel": "",
        "category": "基础设施:公共设施:公共厕所",
        "type": 0,
        "location": {
            "lat": 47.367641,
            "lng": 123.949656
        },
        "ad_info": {
            "adcode": 230203,
            "province": "黑龙江省",
            "city": "齐齐哈尔市",
            "district": "建华区"
        }
    },
    {
        "id": "15512737711592485866",
        "title": "公共厕所",
        "address": "黑龙江省齐齐哈尔市富拉尔基区工农街与建富路交叉口正西方向35米左右",
        "tel": "",
        "category": "基础设施:公共设施:公共厕所",
        "type": 0,
        "location": {
            "lat": 47.21441,
            "lng": 123.65701
        },
        "ad_info": {
            "adcode": 230206,
            "province": "黑龙江省",
            "city": "齐齐哈尔市",
            "district": "富拉尔基区"
        }
    },
    {
        "id": "12149512087361230994",
        "title": "公共厕所",
        "address": "黑龙江省齐齐哈尔市龙沙区恒际纸箱厂东侧170米",
        "tel": "",
        "category": "基础设施:公共设施:公共厕所",
        "type": 0,
        "location": {
            "lat": 47.303458,
            "lng": 123.91038
        },
        "ad_info": {
            "adcode": 230202,
            "province": "黑龙江省",
            "city": "齐齐哈尔市",
            "district": "龙沙区"
        }
    },
    {
        "id": "15303358961358473945",
        "title": "公共厕所",
        "address": "黑龙江省齐齐哈尔市泰来县光明街与建设路交叉口正南方向85米左右",
        "tel": "",
        "category": "基础设施:公共设施:公共厕所",
        "type": 0,
        "location": {
            "lat": 46.385657,
            "lng": 123.42042
        },
        "ad_info": {
            "adcode": 230224,
            "province": "黑龙江省",
            "city": "齐齐哈尔市",
            "district": "泰来县"
        }
    },
    {
        "id": "11913657204613647600",
        "title": "公共厕所",
        "address": "黑龙江省齐齐哈尔市拜泉县人民街与育英路交叉口正北方向73米左右",
        "tel": "",
        "category": "基础设施:公共设施:公共厕所",
        "type": 0,
        "location": {
            "lat": 47.60659,
            "lng": 126.090879
        },
        "ad_info": {
            "adcode": 230231,
            "province": "黑龙江省",
            "city": "齐齐哈尔市",
            "district": "拜泉县"
        }
    },
    {
        "id": "17872979486753205291",
        "title": "公共厕所",
        "address": "黑龙江省齐齐哈尔市克山县S305与东大街交叉口正东方向285米左右",
        "tel": "",
        "category": "基础设施:公共设施:公共厕所",
        "type": 0,
        "location": {
            "lat": 48.036319,
            "lng": 125.891523
        },
        "ad_info": {
            "adcode": 230229,
            "province": "黑龙江省",
            "city": "齐齐哈尔市",
            "district": "克山县"
        }
    },
    {
        "id": "8343102684457981303",
        "title": "公共厕所",
        "address": "黑龙江省齐齐哈尔市铁锋区康庄路与联通大道交叉口西北方向48米左右",
        "tel": "",
        "category": "基础设施:公共设施:公共厕所",
        "type": 0,
        "location": {
            "lat": 47.345186,
            "lng": 124.091866
        },
        "ad_info": {
            "adcode": 230204,
            "province": "黑龙江省",
            "city": "齐齐哈尔市",
            "district": "铁锋区"
        }
    },
    {
        "id": "10037595208085900653",
        "title": "公共厕所",
        "address": "黑龙江省齐齐哈尔市泰来县S313与泰塔线交叉口正北方向923米左右",
        "tel": "",
        "category": "基础设施:公共设施:公共厕所",
        "type": 0,
        "location": {
            "lat": 46.609689,
            "lng": 123.067377
        },
        "ad_info": {
            "adcode": 230224,
            "province": "黑龙江省",
            "city": "齐齐哈尔市",
            "district": "泰来县"
        }
    },
    {
        "id": "12303283799076568708",
        "title": "公共厕所",
        "address": "黑龙江省齐齐哈尔市克东县南阳路与繁荣街交叉口正西方向24米左右",
        "tel": "",
        "category": "基础设施:公共设施:公共厕所",
        "type": 0,
        "location": {
            "lat": 48.030369,
            "lng": 126.251746
        },
        "ad_info": {
            "adcode": 230230,
            "province": "黑龙江省",
            "city": "齐齐哈尔市",
            "district": "克东县"
        }
    },
    {
        "id": "10104288966919227633",
        "title": "男卫生间",
        "address": "黑龙江省齐齐哈尔市建华区新江路1号万达广场F1",
        "tel": "",
        "category": "基础设施:公共设施:男洗手间",
        "type": 0,
        "location": {
            "lat": 47.368836,
            "lng": 123.947056
        },
        "ad_info": {
            "adcode": 230203,
            "province": "黑龙江省",
            "city": "齐齐哈尔市",
            "district": "建华区"
        }
    },
    {
        "id": "15705203263556094023",
        "title": "公共厕所",
        "address": "黑龙江省齐齐哈尔市讷河市电视台西侧",
        "tel": "",
        "category": "基础设施:公共设施:公共厕所",
        "type": 0,
        "location": {
            "lat": 48.49817,
            "lng": 124.876374
        },
        "ad_info": {
            "adcode": 230281,
            "province": "黑龙江省",
            "city": "齐齐哈尔市",
            "district": "讷河市"
        }
    },
    {
        "id": "12883601478811283604",
        "title": "公共厕所",
        "address": "黑龙江省齐齐哈尔市拜泉县政府路与西城街交叉口东南方向25米左右",
        "tel": "",
        "category": "基础设施:公共设施:公共厕所",
        "type": 0,
        "location": {
            "lat": 47.608331,
            "lng": 126.079449
        },
        "ad_info": {
            "adcode": 230231,
            "province": "黑龙江省",
            "city": "齐齐哈尔市",
            "district": "拜泉县"
        }
    },
    {
        "id": "3549358291333117308",
        "title": "公共厕所",
        "address": "黑龙江省齐齐哈尔市讷河市阳光水岸北500米",
        "tel": "",
        "category": "基础设施:公共设施:公共厕所",
        "type": 0,
        "location": {
            "lat": 48.487164,
            "lng": 124.865995
        },
        "ad_info": {
            "adcode": 230281,
            "province": "黑龙江省",
            "city": "齐齐哈尔市",
            "district": "讷河市"
        }
    },
    {
        "id": "2973987631317169228",
        "title": "公共厕所",
        "address": "黑龙江省齐齐哈尔市克山县东环南路与泡北路交叉口正北方向39米左右",
        "tel": "",
        "category": "基础设施:公共设施:公共厕所",
        "type": 0,
        "location": {
            "lat": 48.033251,
            "lng": 125.887594
        },
        "ad_info": {
            "adcode": 230229,
            "province": "黑龙江省",
            "city": "齐齐哈尔市",
            "district": "克山县"
        }
    },
    {
        "id": "18371378142660146077",
        "title": "公共厕所",
        "address": "黑龙江省齐齐哈尔市拜泉县曙光街与龙泉路交叉口正北方向370米左右",
        "tel": "",
        "category": "基础设施:公共设施:公共厕所",
        "type": 0,
        "location": {
            "lat": 47.618271,
            "lng": 126.090903
        },
        "ad_info": {
            "adcode": 230231,
            "province": "黑龙江省",
            "city": "齐齐哈尔市",
            "district": "拜泉县"
        }
    },
    {
        "id": "18071591554588289417",
        "title": "公共厕所",
        "address": "黑龙江省齐齐哈尔市富拉尔基区向阳大街与工农街交叉口正东方向181米左右",
        "tel": "",
        "category": "基础设施:公共设施:公共厕所",
        "type": 0,
        "location": {
            "lat": 47.20902,
            "lng": 123.657489
        },
        "ad_info": {
            "adcode": 230206,
            "province": "黑龙江省",
            "city": "齐齐哈尔市",
            "district": "富拉尔基区"
        }
    },
    {
        "id": "17748768246984417590",
        "title": "肯德基(民航餐厅)洗手间",
        "address": "黑龙江省齐齐哈尔市龙沙区卜奎大街12-1号",
        "tel": "",
        "category": "基础设施:公共设施:公共厕所",
        "type": 0,
        "location": {
            "lat": 47.34307,
            "lng": 123.95678
        },
        "ad_info": {
            "adcode": 230202,
            "province": "黑龙江省",
            "city": "齐齐哈尔市",
            "district": "龙沙区"
        }
    },
    {
        "id": "11427688811656096978",
        "title": "公共厕所",
        "address": "黑龙江省齐齐哈尔市龙江县兴业街与龙甘路交叉口东北方向581米左右",
        "tel": "",
        "category": "基础设施:公共设施:公共厕所",
        "type": 0,
        "location": {
            "lat": 47.359179,
            "lng": 123.203497
        },
        "ad_info": {
            "adcode": 230221,
            "province": "黑龙江省",
            "city": "齐齐哈尔市",
            "district": "龙江县"
        }
    },
    {
        "id": "5430303747948483345",
        "title": "公共厕所",
        "address": "黑龙江省齐齐哈尔市泰来县建设路与文博街交叉口西南方向22米左右",
        "tel": "",
        "category": "基础设施:公共设施:公共厕所",
        "type": 0,
        "location": {
            "lat": 46.389063,
            "lng": 123.419983
        },
        "ad_info": {
            "adcode": 230224,
            "province": "黑龙江省",
            "city": "齐齐哈尔市",
            "district": "泰来县"
        }
    },
    {
        "id": "8376165636727708890",
        "title": "公共厕所",
        "address": "黑龙江省齐齐哈尔市克山县S305与齐北北线交叉口东北方向407米左右",
        "tel": "",
        "category": "基础设施:公共设施:公共厕所",
        "type": 0,
        "location": {
            "lat": 48.082017,
            "lng": 126.051272
        },
        "ad_info": {
            "adcode": 230229,
            "province": "黑龙江省",
            "city": "齐齐哈尔市",
            "district": "克山县"
        }
    },
    {
        "id": "1763125215230566809",
        "title": "卫生间",
        "address": "黑龙江省齐齐哈尔市建华区新江路1号万达广场B1",
        "tel": "",
        "category": "基础设施:公共设施:公共厕所",
        "type": 0,
        "location": {
            "lat": 47.367641,
            "lng": 123.949656
        },
        "ad_info": {
            "adcode": 230203,
            "province": "黑龙江省",
            "city": "齐齐哈尔市",
            "district": "建华区"
        }
    },
    {
        "id": "15512737711592485866",
        "title": "公共厕所",
        "address": "黑龙江省齐齐哈尔市富拉尔基区工农街与建富路交叉口正西方向35米左右",
        "tel": "",
        "category": "基础设施:公共设施:公共厕所",
        "type": 0,
        "location": {
            "lat": 47.21441,
            "lng": 123.65701
        },
        "ad_info": {
            "adcode": 230206,
            "province": "黑龙江省",
            "city": "齐齐哈尔市",
            "district": "富拉尔基区"
        }
    },
    {
        "id": "12149512087361230994",
        "title": "公共厕所",
        "address": "黑龙江省齐齐哈尔市龙沙区恒际纸箱厂东侧170米",
        "tel": "",
        "category": "基础设施:公共设施:公共厕所",
        "type": 0,
        "location": {
            "lat": 47.303458,
            "lng": 123.91038
        },
        "ad_info": {
            "adcode": 230202,
            "province": "黑龙江省",
            "city": "齐齐哈尔市",
            "district": "龙沙区"
        }
    },
    {
        "id": "15303358961358473945",
        "title": "公共厕所",
        "address": "黑龙江省齐齐哈尔市泰来县光明街与建设路交叉口正南方向85米左右",
        "tel": "",
        "category": "基础设施:公共设施:公共厕所",
        "type": 0,
        "location": {
            "lat": 46.385657,
            "lng": 123.42042
        },
        "ad_info": {
            "adcode": 230224,
            "province": "黑龙江省",
            "city": "齐齐哈尔市",
            "district": "泰来县"
        }
    },
    {
        "id": "11913657204613647600",
        "title": "公共厕所",
        "address": "黑龙江省齐齐哈尔市拜泉县人民街与育英路交叉口正北方向73米左右",
        "tel": "",
        "category": "基础设施:公共设施:公共厕所",
        "type": 0,
        "location": {
            "lat": 47.60659,
            "lng": 126.090879
        },
        "ad_info": {
            "adcode": 230231,
            "province": "黑龙江省",
            "city": "齐齐哈尔市",
            "district": "拜泉县"
        }
    },
    {
        "id": "17872979486753205291",
        "title": "公共厕所",
        "address": "黑龙江省齐齐哈尔市克山县S305与东大街交叉口正东方向285米左右",
        "tel": "",
        "category": "基础设施:公共设施:公共厕所",
        "type": 0,
        "location": {
            "lat": 48.036319,
            "lng": 125.891523
        },
        "ad_info": {
            "adcode": 230229,
            "province": "黑龙江省",
            "city": "齐齐哈尔市",
            "district": "克山县"
        }
    },
    {
        "id": "8343102684457981303",
        "title": "公共厕所",
        "address": "黑龙江省齐齐哈尔市铁锋区康庄路与联通大道交叉口西北方向48米左右",
        "tel": "",
        "category": "基础设施:公共设施:公共厕所",
        "type": 0,
        "location": {
            "lat": 47.345186,
            "lng": 124.091866
        },
        "ad_info": {
            "adcode": 230204,
            "province": "黑龙江省",
            "city": "齐齐哈尔市",
            "district": "铁锋区"
        }
    },
    {
        "id": "10037595208085900653",
        "title": "公共厕所",
        "address": "黑龙江省齐齐哈尔市泰来县S313与泰塔线交叉口正北方向923米左右",
        "tel": "",
        "category": "基础设施:公共设施:公共厕所",
        "type": 0,
        "location": {
            "lat": 46.609689,
            "lng": 123.067377
        },
        "ad_info": {
            "adcode": 230224,
            "province": "黑龙江省",
            "city": "齐齐哈尔市",
            "district": "泰来县"
        }
    },
    {
        "id": "12303283799076568708",
        "title": "公共厕所",
        "address": "黑龙江省齐齐哈尔市克东县南阳路与繁荣街交叉口正西方向24米左右",
        "tel": "",
        "category": "基础设施:公共设施:公共厕所",
        "type": 0,
        "location": {
            "lat": 48.030369,
            "lng": 126.251746
        },
        "ad_info": {
            "adcode": 230230,
            "province": "黑龙江省",
            "city": "齐齐哈尔市",
            "district": "克东县"
        }
    },
    {
        "id": "10104288966919227633",
        "title": "男卫生间",
        "address": "黑龙江省齐齐哈尔市建华区新江路1号万达广场F1",
        "tel": "",
        "category": "基础设施:公共设施:男洗手间",
        "type": 0,
        "location": {
            "lat": 47.368836,
            "lng": 123.947056
        },
        "ad_info": {
            "adcode": 230203,
            "province": "黑龙江省",
            "city": "齐齐哈尔市",
            "district": "建华区"
        }
    },
    {
        "id": "15705203263556094023",
        "title": "公共厕所",
        "address": "黑龙江省齐齐哈尔市讷河市电视台西侧",
        "tel": "",
        "category": "基础设施:公共设施:公共厕所",
        "type": 0,
        "location": {
            "lat": 48.49817,
            "lng": 124.876374
        },
        "ad_info": {
            "adcode": 230281,
            "province": "黑龙江省",
            "city": "齐齐哈尔市",
            "district": "讷河市"
        }
    },
    {
        "id": "12883601478811283604",
        "title": "公共厕所",
        "address": "黑龙江省齐齐哈尔市拜泉县政府路与西城街交叉口东南方向25米左右",
        "tel": "",
        "category": "基础设施:公共设施:公共厕所",
        "type": 0,
        "location": {
            "lat": 47.608331,
            "lng": 126.079449
        },
        "ad_info": {
            "adcode": 230231,
            "province": "黑龙江省",
            "city": "齐齐哈尔市",
            "district": "拜泉县"
        }
    },
    {
        "id": "3549358291333117308",
        "title": "公共厕所",
        "address": "黑龙江省齐齐哈尔市讷河市阳光水岸北500米",
        "tel": "",
        "category": "基础设施:公共设施:公共厕所",
        "type": 0,
        "location": {
            "lat": 48.487164,
            "lng": 124.865995
        },
        "ad_info": {
            "adcode": 230281,
            "province": "黑龙江省",
            "city": "齐齐哈尔市",
            "district": "讷河市"
        }
    },
    {
        "id": "2973987631317169228",
        "title": "公共厕所",
        "address": "黑龙江省齐齐哈尔市克山县东环南路与泡北路交叉口正北方向39米左右",
        "tel": "",
        "category": "基础设施:公共设施:公共厕所",
        "type": 0,
        "location": {
            "lat": 48.033251,
            "lng": 125.887594
        },
        "ad_info": {
            "adcode": 230229,
            "province": "黑龙江省",
            "city": "齐齐哈尔市",
            "district": "克山县"
        }
    },
    {
        "id": "18371378142660146077",
        "title": "公共厕所",
        "address": "黑龙江省齐齐哈尔市拜泉县曙光街与龙泉路交叉口正北方向370米左右",
        "tel": "",
        "category": "基础设施:公共设施:公共厕所",
        "type": 0,
        "location": {
            "lat": 47.618271,
            "lng": 126.090903
        },
        "ad_info": {
            "adcode": 230231,
            "province": "黑龙江省",
            "city": "齐齐哈尔市",
            "district": "拜泉县"
        }
    },
    {
        "id": "18071591554588289417",
        "title": "公共厕所",
        "address": "黑龙江省齐齐哈尔市富拉尔基区向阳大街与工农街交叉口正东方向181米左右",
        "tel": "",
        "category": "基础设施:公共设施:公共厕所",
        "type": 0,
        "location": {
            "lat": 47.20902,
            "lng": 123.657489
        },
        "ad_info": {
            "adcode": 230206,
            "province": "黑龙江省",
            "city": "齐齐哈尔市",
            "district": "富拉尔基区"
        }
    },
    {
        "id": "17748768246984417590",
        "title": "肯德基(民航餐厅)洗手间",
        "address": "黑龙江省齐齐哈尔市龙沙区卜奎大街12-1号",
        "tel": "",
        "category": "基础设施:公共设施:公共厕所",
        "type": 0,
        "location": {
            "lat": 47.34307,
            "lng": 123.95678
        },
        "ad_info": {
            "adcode": 230202,
            "province": "黑龙江省",
            "city": "齐齐哈尔市",
            "district": "龙沙区"
        }
    },
    {
        "id": "11427688811656096978",
        "title": "公共厕所",
        "address": "黑龙江省齐齐哈尔市龙江县兴业街与龙甘路交叉口东北方向581米左右",
        "tel": "",
        "category": "基础设施:公共设施:公共厕所",
        "type": 0,
        "location": {
            "lat": 47.359179,
            "lng": 123.203497
        },
        "ad_info": {
            "adcode": 230221,
            "province": "黑龙江省",
            "city": "齐齐哈尔市",
            "district": "龙江县"
        }
    },
    {
        "id": "5430303747948483345",
        "title": "公共厕所",
        "address": "黑龙江省齐齐哈尔市泰来县建设路与文博街交叉口西南方向22米左右",
        "tel": "",
        "category": "基础设施:公共设施:公共厕所",
        "type": 0,
        "location": {
            "lat": 46.389063,
            "lng": 123.419983
        },
        "ad_info": {
            "adcode": 230224,
            "province": "黑龙江省",
            "city": "齐齐哈尔市",
            "district": "泰来县"
        }
    },
    {
        "id": "8376165636727708890",
        "title": "公共厕所",
        "address": "黑龙江省齐齐哈尔市克山县S305与齐北北线交叉口东北方向407米左右",
        "tel": "",
        "category": "基础设施:公共设施:公共厕所",
        "type": 0,
        "location": {
            "lat": 48.082017,
            "lng": 126.051272
        },
        "ad_info": {
            "adcode": 230229,
            "province": "黑龙江省",
            "city": "齐齐哈尔市",
            "district": "克山县"
        }
    },
    {
        "id": "1763125215230566809",
        "title": "卫生间",
        "address": "黑龙江省齐齐哈尔市建华区新江路1号万达广场B1",
        "tel": "",
        "category": "基础设施:公共设施:公共厕所",
        "type": 0,
        "location": {
            "lat": 47.367641,
            "lng": 123.949656
        },
        "ad_info": {
            "adcode": 230203,
            "province": "黑龙江省",
            "city": "齐齐哈尔市",
            "district": "建华区"
        }
    },
    {
        "id": "15512737711592485866",
        "title": "公共厕所",
        "address": "黑龙江省齐齐哈尔市富拉尔基区工农街与建富路交叉口正西方向35米左右",
        "tel": "",
        "category": "基础设施:公共设施:公共厕所",
        "type": 0,
        "location": {
            "lat": 47.21441,
            "lng": 123.65701
        },
        "ad_info": {
            "adcode": 230206,
            "province": "黑龙江省",
            "city": "齐齐哈尔市",
            "district": "富拉尔基区"
        }
    },
    {
        "id": "12149512087361230994",
        "title": "公共厕所",
        "address": "黑龙江省齐齐哈尔市龙沙区恒际纸箱厂东侧170米",
        "tel": "",
        "category": "基础设施:公共设施:公共厕所",
        "type": 0,
        "location": {
            "lat": 47.303458,
            "lng": 123.91038
        },
        "ad_info": {
            "adcode": 230202,
            "province": "黑龙江省",
            "city": "齐齐哈尔市",
            "district": "龙沙区"
        }
    },
    {
        "id": "15303358961358473945",
        "title": "公共厕所",
        "address": "黑龙江省齐齐哈尔市泰来县光明街与建设路交叉口正南方向85米左右",
        "tel": "",
        "category": "基础设施:公共设施:公共厕所",
        "type": 0,
        "location": {
            "lat": 46.385657,
            "lng": 123.42042
        },
        "ad_info": {
            "adcode": 230224,
            "province": "黑龙江省",
            "city": "齐齐哈尔市",
            "district": "泰来县"
        }
    },
    {
        "id": "11913657204613647600",
        "title": "公共厕所",
        "address": "黑龙江省齐齐哈尔市拜泉县人民街与育英路交叉口正北方向73米左右",
        "tel": "",
        "category": "基础设施:公共设施:公共厕所",
        "type": 0,
        "location": {
            "lat": 47.60659,
            "lng": 126.090879
        },
        "ad_info": {
            "adcode": 230231,
            "province": "黑龙江省",
            "city": "齐齐哈尔市",
            "district": "拜泉县"
        }
    },
    {
        "id": "17872979486753205291",
        "title": "公共厕所",
        "address": "黑龙江省齐齐哈尔市克山县S305与东大街交叉口正东方向285米左右",
        "tel": "",
        "category": "基础设施:公共设施:公共厕所",
        "type": 0,
        "location": {
            "lat": 48.036319,
            "lng": 125.891523
        },
        "ad_info": {
            "adcode": 230229,
            "province": "黑龙江省",
            "city": "齐齐哈尔市",
            "district": "克山县"
        }
    },
    {
        "id": "8343102684457981303",
        "title": "公共厕所",
        "address": "黑龙江省齐齐哈尔市铁锋区康庄路与联通大道交叉口西北方向48米左右",
        "tel": "",
        "category": "基础设施:公共设施:公共厕所",
        "type": 0,
        "location": {
            "lat": 47.345186,
            "lng": 124.091866
        },
        "ad_info": {
            "adcode": 230204,
            "province": "黑龙江省",
            "city": "齐齐哈尔市",
            "district": "铁锋区"
        }
    },
    {
        "id": "10037595208085900653",
        "title": "公共厕所",
        "address": "黑龙江省齐齐哈尔市泰来县S313与泰塔线交叉口正北方向923米左右",
        "tel": "",
        "category": "基础设施:公共设施:公共厕所",
        "type": 0,
        "location": {
            "lat": 46.609689,
            "lng": 123.067377
        },
        "ad_info": {
            "adcode": 230224,
            "province": "黑龙江省",
            "city": "齐齐哈尔市",
            "district": "泰来县"
        }
    },
    {
        "id": "12303283799076568708",
        "title": "公共厕所",
        "address": "黑龙江省齐齐哈尔市克东县南阳路与繁荣街交叉口正西方向24米左右",
        "tel": "",
        "category": "基础设施:公共设施:公共厕所",
        "type": 0,
        "location": {
            "lat": 48.030369,
            "lng": 126.251746
        },
        "ad_info": {
            "adcode": 230230,
            "province": "黑龙江省",
            "city": "齐齐哈尔市",
            "district": "克东县"
        }
    },
    {
        "id": "10104288966919227633",
        "title": "男卫生间",
        "address": "黑龙江省齐齐哈尔市建华区新江路1号万达广场F1",
        "tel": "",
        "category": "基础设施:公共设施:男洗手间",
        "type": 0,
        "location": {
            "lat": 47.368836,
            "lng": 123.947056
        },
        "ad_info": {
            "adcode": 230203,
            "province": "黑龙江省",
            "city": "齐齐哈尔市",
            "district": "建华区"
        }
    },
    {
        "id": "15705203263556094023",
        "title": "公共厕所",
        "address": "黑龙江省齐齐哈尔市讷河市电视台西侧",
        "tel": "",
        "category": "基础设施:公共设施:公共厕所",
        "type": 0,
        "location": {
            "lat": 48.49817,
            "lng": 124.876374
        },
        "ad_info": {
            "adcode": 230281,
            "province": "黑龙江省",
            "city": "齐齐哈尔市",
            "district": "讷河市"
        }
    },
    {
        "id": "12883601478811283604",
        "title": "公共厕所",
        "address": "黑龙江省齐齐哈尔市拜泉县政府路与西城街交叉口东南方向25米左右",
        "tel": "",
        "category": "基础设施:公共设施:公共厕所",
        "type": 0,
        "location": {
            "lat": 47.608331,
            "lng": 126.079449
        },
        "ad_info": {
            "adcode": 230231,
            "province": "黑龙江省",
            "city": "齐齐哈尔市",
            "district": "拜泉县"
        }
    },
    {
        "id": "3549358291333117308",
        "title": "公共厕所",
        "address": "黑龙江省齐齐哈尔市讷河市阳光水岸北500米",
        "tel": "",
        "category": "基础设施:公共设施:公共厕所",
        "type": 0,
        "location": {
            "lat": 48.487164,
            "lng": 124.865995
        },
        "ad_info": {
            "adcode": 230281,
            "province": "黑龙江省",
            "city": "齐齐哈尔市",
            "district": "讷河市"
        }
    },
    {
        "id": "2973987631317169228",
        "title": "公共厕所",
        "address": "黑龙江省齐齐哈尔市克山县东环南路与泡北路交叉口正北方向39米左右",
        "tel": "",
        "category": "基础设施:公共设施:公共厕所",
        "type": 0,
        "location": {
            "lat": 48.033251,
            "lng": 125.887594
        },
        "ad_info": {
            "adcode": 230229,
            "province": "黑龙江省",
            "city": "齐齐哈尔市",
            "district": "克山县"
        }
    },
    {
        "id": "18371378142660146077",
        "title": "公共厕所",
        "address": "黑龙江省齐齐哈尔市拜泉县曙光街与龙泉路交叉口正北方向370米左右",
        "tel": "",
        "category": "基础设施:公共设施:公共厕所",
        "type": 0,
        "location": {
            "lat": 47.618271,
            "lng": 126.090903
        },
        "ad_info": {
            "adcode": 230231,
            "province": "黑龙江省",
            "city": "齐齐哈尔市",
            "district": "拜泉县"
        }
    },
    {
        "id": "18071591554588289417",
        "title": "公共厕所",
        "address": "黑龙江省齐齐哈尔市富拉尔基区向阳大街与工农街交叉口正东方向181米左右",
        "tel": "",
        "category": "基础设施:公共设施:公共厕所",
        "type": 0,
        "location": {
            "lat": 47.20902,
            "lng": 123.657489
        },
        "ad_info": {
            "adcode": 230206,
            "province": "黑龙江省",
            "city": "齐齐哈尔市",
            "district": "富拉尔基区"
        }
    },
    {
        "id": "17748768246984417590",
        "title": "肯德基(民航餐厅)洗手间",
        "address": "黑龙江省齐齐哈尔市龙沙区卜奎大街12-1号",
        "tel": "",
        "category": "基础设施:公共设施:公共厕所",
        "type": 0,
        "location": {
            "lat": 47.34307,
            "lng": 123.95678
        },
        "ad_info": {
            "adcode": 230202,
            "province": "黑龙江省",
            "city": "齐齐哈尔市",
            "district": "龙沙区"
        }
    },
    {
        "id": "11427688811656096978",
        "title": "公共厕所",
        "address": "黑龙江省齐齐哈尔市龙江县兴业街与龙甘路交叉口东北方向581米左右",
        "tel": "",
        "category": "基础设施:公共设施:公共厕所",
        "type": 0,
        "location": {
            "lat": 47.359179,
            "lng": 123.203497
        },
        "ad_info": {
            "adcode": 230221,
            "province": "黑龙江省",
            "city": "齐齐哈尔市",
            "district": "龙江县"
        }
    },
    {
        "id": "5430303747948483345",
        "title": "公共厕所",
        "address": "黑龙江省齐齐哈尔市泰来县建设路与文博街交叉口西南方向22米左右",
        "tel": "",
        "category": "基础设施:公共设施:公共厕所",
        "type": 0,
        "location": {
            "lat": 46.389063,
            "lng": 123.419983
        },
        "ad_info": {
            "adcode": 230224,
            "province": "黑龙江省",
            "city": "齐齐哈尔市",
            "district": "泰来县"
        }
    },
    {
        "id": "8376165636727708890",
        "title": "公共厕所",
        "address": "黑龙江省齐齐哈尔市克山县S305与齐北北线交叉口东北方向407米左右",
        "tel": "",
        "category": "基础设施:公共设施:公共厕所",
        "type": 0,
        "location": {
            "lat": 48.082017,
            "lng": 126.051272
        },
        "ad_info": {
            "adcode": 230229,
            "province": "黑龙江省",
            "city": "齐齐哈尔市",
            "district": "克山县"
        }
    },
    {
        "id": "1763125215230566809",
        "title": "卫生间",
        "address": "黑龙江省齐齐哈尔市建华区新江路1号万达广场B1",
        "tel": "",
        "category": "基础设施:公共设施:公共厕所",
        "type": 0,
        "location": {
            "lat": 47.367641,
            "lng": 123.949656
        },
        "ad_info": {
            "adcode": 230203,
            "province": "黑龙江省",
            "city": "齐齐哈尔市",
            "district": "建华区"
        }
    },
    {
        "id": "15512737711592485866",
        "title": "公共厕所",
        "address": "黑龙江省齐齐哈尔市富拉尔基区工农街与建富路交叉口正西方向35米左右",
        "tel": "",
        "category": "基础设施:公共设施:公共厕所",
        "type": 0,
        "location": {
            "lat": 47.21441,
            "lng": 123.65701
        },
        "ad_info": {
            "adcode": 230206,
            "province": "黑龙江省",
            "city": "齐齐哈尔市",
            "district": "富拉尔基区"
        }
    },
    {
        "id": "12149512087361230994",
        "title": "公共厕所",
        "address": "黑龙江省齐齐哈尔市龙沙区恒际纸箱厂东侧170米",
        "tel": "",
        "category": "基础设施:公共设施:公共厕所",
        "type": 0,
        "location": {
            "lat": 47.303458,
            "lng": 123.91038
        },
        "ad_info": {
            "adcode": 230202,
            "province": "黑龙江省",
            "city": "齐齐哈尔市",
            "district": "龙沙区"
        }
    },
    {
        "id": "15303358961358473945",
        "title": "公共厕所",
        "address": "黑龙江省齐齐哈尔市泰来县光明街与建设路交叉口正南方向85米左右",
        "tel": "",
        "category": "基础设施:公共设施:公共厕所",
        "type": 0,
        "location": {
            "lat": 46.385657,
            "lng": 123.42042
        },
        "ad_info": {
            "adcode": 230224,
            "province": "黑龙江省",
            "city": "齐齐哈尔市",
            "district": "泰来县"
        }
    },
    {
        "id": "11913657204613647600",
        "title": "公共厕所",
        "address": "黑龙江省齐齐哈尔市拜泉县人民街与育英路交叉口正北方向73米左右",
        "tel": "",
        "category": "基础设施:公共设施:公共厕所",
        "type": 0,
        "location": {
            "lat": 47.60659,
            "lng": 126.090879
        },
        "ad_info": {
            "adcode": 230231,
            "province": "黑龙江省",
            "city": "齐齐哈尔市",
            "district": "拜泉县"
        }
    },
    {
        "id": "17872979486753205291",
        "title": "公共厕所",
        "address": "黑龙江省齐齐哈尔市克山县S305与东大街交叉口正东方向285米左右",
        "tel": "",
        "category": "基础设施:公共设施:公共厕所",
        "type": 0,
        "location": {
            "lat": 48.036319,
            "lng": 125.891523
        },
        "ad_info": {
            "adcode": 230229,
            "province": "黑龙江省",
            "city": "齐齐哈尔市",
            "district": "克山县"
        }
    },
    {
        "id": "8343102684457981303",
        "title": "公共厕所",
        "address": "黑龙江省齐齐哈尔市铁锋区康庄路与联通大道交叉口西北方向48米左右",
        "tel": "",
        "category": "基础设施:公共设施:公共厕所",
        "type": 0,
        "location": {
            "lat": 47.345186,
            "lng": 124.091866
        },
        "ad_info": {
            "adcode": 230204,
            "province": "黑龙江省",
            "city": "齐齐哈尔市",
            "district": "铁锋区"
        }
    },
    {
        "id": "10037595208085900653",
        "title": "公共厕所",
        "address": "黑龙江省齐齐哈尔市泰来县S313与泰塔线交叉口正北方向923米左右",
        "tel": "",
        "category": "基础设施:公共设施:公共厕所",
        "type": 0,
        "location": {
            "lat": 46.609689,
            "lng": 123.067377
        },
        "ad_info": {
            "adcode": 230224,
            "province": "黑龙江省",
            "city": "齐齐哈尔市",
            "district": "泰来县"
        }
    },
    {
        "id": "12303283799076568708",
        "title": "公共厕所",
        "address": "黑龙江省齐齐哈尔市克东县南阳路与繁荣街交叉口正西方向24米左右",
        "tel": "",
        "category": "基础设施:公共设施:公共厕所",
        "type": 0,
        "location": {
            "lat": 48.030369,
            "lng": 126.251746
        },
        "ad_info": {
            "adcode": 230230,
            "province": "黑龙江省",
            "city": "齐齐哈尔市",
            "district": "克东县"
        }
    },
    {
        "id": "10104288966919227633",
        "title": "男卫生间",
        "address": "黑龙江省齐齐哈尔市建华区新江路1号万达广场F1",
        "tel": "",
        "category": "基础设施:公共设施:男洗手间",
        "type": 0,
        "location": {
            "lat": 47.368836,
            "lng": 123.947056
        },
        "ad_info": {
            "adcode": 230203,
            "province": "黑龙江省",
            "city": "齐齐哈尔市",
            "district": "建华区"
        }
    },
    {
        "id": "15705203263556094023",
        "title": "公共厕所",
        "address": "黑龙江省齐齐哈尔市讷河市电视台西侧",
        "tel": "",
        "category": "基础设施:公共设施:公共厕所",
        "type": 0,
        "location": {
            "lat": 48.49817,
            "lng": 124.876374
        },
        "ad_info": {
            "adcode": 230281,
            "province": "黑龙江省",
            "city": "齐齐哈尔市",
            "district": "讷河市"
        }
    },
    {
        "id": "12883601478811283604",
        "title": "公共厕所",
        "address": "黑龙江省齐齐哈尔市拜泉县政府路与西城街交叉口东南方向25米左右",
        "tel": "",
        "category": "基础设施:公共设施:公共厕所",
        "type": 0,
        "location": {
            "lat": 47.608331,
            "lng": 126.079449
        },
        "ad_info": {
            "adcode": 230231,
            "province": "黑龙江省",
            "city": "齐齐哈尔市",
            "district": "拜泉县"
        }
    },
    {
        "id": "3549358291333117308",
        "title": "公共厕所",
        "address": "黑龙江省齐齐哈尔市讷河市阳光水岸北500米",
        "tel": "",
        "category": "基础设施:公共设施:公共厕所",
        "type": 0,
        "location": {
            "lat": 48.487164,
            "lng": 124.865995
        },
        "ad_info": {
            "adcode": 230281,
            "province": "黑龙江省",
            "city": "齐齐哈尔市",
            "district": "讷河市"
        }
    },
    {
        "id": "2973987631317169228",
        "title": "公共厕所",
        "address": "黑龙江省齐齐哈尔市克山县东环南路与泡北路交叉口正北方向39米左右",
        "tel": "",
        "category": "基础设施:公共设施:公共厕所",
        "type": 0,
        "location": {
            "lat": 48.033251,
            "lng": 125.887594
        },
        "ad_info": {
            "adcode": 230229,
            "province": "黑龙江省",
            "city": "齐齐哈尔市",
            "district": "克山县"
        }
    },
    {
        "id": "18371378142660146077",
        "title": "公共厕所",
        "address": "黑龙江省齐齐哈尔市拜泉县曙光街与龙泉路交叉口正北方向370米左右",
        "tel": "",
        "category": "基础设施:公共设施:公共厕所",
        "type": 0,
        "location": {
            "lat": 47.618271,
            "lng": 126.090903
        },
        "ad_info": {
            "adcode": 230231,
            "province": "黑龙江省",
            "city": "齐齐哈尔市",
            "district": "拜泉县"
        }
    },
    {
        "id": "18071591554588289417",
        "title": "公共厕所",
        "address": "黑龙江省齐齐哈尔市富拉尔基区向阳大街与工农街交叉口正东方向181米左右",
        "tel": "",
        "category": "基础设施:公共设施:公共厕所",
        "type": 0,
        "location": {
            "lat": 47.20902,
            "lng": 123.657489
        },
        "ad_info": {
            "adcode": 230206,
            "province": "黑龙江省",
            "city": "齐齐哈尔市",
            "district": "富拉尔基区"
        }
    },
    {
        "id": "17748768246984417590",
        "title": "肯德基(民航餐厅)洗手间",
        "address": "黑龙江省齐齐哈尔市龙沙区卜奎大街12-1号",
        "tel": "",
        "category": "基础设施:公共设施:公共厕所",
        "type": 0,
        "location": {
            "lat": 47.34307,
            "lng": 123.95678
        },
        "ad_info": {
            "adcode": 230202,
            "province": "黑龙江省",
            "city": "齐齐哈尔市",
            "district": "龙沙区"
        }
    },
    {
        "id": "11427688811656096978",
        "title": "公共厕所",
        "address": "黑龙江省齐齐哈尔市龙江县兴业街与龙甘路交叉口东北方向581米左右",
        "tel": "",
        "category": "基础设施:公共设施:公共厕所",
        "type": 0,
        "location": {
            "lat": 47.359179,
            "lng": 123.203497
        },
        "ad_info": {
            "adcode": 230221,
            "province": "黑龙江省",
            "city": "齐齐哈尔市",
            "district": "龙江县"
        }
    },
    {
        "id": "5430303747948483345",
        "title": "公共厕所",
        "address": "黑龙江省齐齐哈尔市泰来县建设路与文博街交叉口西南方向22米左右",
        "tel": "",
        "category": "基础设施:公共设施:公共厕所",
        "type": 0,
        "location": {
            "lat": 46.389063,
            "lng": 123.419983
        },
        "ad_info": {
            "adcode": 230224,
            "province": "黑龙江省",
            "city": "齐齐哈尔市",
            "district": "泰来县"
        }
    },
    {
        "id": "8376165636727708890",
        "title": "公共厕所",
        "address": "黑龙江省齐齐哈尔市克山县S305与齐北北线交叉口东北方向407米左右",
        "tel": "",
        "category": "基础设施:公共设施:公共厕所",
        "type": 0,
        "location": {
            "lat": 48.082017,
            "lng": 126.051272
        },
        "ad_info": {
            "adcode": 230229,
            "province": "黑龙江省",
            "city": "齐齐哈尔市",
            "district": "克山县"
        }
    },
    {
        "id": "1763125215230566809",
        "title": "卫生间",
        "address": "黑龙江省齐齐哈尔市建华区新江路1号万达广场B1",
        "tel": "",
        "category": "基础设施:公共设施:公共厕所",
        "type": 0,
        "location": {
            "lat": 47.367641,
            "lng": 123.949656
        },
        "ad_info": {
            "adcode": 230203,
            "province": "黑龙江省",
            "city": "齐齐哈尔市",
            "district": "建华区"
        }
    },
    {
        "id": "15512737711592485866",
        "title": "公共厕所",
        "address": "黑龙江省齐齐哈尔市富拉尔基区工农街与建富路交叉口正西方向35米左右",
        "tel": "",
        "category": "基础设施:公共设施:公共厕所",
        "type": 0,
        "location": {
            "lat": 47.21441,
            "lng": 123.65701
        },
        "ad_info": {
            "adcode": 230206,
            "province": "黑龙江省",
            "city": "齐齐哈尔市",
            "district": "富拉尔基区"
        }
    },
    {
        "id": "12149512087361230994",
        "title": "公共厕所",
        "address": "黑龙江省齐齐哈尔市龙沙区恒际纸箱厂东侧170米",
        "tel": "",
        "category": "基础设施:公共设施:公共厕所",
        "type": 0,
        "location": {
            "lat": 47.303458,
            "lng": 123.91038
        },
        "ad_info": {
            "adcode": 230202,
            "province": "黑龙江省",
            "city": "齐齐哈尔市",
            "district": "龙沙区"
        }
    },
    {
        "id": "15303358961358473945",
        "title": "公共厕所",
        "address": "黑龙江省齐齐哈尔市泰来县光明街与建设路交叉口正南方向85米左右",
        "tel": "",
        "category": "基础设施:公共设施:公共厕所",
        "type": 0,
        "location": {
            "lat": 46.385657,
            "lng": 123.42042
        },
        "ad_info": {
            "adcode": 230224,
            "province": "黑龙江省",
            "city": "齐齐哈尔市",
            "district": "泰来县"
        }
    },
    {
        "id": "11913657204613647600",
        "title": "公共厕所",
        "address": "黑龙江省齐齐哈尔市拜泉县人民街与育英路交叉口正北方向73米左右",
        "tel": "",
        "category": "基础设施:公共设施:公共厕所",
        "type": 0,
        "location": {
            "lat": 47.60659,
            "lng": 126.090879
        },
        "ad_info": {
            "adcode": 230231,
            "province": "黑龙江省",
            "city": "齐齐哈尔市",
            "district": "拜泉县"
        }
    },
    {
        "id": "17872979486753205291",
        "title": "公共厕所",
        "address": "黑龙江省齐齐哈尔市克山县S305与东大街交叉口正东方向285米左右",
        "tel": "",
        "category": "基础设施:公共设施:公共厕所",
        "type": 0,
        "location": {
            "lat": 48.036319,
            "lng": 125.891523
        },
        "ad_info": {
            "adcode": 230229,
            "province": "黑龙江省",
            "city": "齐齐哈尔市",
            "district": "克山县"
        }
    },
    {
        "id": "8343102684457981303",
        "title": "公共厕所",
        "address": "黑龙江省齐齐哈尔市铁锋区康庄路与联通大道交叉口西北方向48米左右",
        "tel": "",
        "category": "基础设施:公共设施:公共厕所",
        "type": 0,
        "location": {
            "lat": 47.345186,
            "lng": 124.091866
        },
        "ad_info": {
            "adcode": 230204,
            "province": "黑龙江省",
            "city": "齐齐哈尔市",
            "district": "铁锋区"
        }
    },
    {
        "id": "10037595208085900653",
        "title": "公共厕所",
        "address": "黑龙江省齐齐哈尔市泰来县S313与泰塔线交叉口正北方向923米左右",
        "tel": "",
        "category": "基础设施:公共设施:公共厕所",
        "type": 0,
        "location": {
            "lat": 46.609689,
            "lng": 123.067377
        },
        "ad_info": {
            "adcode": 230224,
            "province": "黑龙江省",
            "city": "齐齐哈尔市",
            "district": "泰来县"
        }
    },
    {
        "id": "12303283799076568708",
        "title": "公共厕所",
        "address": "黑龙江省齐齐哈尔市克东县南阳路与繁荣街交叉口正西方向24米左右",
        "tel": "",
        "category": "基础设施:公共设施:公共厕所",
        "type": 0,
        "location": {
            "lat": 48.030369,
            "lng": 126.251746
        },
        "ad_info": {
            "adcode": 230230,
            "province": "黑龙江省",
            "city": "齐齐哈尔市",
            "district": "克东县"
        }
    },
    {
        "id": "10104288966919227633",
        "title": "男卫生间",
        "address": "黑龙江省齐齐哈尔市建华区新江路1号万达广场F1",
        "tel": "",
        "category": "基础设施:公共设施:男洗手间",
        "type": 0,
        "location": {
            "lat": 47.368836,
            "lng": 123.947056
        },
        "ad_info": {
            "adcode": 230203,
            "province": "黑龙江省",
            "city": "齐齐哈尔市",
            "district": "建华区"
        }
    },
    {
        "id": "15705203263556094023",
        "title": "公共厕所",
        "address": "黑龙江省齐齐哈尔市讷河市电视台西侧",
        "tel": "",
        "category": "基础设施:公共设施:公共厕所",
        "type": 0,
        "location": {
            "lat": 48.49817,
            "lng": 124.876374
        },
        "ad_info": {
            "adcode": 230281,
            "province": "黑龙江省",
            "city": "齐齐哈尔市",
            "district": "讷河市"
        }
    },
    {
        "id": "12883601478811283604",
        "title": "公共厕所",
        "address": "黑龙江省齐齐哈尔市拜泉县政府路与西城街交叉口东南方向25米左右",
        "tel": "",
        "category": "基础设施:公共设施:公共厕所",
        "type": 0,
        "location": {
            "lat": 47.608331,
            "lng": 126.079449
        },
        "ad_info": {
            "adcode": 230231,
            "province": "黑龙江省",
            "city": "齐齐哈尔市",
            "district": "拜泉县"
        }
    },
    {
        "id": "3549358291333117308",
        "title": "公共厕所",
        "address": "黑龙江省齐齐哈尔市讷河市阳光水岸北500米",
        "tel": "",
        "category": "基础设施:公共设施:公共厕所",
        "type": 0,
        "location": {
            "lat": 48.487164,
            "lng": 124.865995
        },
        "ad_info": {
            "adcode": 230281,
            "province": "黑龙江省",
            "city": "齐齐哈尔市",
            "district": "讷河市"
        }
    },
    {
        "id": "2973987631317169228",
        "title": "公共厕所",
        "address": "黑龙江省齐齐哈尔市克山县东环南路与泡北路交叉口正北方向39米左右",
        "tel": "",
        "category": "基础设施:公共设施:公共厕所",
        "type": 0,
        "location": {
            "lat": 48.033251,
            "lng": 125.887594
        },
        "ad_info": {
            "adcode": 230229,
            "province": "黑龙江省",
            "city": "齐齐哈尔市",
            "district": "克山县"
        }
    },
    {
        "id": "18371378142660146077",
        "title": "公共厕所",
        "address": "黑龙江省齐齐哈尔市拜泉县曙光街与龙泉路交叉口正北方向370米左右",
        "tel": "",
        "category": "基础设施:公共设施:公共厕所",
        "type": 0,
        "location": {
            "lat": 47.618271,
            "lng": 126.090903
        },
        "ad_info": {
            "adcode": 230231,
            "province": "黑龙江省",
            "city": "齐齐哈尔市",
            "district": "拜泉县"
        }
    },
    {
        "id": "18071591554588289417",
        "title": "公共厕所",
        "address": "黑龙江省齐齐哈尔市富拉尔基区向阳大街与工农街交叉口正东方向181米左右",
        "tel": "",
        "category": "基础设施:公共设施:公共厕所",
        "type": 0,
        "location": {
            "lat": 47.20902,
            "lng": 123.657489
        },
        "ad_info": {
            "adcode": 230206,
            "province": "黑龙江省",
            "city": "齐齐哈尔市",
            "district": "富拉尔基区"
        }
    },
    {
        "id": "17748768246984417590",
        "title": "肯德基(民航餐厅)洗手间",
        "address": "黑龙江省齐齐哈尔市龙沙区卜奎大街12-1号",
        "tel": "",
        "category": "基础设施:公共设施:公共厕所",
        "type": 0,
        "location": {
            "lat": 47.34307,
            "lng": 123.95678
        },
        "ad_info": {
            "adcode": 230202,
            "province": "黑龙江省",
            "city": "齐齐哈尔市",
            "district": "龙沙区"
        }
    },
    {
        "id": "11427688811656096978",
        "title": "公共厕所",
        "address": "黑龙江省齐齐哈尔市龙江县兴业街与龙甘路交叉口东北方向581米左右",
        "tel": "",
        "category": "基础设施:公共设施:公共厕所",
        "type": 0,
        "location": {
            "lat": 47.359179,
            "lng": 123.203497
        },
        "ad_info": {
            "adcode": 230221,
            "province": "黑龙江省",
            "city": "齐齐哈尔市",
            "district": "龙江县"
        }
    },
    {
        "id": "5430303747948483345",
        "title": "公共厕所",
        "address": "黑龙江省齐齐哈尔市泰来县建设路与文博街交叉口西南方向22米左右",
        "tel": "",
        "category": "基础设施:公共设施:公共厕所",
        "type": 0,
        "location": {
            "lat": 46.389063,
            "lng": 123.419983
        },
        "ad_info": {
            "adcode": 230224,
            "province": "黑龙江省",
            "city": "齐齐哈尔市",
            "district": "泰来县"
        }
    },
    {
        "id": "8376165636727708890",
        "title": "公共厕所",
        "address": "黑龙江省齐齐哈尔市克山县S305与齐北北线交叉口东北方向407米左右",
        "tel": "",
        "category": "基础设施:公共设施:公共厕所",
        "type": 0,
        "location": {
            "lat": 48.082017,
            "lng": 126.051272
        },
        "ad_info": {
            "adcode": 230229,
            "province": "黑龙江省",
            "city": "齐齐哈尔市",
            "district": "克山县"
        }
    },
    {
        "id": "1763125215230566809",
        "title": "卫生间",
        "address": "黑龙江省齐齐哈尔市建华区新江路1号万达广场B1",
        "tel": "",
        "category": "基础设施:公共设施:公共厕所",
        "type": 0,
        "location": {
            "lat": 47.367641,
            "lng": 123.949656
        },
        "ad_info": {
            "adcode": 230203,
            "province": "黑龙江省",
            "city": "齐齐哈尔市",
            "district": "建华区"
        }
    },
    {
        "id": "15512737711592485866",
        "title": "公共厕所",
        "address": "黑龙江省齐齐哈尔市富拉尔基区工农街与建富路交叉口正西方向35米左右",
        "tel": "",
        "category": "基础设施:公共设施:公共厕所",
        "type": 0,
        "location": {
            "lat": 47.21441,
            "lng": 123.65701
        },
        "ad_info": {
            "adcode": 230206,
            "province": "黑龙江省",
            "city": "齐齐哈尔市",
            "district": "富拉尔基区"
        }
    },
    {
        "id": "12149512087361230994",
        "title": "公共厕所",
        "address": "黑龙江省齐齐哈尔市龙沙区恒际纸箱厂东侧170米",
        "tel": "",
        "category": "基础设施:公共设施:公共厕所",
        "type": 0,
        "location": {
            "lat": 47.303458,
            "lng": 123.91038
        },
        "ad_info": {
            "adcode": 230202,
            "province": "黑龙江省",
            "city": "齐齐哈尔市",
            "district": "龙沙区"
        }
    },
    {
        "id": "15303358961358473945",
        "title": "公共厕所",
        "address": "黑龙江省齐齐哈尔市泰来县光明街与建设路交叉口正南方向85米左右",
        "tel": "",
        "category": "基础设施:公共设施:公共厕所",
        "type": 0,
        "location": {
            "lat": 46.385657,
            "lng": 123.42042
        },
        "ad_info": {
            "adcode": 230224,
            "province": "黑龙江省",
            "city": "齐齐哈尔市",
            "district": "泰来县"
        }
    },
    {
        "id": "11913657204613647600",
        "title": "公共厕所",
        "address": "黑龙江省齐齐哈尔市拜泉县人民街与育英路交叉口正北方向73米左右",
        "tel": "",
        "category": "基础设施:公共设施:公共厕所",
        "type": 0,
        "location": {
            "lat": 47.60659,
            "lng": 126.090879
        },
        "ad_info": {
            "adcode": 230231,
            "province": "黑龙江省",
            "city": "齐齐哈尔市",
            "district": "拜泉县"
        }
    },
    {
        "id": "17872979486753205291",
        "title": "公共厕所",
        "address": "黑龙江省齐齐哈尔市克山县S305与东大街交叉口正东方向285米左右",
        "tel": "",
        "category": "基础设施:公共设施:公共厕所",
        "type": 0,
        "location": {
            "lat": 48.036319,
            "lng": 125.891523
        },
        "ad_info": {
            "adcode": 230229,
            "province": "黑龙江省",
            "city": "齐齐哈尔市",
            "district": "克山县"
        }
    },
    {
        "id": "8343102684457981303",
        "title": "公共厕所",
        "address": "黑龙江省齐齐哈尔市铁锋区康庄路与联通大道交叉口西北方向48米左右",
        "tel": "",
        "category": "基础设施:公共设施:公共厕所",
        "type": 0,
        "location": {
            "lat": 47.345186,
            "lng": 124.091866
        },
        "ad_info": {
            "adcode": 230204,
            "province": "黑龙江省",
            "city": "齐齐哈尔市",
            "district": "铁锋区"
        }
    },
    {
        "id": "10037595208085900653",
        "title": "公共厕所",
        "address": "黑龙江省齐齐哈尔市泰来县S313与泰塔线交叉口正北方向923米左右",
        "tel": "",
        "category": "基础设施:公共设施:公共厕所",
        "type": 0,
        "location": {
            "lat": 46.609689,
            "lng": 123.067377
        },
        "ad_info": {
            "adcode": 230224,
            "province": "黑龙江省",
            "city": "齐齐哈尔市",
            "district": "泰来县"
        }
    },
    {
        "id": "12303283799076568708",
        "title": "公共厕所",
        "address": "黑龙江省齐齐哈尔市克东县南阳路与繁荣街交叉口正西方向24米左右",
        "tel": "",
        "category": "基础设施:公共设施:公共厕所",
        "type": 0,
        "location": {
            "lat": 48.030369,
            "lng": 126.251746
        },
        "ad_info": {
            "adcode": 230230,
            "province": "黑龙江省",
            "city": "齐齐哈尔市",
            "district": "克东县"
        }
    },
    {
        "id": "10104288966919227633",
        "title": "男卫生间",
        "address": "黑龙江省齐齐哈尔市建华区新江路1号万达广场F1",
        "tel": "",
        "category": "基础设施:公共设施:男洗手间",
        "type": 0,
        "location": {
            "lat": 47.368836,
            "lng": 123.947056
        },
        "ad_info": {
            "adcode": 230203,
            "province": "黑龙江省",
            "city": "齐齐哈尔市",
            "district": "建华区"
        }
    },
    {
        "id": "15705203263556094023",
        "title": "公共厕所",
        "address": "黑龙江省齐齐哈尔市讷河市电视台西侧",
        "tel": "",
        "category": "基础设施:公共设施:公共厕所",
        "type": 0,
        "location": {
            "lat": 48.49817,
            "lng": 124.876374
        },
        "ad_info": {
            "adcode": 230281,
            "province": "黑龙江省",
            "city": "齐齐哈尔市",
            "district": "讷河市"
        }
    },
    {
        "id": "12883601478811283604",
        "title": "公共厕所",
        "address": "黑龙江省齐齐哈尔市拜泉县政府路与西城街交叉口东南方向25米左右",
        "tel": "",
        "category": "基础设施:公共设施:公共厕所",
        "type": 0,
        "location": {
            "lat": 47.608331,
            "lng": 126.079449
        },
        "ad_info": {
            "adcode": 230231,
            "province": "黑龙江省",
            "city": "齐齐哈尔市",
            "district": "拜泉县"
        }
    },
    {
        "id": "3549358291333117308",
        "title": "公共厕所",
        "address": "黑龙江省齐齐哈尔市讷河市阳光水岸北500米",
        "tel": "",
        "category": "基础设施:公共设施:公共厕所",
        "type": 0,
        "location": {
            "lat": 48.487164,
            "lng": 124.865995
        },
        "ad_info": {
            "adcode": 230281,
            "province": "黑龙江省",
            "city": "齐齐哈尔市",
            "district": "讷河市"
        }
    },
    {
        "id": "2973987631317169228",
        "title": "公共厕所",
        "address": "黑龙江省齐齐哈尔市克山县东环南路与泡北路交叉口正北方向39米左右",
        "tel": "",
        "category": "基础设施:公共设施:公共厕所",
        "type": 0,
        "location": {
            "lat": 48.033251,
            "lng": 125.887594
        },
        "ad_info": {
            "adcode": 230229,
            "province": "黑龙江省",
            "city": "齐齐哈尔市",
            "district": "克山县"
        }
    },
    {
        "id": "18371378142660146077",
        "title": "公共厕所",
        "address": "黑龙江省齐齐哈尔市拜泉县曙光街与龙泉路交叉口正北方向370米左右",
        "tel": "",
        "category": "基础设施:公共设施:公共厕所",
        "type": 0,
        "location": {
            "lat": 47.618271,
            "lng": 126.090903
        },
        "ad_info": {
            "adcode": 230231,
            "province": "黑龙江省",
            "city": "齐齐哈尔市",
            "district": "拜泉县"
        }
    },
    {
        "id": "18071591554588289417",
        "title": "公共厕所",
        "address": "黑龙江省齐齐哈尔市富拉尔基区向阳大街与工农街交叉口正东方向181米左右",
        "tel": "",
        "category": "基础设施:公共设施:公共厕所",
        "type": 0,
        "location": {
            "lat": 47.20902,
            "lng": 123.657489
        },
        "ad_info": {
            "adcode": 230206,
            "province": "黑龙江省",
            "city": "齐齐哈尔市",
            "district": "富拉尔基区"
        }
    },
    {
        "id": "17748768246984417590",
        "title": "肯德基(民航餐厅)洗手间",
        "address": "黑龙江省齐齐哈尔市龙沙区卜奎大街12-1号",
        "tel": "",
        "category": "基础设施:公共设施:公共厕所",
        "type": 0,
        "location": {
            "lat": 47.34307,
            "lng": 123.95678
        },
        "ad_info": {
            "adcode": 230202,
            "province": "黑龙江省",
            "city": "齐齐哈尔市",
            "district": "龙沙区"
        }
    },
    {
        "id": "11427688811656096978",
        "title": "公共厕所",
        "address": "黑龙江省齐齐哈尔市龙江县兴业街与龙甘路交叉口东北方向581米左右",
        "tel": "",
        "category": "基础设施:公共设施:公共厕所",
        "type": 0,
        "location": {
            "lat": 47.359179,
            "lng": 123.203497
        },
        "ad_info": {
            "adcode": 230221,
            "province": "黑龙江省",
            "city": "齐齐哈尔市",
            "district": "龙江县"
        }
    },
    {
        "id": "5430303747948483345",
        "title": "公共厕所",
        "address": "黑龙江省齐齐哈尔市泰来县建设路与文博街交叉口西南方向22米左右",
        "tel": "",
        "category": "基础设施:公共设施:公共厕所",
        "type": 0,
        "location": {
            "lat": 46.389063,
            "lng": 123.419983
        },
        "ad_info": {
            "adcode": 230224,
            "province": "黑龙江省",
            "city": "齐齐哈尔市",
            "district": "泰来县"
        }
    },
    {
        "id": "8376165636727708890",
        "title": "公共厕所",
        "address": "黑龙江省齐齐哈尔市克山县S305与齐北北线交叉口东北方向407米左右",
        "tel": "",
        "category": "基础设施:公共设施:公共厕所",
        "type": 0,
        "location": {
            "lat": 48.082017,
            "lng": 126.051272
        },
        "ad_info": {
            "adcode": 230229,
            "province": "黑龙江省",
            "city": "齐齐哈尔市",
            "district": "克山县"
        }
    },
    {
        "id": "1763125215230566809",
        "title": "卫生间",
        "address": "黑龙江省齐齐哈尔市建华区新江路1号万达广场B1",
        "tel": "",
        "category": "基础设施:公共设施:公共厕所",
        "type": 0,
        "location": {
            "lat": 47.367641,
            "lng": 123.949656
        },
        "ad_info": {
            "adcode": 230203,
            "province": "黑龙江省",
            "city": "齐齐哈尔市",
            "district": "建华区"
        }
    },
    {
        "id": "15512737711592485866",
        "title": "公共厕所",
        "address": "黑龙江省齐齐哈尔市富拉尔基区工农街与建富路交叉口正西方向35米左右",
        "tel": "",
        "category": "基础设施:公共设施:公共厕所",
        "type": 0,
        "location": {
            "lat": 47.21441,
            "lng": 123.65701
        },
        "ad_info": {
            "adcode": 230206,
            "province": "黑龙江省",
            "city": "齐齐哈尔市",
            "district": "富拉尔基区"
        }
    },
    {
        "id": "12149512087361230994",
        "title": "公共厕所",
        "address": "黑龙江省齐齐哈尔市龙沙区恒际纸箱厂东侧170米",
        "tel": "",
        "category": "基础设施:公共设施:公共厕所",
        "type": 0,
        "location": {
            "lat": 47.303458,
            "lng": 123.91038
        },
        "ad_info": {
            "adcode": 230202,
            "province": "黑龙江省",
            "city": "齐齐哈尔市",
            "district": "龙沙区"
        }
    },
    {
        "id": "15303358961358473945",
        "title": "公共厕所",
        "address": "黑龙江省齐齐哈尔市泰来县光明街与建设路交叉口正南方向85米左右",
        "tel": "",
        "category": "基础设施:公共设施:公共厕所",
        "type": 0,
        "location": {
            "lat": 46.385657,
            "lng": 123.42042
        },
        "ad_info": {
            "adcode": 230224,
            "province": "黑龙江省",
            "city": "齐齐哈尔市",
            "district": "泰来县"
        }
    },
    {
        "id": "11913657204613647600",
        "title": "公共厕所",
        "address": "黑龙江省齐齐哈尔市拜泉县人民街与育英路交叉口正北方向73米左右",
        "tel": "",
        "category": "基础设施:公共设施:公共厕所",
        "type": 0,
        "location": {
            "lat": 47.60659,
            "lng": 126.090879
        },
        "ad_info": {
            "adcode": 230231,
            "province": "黑龙江省",
            "city": "齐齐哈尔市",
            "district": "拜泉县"
        }
    },
    {
        "id": "17872979486753205291",
        "title": "公共厕所",
        "address": "黑龙江省齐齐哈尔市克山县S305与东大街交叉口正东方向285米左右",
        "tel": "",
        "category": "基础设施:公共设施:公共厕所",
        "type": 0,
        "location": {
            "lat": 48.036319,
            "lng": 125.891523
        },
        "ad_info": {
            "adcode": 230229,
            "province": "黑龙江省",
            "city": "齐齐哈尔市",
            "district": "克山县"
        }
    },
    {
        "id": "8343102684457981303",
        "title": "公共厕所",
        "address": "黑龙江省齐齐哈尔市铁锋区康庄路与联通大道交叉口西北方向48米左右",
        "tel": "",
        "category": "基础设施:公共设施:公共厕所",
        "type": 0,
        "location": {
            "lat": 47.345186,
            "lng": 124.091866
        },
        "ad_info": {
            "adcode": 230204,
            "province": "黑龙江省",
            "city": "齐齐哈尔市",
            "district": "铁锋区"
        }
    },
    {
        "id": "10037595208085900653",
        "title": "公共厕所",
        "address": "黑龙江省齐齐哈尔市泰来县S313与泰塔线交叉口正北方向923米左右",
        "tel": "",
        "category": "基础设施:公共设施:公共厕所",
        "type": 0,
        "location": {
            "lat": 46.609689,
            "lng": 123.067377
        },
        "ad_info": {
            "adcode": 230224,
            "province": "黑龙江省",
            "city": "齐齐哈尔市",
            "district": "泰来县"
        }
    },
    {
        "id": "12303283799076568708",
        "title": "公共厕所",
        "address": "黑龙江省齐齐哈尔市克东县南阳路与繁荣街交叉口正西方向24米左右",
        "tel": "",
        "category": "基础设施:公共设施:公共厕所",
        "type": 0,
        "location": {
            "lat": 48.030369,
            "lng": 126.251746
        },
        "ad_info": {
            "adcode": 230230,
            "province": "黑龙江省",
            "city": "齐齐哈尔市",
            "district": "克东县"
        }
    },
    {
        "id": "10104288966919227633",
        "title": "男卫生间",
        "address": "黑龙江省齐齐哈尔市建华区新江路1号万达广场F1",
        "tel": "",
        "category": "基础设施:公共设施:男洗手间",
        "type": 0,
        "location": {
            "lat": 47.368836,
            "lng": 123.947056
        },
        "ad_info": {
            "adcode": 230203,
            "province": "黑龙江省",
            "city": "齐齐哈尔市",
            "district": "建华区"
        }
    },
    {
        "id": "15705203263556094023",
        "title": "公共厕所",
        "address": "黑龙江省齐齐哈尔市讷河市电视台西侧",
        "tel": "",
        "category": "基础设施:公共设施:公共厕所",
        "type": 0,
        "location": {
            "lat": 48.49817,
            "lng": 124.876374
        },
        "ad_info": {
            "adcode": 230281,
            "province": "黑龙江省",
            "city": "齐齐哈尔市",
            "district": "讷河市"
        }
    },
    {
        "id": "12883601478811283604",
        "title": "公共厕所",
        "address": "黑龙江省齐齐哈尔市拜泉县政府路与西城街交叉口东南方向25米左右",
        "tel": "",
        "category": "基础设施:公共设施:公共厕所",
        "type": 0,
        "location": {
            "lat": 47.608331,
            "lng": 126.079449
        },
        "ad_info": {
            "adcode": 230231,
            "province": "黑龙江省",
            "city": "齐齐哈尔市",
            "district": "拜泉县"
        }
    },
    {
        "id": "3549358291333117308",
        "title": "公共厕所",
        "address": "黑龙江省齐齐哈尔市讷河市阳光水岸北500米",
        "tel": "",
        "category": "基础设施:公共设施:公共厕所",
        "type": 0,
        "location": {
            "lat": 48.487164,
            "lng": 124.865995
        },
        "ad_info": {
            "adcode": 230281,
            "province": "黑龙江省",
            "city": "齐齐哈尔市",
            "district": "讷河市"
        }
    },
    {
        "id": "2973987631317169228",
        "title": "公共厕所",
        "address": "黑龙江省齐齐哈尔市克山县东环南路与泡北路交叉口正北方向39米左右",
        "tel": "",
        "category": "基础设施:公共设施:公共厕所",
        "type": 0,
        "location": {
            "lat": 48.033251,
            "lng": 125.887594
        },
        "ad_info": {
            "adcode": 230229,
            "province": "黑龙江省",
            "city": "齐齐哈尔市",
            "district": "克山县"
        }
    },
    {
        "id": "18371378142660146077",
        "title": "公共厕所",
        "address": "黑龙江省齐齐哈尔市拜泉县曙光街与龙泉路交叉口正北方向370米左右",
        "tel": "",
        "category": "基础设施:公共设施:公共厕所",
        "type": 0,
        "location": {
            "lat": 47.618271,
            "lng": 126.090903
        },
        "ad_info": {
            "adcode": 230231,
            "province": "黑龙江省",
            "city": "齐齐哈尔市",
            "district": "拜泉县"
        }
    },
    {
        "id": "18071591554588289417",
        "title": "公共厕所",
        "address": "黑龙江省齐齐哈尔市富拉尔基区向阳大街与工农街交叉口正东方向181米左右",
        "tel": "",
        "category": "基础设施:公共设施:公共厕所",
        "type": 0,
        "location": {
            "lat": 47.20902,
            "lng": 123.657489
        },
        "ad_info": {
            "adcode": 230206,
            "province": "黑龙江省",
            "city": "齐齐哈尔市",
            "district": "富拉尔基区"
        }
    },
    {
        "id": "17748768246984417590",
        "title": "肯德基(民航餐厅)洗手间",
        "address": "黑龙江省齐齐哈尔市龙沙区卜奎大街12-1号",
        "tel": "",
        "category": "基础设施:公共设施:公共厕所",
        "type": 0,
        "location": {
            "lat": 47.34307,
            "lng": 123.95678
        },
        "ad_info": {
            "adcode": 230202,
            "province": "黑龙江省",
            "city": "齐齐哈尔市",
            "district": "龙沙区"
        }
    },
    {
        "id": "11427688811656096978",
        "title": "公共厕所",
        "address": "黑龙江省齐齐哈尔市龙江县兴业街与龙甘路交叉口东北方向581米左右",
        "tel": "",
        "category": "基础设施:公共设施:公共厕所",
        "type": 0,
        "location": {
            "lat": 47.359179,
            "lng": 123.203497
        },
        "ad_info": {
            "adcode": 230221,
            "province": "黑龙江省",
            "city": "齐齐哈尔市",
            "district": "龙江县"
        }
    },
    {
        "id": "5430303747948483345",
        "title": "公共厕所",
        "address": "黑龙江省齐齐哈尔市泰来县建设路与文博街交叉口西南方向22米左右",
        "tel": "",
        "category": "基础设施:公共设施:公共厕所",
        "type": 0,
        "location": {
            "lat": 46.389063,
            "lng": 123.419983
        },
        "ad_info": {
            "adcode": 230224,
            "province": "黑龙江省",
            "city": "齐齐哈尔市",
            "district": "泰来县"
        }
    },
    {
        "id": "8376165636727708890",
        "title": "公共厕所",
        "address": "黑龙江省齐齐哈尔市克山县S305与齐北北线交叉口东北方向407米左右",
        "tel": "",
        "category": "基础设施:公共设施:公共厕所",
        "type": 0,
        "location": {
            "lat": 48.082017,
            "lng": 126.051272
        },
        "ad_info": {
            "adcode": 230229,
            "province": "黑龙江省",
            "city": "齐齐哈尔市",
            "district": "克山县"
        }
    },
    {
        "id": "1763125215230566809",
        "title": "卫生间",
        "address": "黑龙江省齐齐哈尔市建华区新江路1号万达广场B1",
        "tel": "",
        "category": "基础设施:公共设施:公共厕所",
        "type": 0,
        "location": {
            "lat": 47.367641,
            "lng": 123.949656
        },
        "ad_info": {
            "adcode": 230203,
            "province": "黑龙江省",
            "city": "齐齐哈尔市",
            "district": "建华区"
        }
    },
    {
        "id": "15512737711592485866",
        "title": "公共厕所",
        "address": "黑龙江省齐齐哈尔市富拉尔基区工农街与建富路交叉口正西方向35米左右",
        "tel": "",
        "category": "基础设施:公共设施:公共厕所",
        "type": 0,
        "location": {
            "lat": 47.21441,
            "lng": 123.65701
        },
        "ad_info": {
            "adcode": 230206,
            "province": "黑龙江省",
            "city": "齐齐哈尔市",
            "district": "富拉尔基区"
        }
    },
    {
        "id": "12149512087361230994",
        "title": "公共厕所",
        "address": "黑龙江省齐齐哈尔市龙沙区恒际纸箱厂东侧170米",
        "tel": "",
        "category": "基础设施:公共设施:公共厕所",
        "type": 0,
        "location": {
            "lat": 47.303458,
            "lng": 123.91038
        },
        "ad_info": {
            "adcode": 230202,
            "province": "黑龙江省",
            "city": "齐齐哈尔市",
            "district": "龙沙区"
        }
    },
    {
        "id": "15303358961358473945",
        "title": "公共厕所",
        "address": "黑龙江省齐齐哈尔市泰来县光明街与建设路交叉口正南方向85米左右",
        "tel": "",
        "category": "基础设施:公共设施:公共厕所",
        "type": 0,
        "location": {
            "lat": 46.385657,
            "lng": 123.42042
        },
        "ad_info": {
            "adcode": 230224,
            "province": "黑龙江省",
            "city": "齐齐哈尔市",
            "district": "泰来县"
        }
    },
    {
        "id": "11913657204613647600",
        "title": "公共厕所",
        "address": "黑龙江省齐齐哈尔市拜泉县人民街与育英路交叉口正北方向73米左右",
        "tel": "",
        "category": "基础设施:公共设施:公共厕所",
        "type": 0,
        "location": {
            "lat": 47.60659,
            "lng": 126.090879
        },
        "ad_info": {
            "adcode": 230231,
            "province": "黑龙江省",
            "city": "齐齐哈尔市",
            "district": "拜泉县"
        }
    }
]